latitude,longitude,altitude(m),ultrasonicHeight(m),speed(mps),distance(m),max_altitude(m),max_ascent(m),max_speed(mps),max_distance(m),time(millisecond),datetime(utc),datetime(local),satellites,pressure(Pa),temperature(F),voltage(v),home_latitude,home_longitude,velocityX(mps),velocityY(mps),velocityZ(mps),pitch(deg),roll(deg),yaw(deg),powerlevel,isflying,istakingphoto,remainPowerPercent,remainLifePercent,currentCurrent,currentElectricity,currentVoltage,batteryTemperature,dischargeCount,flightmode,isMotorsOn,isTakingVideo,Rc_elevator,Rc_aileron,Rc_throttle,Rc_rudder,Rc_gyro,timestamp,Battery_Cell1,Battery_Cell2,Battery_Cell3,Battery_Cell4,Battery_Cell5,Battery_Cell6,Dronetype,AppVersion,Planename,FlyControllerSerialNumber,RemoteSerialNumber,BatterySerialNumber,CENTER_BATTERY.productDate,CENTER_BATTERY.serialNo,CENTER_BATTERY.fullCapacity,CENTER_BATTERY.productDateRaw,pitchRaw,rollRaw,yawRaw,gimbalPitchRaw,gimbalRollRaw,gimbalYawRaw,flyState,altitudeRaw,speedRaw,distanceRaw,velocityXRaw,velocityYRaw,velocityZRaw,data_reuse,App_Tip,App_Warning,downlinkSignalQuality,uplinkSignalQuality,transmissionChannel,rcModeSwitch,rcHome,rcPause,rcTransform,rcJoystickMode,appMode,FlyControllerSerialNumber_legacy,RemoteSerialNumber_legacy,BatterySerialNumber_legacy,Battery2SerialNumber,frontAvoidDist,backAvoidDist,isBrakingToAvoid
55.937842,-4.406318,100.90,0.00,0.00,6.31,100.90,100.90,0.00,6.31,0,2021-04-17 12:46:52.610,2021-04-17 13:46:52.610,18,0,0,0.000,55.937787,-4.406347,0.00,0.00,0.00,-3.40,5.30,143.80,0,1,0,0,0,0,0,0,2731.50,0,P-GPS,1,0,0,0,0,0,0,1618663612610,0,0,0,0,0,0,27,Litchi_4.18.0-g,,,,null,,0,0,0,34.00,53.00,1438.00,-426.00,0.00,1387.00,6,1009.00,0.00,63.14,0.00,0.00,0.00,0,,,100,100,0,2,0,0,0,2,0,,,,null,0.0,0.0,0
55.937841,-4.406318,100.90,0.00,0.00,6.31,100.90,100.90,0.00,6.31,104,2021-04-17 12:46:52.715,2021-04-17 13:46:52.714,18,0,0,14.839,55.937787,-4.406347,0.00,0.00,0.00,-3.30,5.40,143.80,0,1,0,0,0,0,1416,14839,3105.50,0,P-GPS,1,0,0,0,0,0,0,1618663612714,0,0,0,0,0,0,27,Litchi_4.18.0-g,,,,null,,0,0,0,33.00,54.00,1438.00,-426.00,0.00,1387.00,6,1009.00,0.00,63.11,0.00,0.00,0.00,0,,,100,100,0,2,0,0,0,2,0,,,,null,0.0,0.0,0
55.937842,-4.406318,100.90,0.00,0.00,6.32,100.90,100.90,0.00,6.32,207,2021-04-17 12:46:52.817,2021-04-17 13:46:52.817,18,0,0,14.839,55.937787,-4.406347,0.00,0.00,0.00,-3.40,5.30,143.80,0,1,0,0,0,0,1416,14839,3105.50,0,P-GPS,1,0,0,0,0,0,0,1618663612817,0,0,0,0,0,0,27,Litchi_4.18.0-g,,,,null,,0,0,0,34.00,53.00,1438.00,-426.00,0.00,1387.00,6,1009.00,0.00,63.20,0.00,0.00,0.00,0,,,100,100,0,2,0,0,0,2,0,,,,null,0.0,0.0,0
55.937842,-4.406318,100.90,0.00,0.00,6.32,100.90,100.90,0.00,6.32,299,2021-04-17 12:46:52.909,2021-04-17 13:46:52.909,18,0,0,14.839,55.937787,-4.406347,0.00,0.00,0.00,-3.30,5.50,143.90,0,1,0,0,0,0,1416,14839,3105.50,0,P-GPS,1,0,0,0,0,0,0,1618663612909,0,0,0,0,0,0,27,Litchi_4.18.0-g,,,,null,,0,0,0,33.00,55.00,1439.00,-426.00,0.00,1387.00,6,1009.00,0.00,63.18,0.00,0.00,0.00,0,,,100,100,0,2,0,0,0,2,0,,,,null,0.0,0.0,0
55.937841,-4.406318,100.90,0.00,0.00,6.30,100.90,100.90,0.00,6.32,398,2021-04-17 12:46:53.008,2021-04-17 13:46:53.008,18,0,0,14.839,55.937787,-4.406347,0.00,0.00,0.00,-3.30,5.60,143.90,0,1,0,0,0,0,1416,14839,3105.50,0,P-GPS,1,0,0,0,0,0,0,1618663613008,0,0,0,0,0,0,27,Litchi_4.18.0-g,CJTMAVIC,163DFAS001K45C,0VECFAK0072T52,0P2AFB25340AEP,,0,0,0,33.00,56.00,1439.00,-426.00,0.00,1387.00,6,1009.00,0.00,63.03,0.00,0.00,0.00,0,,,100,100,0,2,0,0,0,2,0,,,,null,0.0,0.0,0
55.937841,-4.406318,100.90,0.00,0.00,6.30,100.90,100.90,0.00,6.32,503,2021-04-17 12:46:53.114,2021-04-17 13:46:53.113,17,0,0,14.839,55.937787,-4.406347,0.00,0.00,0.00,-3.50,5.50,143.80,0,1,0,0,0,0,1416,14839,3105.50,0,P-GPS,1,0,0,0,0,0,0,1618663613113,0,0,0,0,0,0,27,,,,,,,0,0,0,35.00,55.00,1438.00,-426.00,0.00,1387.00,6,1009.00,0.00,63.00,0.00,0.00,0.00,0,,,100,100,0,2,0,0,0,2,0,,,,,0.0,0.0,0
55.937841,-4.406319,100.90,0.00,0.00,6.29,100.90,100.90,0.00,6.32,599,2021-04-17 12:46:53.209,2021-04-17 13:46:53.209,17,0,0,14.839,55.937787,-4.406347,0.00,0.00,0.00,-3.60,5.40,143.80,0,1,0,0,0,0,1416,14839,3105.50,0,P-GPS,1,0,0,0,0,0,0,1618663613209,0,0,0,0,0,0,27,,,,,,,0,0,0,36.00,54.00,1438.00,-426.00,0.00,1387.00,6,1009.00,0.00,62.85,0.00,0.00,0.00,0,,,100,100,0,2,0,0,0,2,0,,,,,0.0,0.0,0
55.937841,-4.406319,100.90,0.00,0.00,6.28,100.90,100.90,0.00,6.32,699,2021-04-17 12:46:53.310,2021-04-17 13:46:53.309,17,0,0,14.839,55.937787,-4.406347,0.00,0.00,0.00,-3.70,5.20,143.70,0,1,0,0,0,0,1416,14839,3105.50,0,P-GPS,1,0,0,0,0,0,0,1618663613309,0,0,0,0,0,0,27,,,,,,,0,0,0,37.00,52.00,1437.00,-426.00,0.00,1387.00,6,1009.00,0.00,62.80,0.00,0.00,0.00,0,,,100,100,0,2,0,0,0,2,0,,,,,0.0,0.0,0
55.937841,-4.406319,100.90,0.00,0.00,6.28,100.90,100.90,0.00,6.32,798,2021-04-17 12:46:53.408,2021-04-17 13:46:53.408,17,0,0,14.839,55.937787,-4.406347,0.00,0.00,0.00,-3.90,5.20,143.80,0,1,0,0,0,0,1416,14839,3105.50,0,P-GPS,1,0,0,0,0,0,0,1618663613408,0,0,0,0,0,0,27,,,,,,,0,0,0,39.00,52.00,1438.00,-426.00,0.00,1387.00,6,1009.00,0.00,62.85,0.00,0.00,0.00,0,,,100,100,0,2,0,0,0,2,0,,,,,0.0,0.0,0
55.937841,-4.406319,100.90,0.00,0.00,6.28,100.90,100.90,0.00,6.32,903,2021-04-17 12:46:53.515,2021-04-17 13:46:53.515,17,0,0,14.839,55.937787,-4.406347,0.00,0.00,0.00,-3.90,4.90,143.70,0,1,0,0,0,0,1416,14839,3105.50,0,P-GPS,1,0,0,0,0,0,0,1618663613513,0,0,0,0,0,0,27,,,,,,,0,0,0,39.00,49.00,1437.00,-426.00,0.00,1387.00,6,1009.00,0.00,62.78,0.00,0.00,0.00,0,,,100,100,0,2,0,0,0,2,0,,,,,0.0,0.0,0
55.937841,-4.406319,100.90,0.00,0.00,6.28,100.90,100.90,0.00,6.32,999,2021-04-17 12:46:53.609,2021-04-17 13:46:53.609,17,0,0,14.839,55.937787,-4.406347,0.00,0.00,0.00,-3.90,4.80,143.80,0,1,0,0,0,0,1416,14839,3105.50,0,P-GPS,1,0,0,0,0,0,0,1618663613609,0,0,0,0,0,0,27,,,,,,,0,0,0,39.00,48.00,1438.00,-426.00,0.00,1387.00,6,1009.00,0.00,62.82,0.00,0.00,0.00,0,,,100,100,0,2,0,0,0,2,0,,,,,0.0,0.0,0
55.937841,-4.406319,100.90,0.00,0.00,6.28,100.90,100.90,0.00,6.32,1101,2021-04-17 12:46:53.711,2021-04-17 13:46:53.711,17,0,0,14.850,55.937787,-4.406347,0.00,0.00,0.00,-3.80,4.60,143.70,0,1,0,41,100,-7647,1414,14850,3105.50,0,P-GPS,1,0,0,0,0,0,0,1618663613711,0,0,0,0,0,0,27,,,,,,,0,0,0,38.00,46.00,1437.00,-426.00,0.00,1387.00,6,1009.00,0.00,62.76,0.00,0.00,0.00,0,,,100,100,0,2,0,0,0,2,0,,,,,0.0,0.0,0
55.937841,-4.406319,100.90,0.00,0.00,6.28,100.90,100.90,0.00,6.32,1197,2021-04-17 12:46:53.807,2021-04-17 13:46:53.807,17,0,0,14.850,55.937787,-4.406347,0.00,0.00,0.00,-3.80,4.80,143.80,0,1,0,41,100,-7647,1414,14850,3105.50,0,P-GPS,1,0,0,0,0,0,0,1618663613807,0,0,0,0,0,0,27,,,,,,,0,0,0,38.00,48.00,1438.00,-426.00,0.00,1387.00,6,1009.00,0.00,62.81,0.00,0.00,0.00,0,,,100,100,0,2,0,0,0,2,0,,,,,0.0,0.0,0
55.937841,-4.406319,100.80,0.00,0.00,6.28,100.90,100.90,0.00,6.32,1299,2021-04-17 12:46:53.909,2021-04-17 13:46:53.909,17,0,0,14.850,55.937787,-4.406347,0.00,0.00,0.00,-3.80,5.10,143.80,0,1,0,41,100,-7647,1414,14850,3105.50,0,P-GPS,1,0,0,0,0,0,0,1618663613909,0,0,0,0,0,0,27,,,,,,,0,0,0,38.00,51.00,1438.00,-426.00,0.00,1387.00,6,1008.00,0.00,62.77,0.00,0.00,0.00,0,,,100,100,0,2,0,0,0,2,0,,,,,0.0,0.0,0
55.937841,-4.406319,100.80,0.00,0.00,6.27,100.90,100.90,0.00,6.32,1399,2021-04-17 12:46:54.009,2021-04-17 13:46:54.009,17,0,0,14.850,55.937787,-4.406347,0.00,0.00,0.00,-3.70,5.30,143.80,0,1,0,41,100,-7647,1414,14850,3105.50,0,P-GPS,1,0,0,0,0,0,0,1618663614009,0,0,0,0,0,0,27,,,,,,,0,0,0,37.00,53.00,1438.00,-426.00,0.00,1387.00,6,1008.00,0.00,62.72,0.00,0.00,0.00,0,,,100,100,0,2,0,0,0,2,0,,,,,0.0,0.0,0
55.937841,-4.406319,100.80,0.00,0.00,6.27,100.90,100.90,0.00,6.32,1501,2021-04-17 12:46:54.111,2021-04-17 13:46:54.111,17,0,0,14.850,55.937787,-4.406347,0.00,0.00,0.00,-3.60,5.30,143.90,0,1,0,41,100,-7647,1414,14850,3105.50,0,P-GPS,1,0,0,0,0,0,0,1618663614111,0,0,0,0,0,0,27,,,,,,,0,0,0,36.00,53.00,1439.00,-426.00,0.00,1387.00,6,1008.00,0.00,62.67,0.00,0.00,0.00,0,,,100,100,0,2,0,0,0,2,0,,,,,0.0,0.0,0
55.937841,-4.406318,100.80,0.00,0.00,6.28,100.90,100.90,0.00,6.32,1601,2021-04-17 12:46:54.211,2021-04-17 13:46:54.211,17,0,0,14.850,55.937787,-4.406347,0.00,0.00,0.00,-3.60,5.50,143.90,0,1,0,41,100,-7647,1414,14850,3105.50,0,P-GPS,1,0,0,0,0,0,0,1618663614211,0,0,0,0,0,0,27,,,,,,,0,0,0,36.00,55.00,1439.00,-426.00,0.00,1387.00,6,1008.00,0.00,62.78,0.00,0.00,0.00,0,,,100,100,0,2,0,0,0,2,0,,,,,0.0,0.0,0
55.937841,-4.406318,100.80,0.00,0.00,6.27,100.90,100.90,0.00,6.32,1699,2021-04-17 12:46:54.309,2021-04-17 13:46:54.309,18,0,0,14.850,55.937787,-4.406347,0.00,0.00,0.00,-3.60,5.60,143.90,0,1,0,41,100,-7647,1414,14850,3105.50,0,P-GPS,1,0,0,0,0,0,0,1618663614309,0,0,0,0,0,0,27,,,,,,,0,0,0,36.00,56.00,1439.00,-426.00,0.00,1387.00,6,1008.00,0.00,62.75,0.00,0.00,0.00,0,,,100,100,0,2,0,0,0,2,0,,,,,0.0,0.0,0
55.937841,-4.406318,100.80,0.00,0.00,6.28,100.90,100.90,0.00,6.32,1799,2021-04-17 12:46:54.409,2021-04-17 13:46:54.409,18,0,0,14.850,55.937787,-4.406347,0.00,0.00,0.00,-3.60,5.40,143.80,0,1,0,41,100,-7647,1414,14850,3105.50,0,P-GPS,1,0,0,0,0,0,0,1618663614409,0,0,0,0,0,0,27,,,,,,,0,0,0,36.00,54.00,1438.00,-426.00,0.00,1387.00,6,1008.00,0.00,62.80,0.00,0.00,0.00,0,,,100,100,0,2,0,0,0,2,0,,,,,0.0,0.0,0
55.937841,-4.406318,100.80,0.00,0.00,6.28,100.90,100.90,0.00,6.32,1900,2021-04-17 12:46:54.510,2021-04-17 13:46:54.510,18,0,0,14.850,55.937787,-4.406347,0.00,0.00,0.00,-3.60,5.20,143.80,0,1,0,41,100,-7647,1414,14850,3105.50,0,P-GPS,1,0,0,0,0,0,0,1618663614510,0,0,0,0,0,0,27,,,,,,,0,0,0,36.00,52.00,1438.00,-426.00,0.00,1387.00,6,1008.00,0.00,62.75,0.00,0.00,0.00,0,,,100,100,0,2,0,0,0,2,0,,,,,0.0,0.0,0
55.937841,-4.406318,100.80,0.00,0.00,6.28,100.90,100.90,0.00,6.32,2004,2021-04-17 12:46:54.614,2021-04-17 13:46:54.614,18,0,0,14.850,55.937787,-4.406347,0.00,0.00,0.00,-3.50,5.10,143.80,0,1,0,41,100,-7647,1414,14850,3105.50,0,P-GPS,1,0,0,0,0,0,0,1618663614614,0,0,0,0,0,0,27,,,,,,,0,0,0,35.00,51.00,1438.00,-426.00,0.00,1387.00,6,1008.00,0.00,62.80,0.00,0.00,0.00,0,,,100,100,0,2,0,0,0,2,0,,,,,0.0,0.0,0
55.937841,-4.406318,100.80,0.00,0.00,6.28,100.90,100.90,0.00,6.32,2103,2021-04-17 12:46:54.713,2021-04-17 13:46:54.713,18,0,0,14.847,55.937787,-4.406347,0.00,0.00,0.00,-3.40,5.10,143.90,0,1,0,41,100,-7551,1412,14847,3105.50,1,P-GPS,1,0,0,0,0,0,0,1618663614713,0,0,0,0,0,0,27,,,,,,,0,0,0,34.00,51.00,1439.00,-426.00,0.00,1387.00,6,1008.00,0.00,62.76,0.00,0.00,0.00,0,,,100,100,0,2,0,0,0,2,0,,,,,0.0,0.0,0
55.937841,-4.406318,100.80,0.00,0.00,6.27,100.90,100.90,0.00,6.32,2200,2021-04-17 12:46:54.811,2021-04-17 13:46:54.810,18,0,0,14.847,55.937787,-4.406347,0.00,0.00,0.00,-3.30,5.10,143.90,0,1,0,41,100,-7551,1412,14847,3105.50,1,P-GPS,1,0,0,0,0,0,0,1618663614810,0,0,0,0,0,0,27,,,,,,,0,0,0,33.00,51.00,1439.00,-426.00,0.00,1387.00,6,1008.00,0.00,62.65,0.00,0.00,0.00,0,,,100,100,0,2,0,0,0,2,0,,,,,0.0,0.0,0
55.937841,-4.406318,100.80,0.00,0.00,6.26,100.90,100.90,0.00,6.32,2302,2021-04-17 12:46:54.912,2021-04-17 13:46:54.912,18,0,0,14.847,55.937787,-4.406347,0.00,0.00,0.00,-3.40,5.00,143.90,0,1,0,41,100,-7551,1412,14847,3105.50,1,P-GPS,1,0,0,0,0,0,0,1618663614912,0,0,0,0,0,0,27,,,,,,,0,0,0,34.00,50.00,1439.00,-426.00,0.00,1387.00,6,1008.00,0.00,62.60,0.00,0.00,0.00,0,,,100,100,0,2,0,0,0,2,0,,,,,0.0,0.0,0
55.937841,-4.406318,100.80,0.00,0.00,6.25,100.90,100.90,0.00,6.32,2397,2021-04-17 12:46:55.007,2021-04-17 13:46:55.007,18,0,0,14.847,55.937787,-4.406347,0.00,0.00,0.00,-3.40,5.00,143.80,0,1,0,41,100,-7551,1412,14847,3105.50,1,P-GPS,1,0,0,0,0,0,0,1618663615007,0,0,0,0,0,0,27,,,,,,,0,0,0,34.00,50.00,1438.00,-426.00,0.00,1387.00,6,1008.00,0.00,62.52,0.00,0.00,0.00,0,,,100,100,0,2,0,0,0,2,0,,,,,0.0,0.0,0
55.937841,-4.406318,100.80,0.00,0.00,6.25,100.90,100.90,0.00,6.32,2501,2021-04-17 12:46:55.111,2021-04-17 13:46:55.111,18,0,0,14.847,55.937787,-4.406347,0.00,0.00,0.00,-3.30,5.10,143.90,0,1,0,41,100,-7551,1412,14847,3105.50,1,P-GPS,1,0,0,0,0,0,0,1618663615111,0,0,0,0,0,0,27,,,,,,,0,0,0,33.00,51.00,1439.00,-426.00,0.00,1387.00,6,1008.00,0.00,62.47,0.00,0.00,0.00,0,,,100,100,0,2,0,0,0,2,0,,,,,0.0,0.0,0
55.937841,-4.406318,100.80,0.00,0.00,6.26,100.90,100.90,0.00,6.32,2595,2021-04-17 12:46:55.206,2021-04-17 13:46:55.206,18,0,0,14.847,55.937787,-4.406347,0.00,0.00,0.00,-3.40,5.00,143.90,0,1,0,41,100,-7551,1412,14847,3105.50,1,P-GPS,1,0,0,0,0,0,0,1618663615205,0,0,0,0,0,0,27,,,,,,,0,0,0,34.00,50.00,1439.00,-426.00,0.00,1387.00,6,1008.00,0.00,62.58,0.00,0.00,0.00,0,,,100,100,0,2,0,0,0,2,0,,,,,0.0,0.0,0
55.937841,-4.406318,100.80,0.00,0.00,6.25,100.90,100.90,0.00,6.32,2696,2021-04-17 12:46:55.306,2021-04-17 13:46:55.306,18,0,0,14.847,55.937787,-4.406347,0.00,0.00,0.00,-3.50,5.00,143.80,0,1,0,41,100,-7551,1412,14847,3105.50,1,P-GPS,1,0,0,0,0,0,0,1618663615306,0,0,0,0,0,0,27,,,,,,,0,0,0,35.00,50.00,1438.00,-426.00,0.00,1387.00,6,1008.00,0.00,62.55,0.00,0.00,0.00,0,,,100,100,0,2,0,0,0,2,0,,,,,0.0,0.0,0
55.937841,-4.406318,100.80,0.00,0.00,6.25,100.90,100.90,0.00,6.32,2796,2021-04-17 12:46:55.406,2021-04-17 13:46:55.406,18,0,0,14.847,55.937787,-4.406347,0.00,0.00,0.00,-3.40,5.00,143.90,0,1,0,41,100,-7551,1412,14847,3105.50,1,P-GPS,1,0,0,0,0,0,0,1618663615406,0,0,0,0,0,0,27,,,,,,,0,0,0,34.00,50.00,1439.00,-426.00,0.00,1387.00,6,1008.00,0.00,62.47,0.00,0.00,0.00,0,,,100,100,0,2,0,0,0,2,0,,,,,0.0,0.0,0
55.937841,-4.406318,100.70,0.00,0.00,6.24,100.90,100.90,0.00,6.32,2900,2021-04-17 12:46:55.511,2021-04-17 13:46:55.510,18,0,0,14.847,55.937787,-4.406347,0.00,0.00,0.00,-3.40,5.00,143.90,0,1,0,41,100,-7551,1412,14847,3105.50,1,P-GPS,1,0,0,0,0,0,0,1618663615510,0,0,0,0,0,0,27,,,,,,,0,0,0,34.00,50.00,1439.00,-426.00,0.00,1387.00,6,1007.00,0.00,62.44,0.00,0.00,0.00,0,,,100,100,0,2,0,0,0,2,0,,,,,0.0,0.0,0
55.937841,-4.406318,100.70,0.00,0.00,6.24,100.90,100.90,0.00,6.32,3001,2021-04-17 12:46:55.611,2021-04-17 13:46:55.611,18,0,0,14.847,55.937787,-4.406347,0.00,0.00,0.00,-3.30,5.00,143.80,0,1,0,41,100,-7551,1412,14847,3105.50,1,P-GPS,1,0,0,0,0,0,0,1618663615611,0,0,0,0,0,0,27,,,,,,,0,0,0,33.00,50.00,1438.00,-426.00,0.00,1387.00,6,1007.00,0.00,62.36,0.00,0.00,0.00,0,,,100,100,0,2,0,0,0,2,0,,,,,0.0,0.0,0
55.937841,-4.406318,100.70,0.00,0.00,6.23,100.90,100.90,0.00,6.32,3097,2021-04-17 12:46:55.708,2021-04-17 13:46:55.707,18,0,0,14.851,55.937787,-4.406347,0.00,0.00,0.00,-3.30,5.10,143.80,0,1,0,41,100,-7496,1409,14851,3105.50,1,P-GPS,1,0,0,0,0,0,0,1618663615707,0,0,0,0,0,0,27,,,,,,,0,0,0,33.00,51.00,1438.00,-426.00,0.00,1387.00,6,1007.00,0.00,62.33,0.00,0.00,0.00,0,,,100,100,0,2,0,0,0,2,0,,,,,0.0,0.0,0
55.937841,-4.406318,100.70,0.00,0.00,6.24,100.90,100.90,0.00,6.32,3197,2021-04-17 12:46:55.807,2021-04-17 13:46:55.807,18,0,0,14.851,55.937787,-4.406347,0.00,0.00,0.00,-3.10,5.20,143.90,0,1,0,41,100,-7496,1409,14851,3105.50,1,P-GPS,1,0,0,0,0,0,0,1618663615807,0,0,0,0,0,0,27,,,,,,,0,0,0,31.00,52.00,1439.00,-426.00,0.00,1387.00,6,1007.00,0.00,62.44,0.00,0.00,0.00,0,,,100,100,0,2,0,0,0,2,0,,,,,0.0,0.0,0
55.937841,-4.406318,100.70,0.00,0.00,6.24,100.90,100.90,0.00,6.32,3301,2021-04-17 12:46:55.911,2021-04-17 13:46:55.911,18,0,0,14.851,55.937787,-4.406347,0.00,0.00,0.00,-3.00,5.30,144.00,0,1,0,41,100,-7496,1409,14851,3105.50,1,P-GPS,1,0,0,0,0,0,0,1618663615911,0,0,0,0,0,0,27,,,,,,,0,0,0,30.00,53.00,1440.00,-426.00,0.00,1387.00,6,1007.00,0.00,62.42,0.00,0.00,0.00,0,,,100,100,0,2,0,0,0,2,0,,,,,0.0,0.0,0
55.937841,-4.406318,100.80,0.00,0.00,6.23,100.90,100.90,0.00,6.32,3407,2021-04-17 12:46:56.017,2021-04-17 13:46:56.017,18,0,0,14.851,55.937787,-4.406347,0.00,0.00,0.00,-2.90,5.30,143.90,0,1,0,41,100,-7496,1409,14851,3105.50,1,P-GPS,1,0,0,0,0,0,0,1618663616017,0,0,0,0,0,0,27,,,,,,,0,0,0,29.00,53.00,1439.00,-426.00,0.00,1387.00,6,1008.00,0.00,62.32,0.00,0.00,0.00,0,,,100,100,0,2,0,0,0,2,0,,,,,0.0,0.0,0
55.937841,-4.406318,100.70,0.00,0.00,6.23,100.90,100.90,0.00,6.32,3504,2021-04-17 12:46:56.114,2021-04-17 13:46:56.114,18,0,0,14.851,55.937787,-4.406347,0.00,0.00,0.00,-3.00,5.20,143.90,0,1,0,41,100,-7496,1409,14851,3105.50,1,P-GPS,1,0,0,0,0,0,0,1618663616114,0,0,0,0,0,0,27,,,,,,,0,0,0,30.00,52.00,1439.00,-426.00,0.00,1387.00,6,1007.00,0.00,62.29,0.00,0.00,0.00,0,,,100,100,0,2,0,0,0,2,0,,,,,0.0,0.0,0
55.937841,-4.406318,100.70,0.00,0.00,6.22,100.90,100.90,0.00,6.32,3599,2021-04-17 12:46:56.209,2021-04-17 13:46:56.209,18,0,0,14.851,55.937787,-4.406347,0.00,0.00,0.00,-2.90,5.40,143.90,0,1,0,41,100,-7496,1409,14851,3105.50,1,P-GPS,1,0,0,0,0,0,0,1618663616209,0,0,0,0,0,0,27,,,,,,,0,0,0,29.00,54.00,1439.00,-426.00,0.00,1387.00,6,1007.00,0.00,62.16,0.00,0.00,0.00,0,,,100,100,0,2,0,0,0,2,0,,,,,0.0,0.0,0
55.937841,-4.406318,100.70,0.00,0.00,6.21,100.90,100.90,0.00,6.32,3704,2021-04-17 12:46:56.315,2021-04-17 13:46:56.315,18,0,0,14.851,55.937787,-4.406347,0.00,0.00,0.00,-2.90,5.40,143.90,0,1,0,41,100,-7496,1409,14851,3105.50,1,P-GPS,1,0,0,0,0,0,0,1618663616314,0,0,0,0,0,0,27,,,,,,,0,0,0,29.00,54.00,1439.00,-426.00,0.00,1387.00,6,1007.00,0.00,62.13,0.00,0.00,0.00,0,,,100,100,0,2,0,0,0,2,0,,,,,0.0,0.0,0
55.937840,-4.406318,100.70,0.00,0.00,6.20,100.90,100.90,0.00,6.32,3798,2021-04-17 12:46:56.408,2021-04-17 13:46:56.408,18,0,0,14.851,55.937787,-4.406347,0.00,0.00,0.00,-3.20,5.20,143.80,0,1,0,41,100,-7496,1409,14851,3105.50,1,P-GPS,1,0,0,0,0,0,0,1618663616408,0,0,0,0,0,0,27,,,,,,,0,0,0,32.00,52.00,1438.00,-426.00,0.00,1387.00,6,1007.00,0.00,62.04,0.00,0.00,0.00,0,,,100,100,0,2,0,0,0,2,0,,,,,0.0,0.0,0
55.937840,-4.406318,100.70,0.00,0.00,6.20,100.90,100.90,0.00,6.32,3902,2021-04-17 12:46:56.512,2021-04-17 13:46:56.512,18,0,0,14.851,55.937787,-4.406347,0.00,0.00,0.00,-3.20,5.10,143.70,0,1,0,41,100,-7496,1409,14851,3105.50,1,P-GPS,1,0,0,0,0,0,0,1618663616512,0,0,0,0,0,0,27,,,,,,,0,0,0,32.00,51.00,1437.00,-426.00,0.00,1387.00,6,1007.00,0.00,62.01,0.00,0.00,0.00,0,,,100,100,0,2,0,0,0,2,0,,,,,0.0,0.0,0
55.937840,-4.406318,100.70,0.00,0.00,6.20,100.90,100.90,0.00,6.32,4004,2021-04-17 12:46:56.614,2021-04-17 13:46:56.614,18,0,0,14.851,55.937787,-4.406347,0.00,0.00,0.00,-3.00,5.20,143.80,0,1,0,41,100,-7496,1409,14851,3105.50,1,P-GPS,1,0,0,0,0,0,0,1618663616614,0,0,0,0,0,0,27,,,,,,,0,0,0,30.00,52.00,1438.00,-426.00,0.00,1387.00,6,1007.00,0.00,61.96,0.00,0.00,0.00,0,,,100,100,0,2,0,0,0,2,0,,,,,0.0,0.0,0
55.937840,-4.406318,100.70,0.00,0.00,6.19,100.90,100.90,0.00,6.32,4097,2021-04-17 12:46:56.707,2021-04-17 13:46:56.707,18,0,0,14.851,55.937787,-4.406347,0.00,0.00,0.00,-2.80,5.50,143.90,0,1,0,41,100,-7422,1407,14851,3105.50,1,P-GPS,1,0,0,0,0,0,0,1618663616707,0,0,0,0,0,0,27,,,,,,,0,0,0,28.00,55.00,1439.00,-426.00,0.00,1387.00,6,1007.00,0.00,61.93,0.00,0.00,0.00,0,,,100,100,0,2,0,0,0,2,0,,,,,0.0,0.0,0
55.937840,-4.406318,100.70,0.00,0.00,6.18,100.90,100.90,0.00,6.32,4200,2021-04-17 12:46:56.810,2021-04-17 13:46:56.810,18,0,0,14.851,55.937787,-4.406347,0.00,0.00,0.00,-2.90,5.60,144.00,0,1,0,41,100,-7422,1407,14851,3105.50,1,P-GPS,1,0,0,0,0,0,0,1618663616810,0,0,0,0,0,0,27,,,,,,,0,0,0,29.00,56.00,1440.00,-426.00,0.00,1387.00,6,1007.00,0.00,61.85,0.00,0.00,0.00,0,,,100,100,0,2,0,0,0,2,0,,,,,0.0,0.0,0
55.937840,-4.406318,100.70,0.00,0.00,6.18,100.90,100.90,0.00,6.32,4296,2021-04-17 12:46:56.906,2021-04-17 13:46:56.906,18,0,0,14.851,55.937787,-4.406347,0.00,0.00,0.00,-3.00,5.70,144.00,0,1,0,41,100,-7422,1407,14851,3105.50,1,P-GPS,1,0,0,0,0,0,0,1618663616906,0,0,0,0,0,0,27,,,,,,,0,0,0,30.00,57.00,1440.00,-426.00,0.00,1387.00,6,1007.00,0.00,61.82,0.00,0.00,0.00,0,,,100,100,0,2,0,0,0,2,0,,,,,0.0,0.0,0
55.937840,-4.406318,100.70,0.00,0.00,6.18,100.90,100.90,0.00,6.32,4403,2021-04-17 12:46:57.013,2021-04-17 13:46:57.013,18,0,0,14.851,55.937787,-4.406347,0.00,0.00,0.00,-3.00,5.70,143.90,0,1,0,41,100,-7422,1407,14851,3105.50,1,P-GPS,1,0,0,0,0,0,0,1618663617013,0,0,0,0,0,0,27,,,,,,,0,0,0,30.00,57.00,1439.00,-426.00,0.00,1387.00,6,1007.00,0.00,61.78,0.00,0.00,0.00,0,,,100,100,0,2,0,0,0,2,0,,,,,0.0,0.0,0
55.937840,-4.406318,100.70,0.00,0.00,6.18,100.90,100.90,0.00,6.32,4499,2021-04-17 12:46:57.109,2021-04-17 13:46:57.109,18,0,0,14.851,55.937787,-4.406347,0.00,0.00,0.00,-3.00,5.60,143.90,0,1,0,41,100,-7422,1407,14851,3105.50,1,P-GPS,1,0,0,0,0,0,0,1618663617109,0,0,0,0,0,0,27,,,,,,,0,0,0,30.00,56.00,1439.00,-426.00,0.00,1387.00,6,1007.00,0.00,61.75,0.00,0.00,0.00,0,,,100,100,0,2,0,0,0,2,0,,,,,0.0,0.0,0
55.937840,-4.406318,100.70,0.00,0.00,6.17,100.90,100.90,0.00,6.32,4598,2021-04-17 12:46:57.208,2021-04-17 13:46:57.208,18,0,0,14.851,55.937787,-4.406347,0.00,0.00,0.00,-3.00,5.70,144.00,0,1,0,41,100,-7422,1407,14851,3105.50,1,P-GPS,1,0,0,0,0,0,0,1618663617208,0,0,0,0,0,0,27,,,,,,,0,0,0,30.00,57.00,1440.00,-426.00,0.00,1387.00,6,1007.00,0.00,61.66,0.00,0.00,0.00,0,,,100,100,0,2,0,0,0,2,0,,,,,0.0,0.0,0
55.937840,-4.406318,100.70,0.00,0.00,6.16,100.90,100.90,0.00,6.32,4699,2021-04-17 12:46:57.309,2021-04-17 13:46:57.309,18,0,0,14.851,55.937787,-4.406347,0.00,0.00,0.00,-2.70,5.70,144.00,0,1,0,41,100,-7422,1407,14851,3105.50,1,P-GPS,1,0,0,0,0,0,0,1618663617309,0,0,0,0,0,0,27,,,,,,,0,0,0,27.00,57.00,1440.00,-426.00,0.00,1387.00,6,1007.00,0.00,61.62,0.00,0.00,0.00,0,,,100,100,0,2,0,0,0,2,0,,,,,0.0,0.0,0
55.937840,-4.406318,100.70,0.00,0.00,6.15,100.90,100.90,0.00,6.32,4796,2021-04-17 12:46:57.406,2021-04-17 13:46:57.406,18,0,0,14.851,55.937787,-4.406347,0.00,0.00,0.00,-2.80,5.80,144.00,0,1,0,41,100,-7422,1407,14851,3105.50,1,P-GPS,1,0,0,0,0,0,0,1618663617406,0,0,0,0,0,0,27,,,,,,,0,0,0,28.00,58.00,1440.00,-426.00,0.00,1387.00,6,1007.00,0.00,61.50,0.00,0.00,0.00,0,,,100,100,0,2,0,0,0,2,0,,,,,0.0,0.0,0
55.937840,-4.406318,100.70,0.00,0.00,6.14,100.90,100.90,0.00,6.32,4896,2021-04-17 12:46:57.507,2021-04-17 13:46:57.506,18,0,0,14.851,55.937787,-4.406347,0.00,0.00,0.00,-2.70,5.80,144.00,0,1,0,41,100,-7422,1407,14851,3105.50,1,P-GPS,1,0,0,0,0,0,0,1618663617506,0,0,0,0,0,0,27,,,,,,,0,0,0,27.00,58.00,1440.00,-426.00,0.00,1387.00,6,1007.00,0.00,61.45,0.00,0.00,0.00,0,,,100,100,0,2,0,0,0,2,0,,,,,0.0,0.0,0
55.937840,-4.406318,100.70,0.00,0.00,6.15,100.90,100.90,0.00,6.32,4993,2021-04-17 12:46:57.603,2021-04-17 13:46:57.603,18,0,0,14.851,55.937787,-4.406347,0.00,0.00,0.00,-2.60,5.80,144.00,0,1,0,41,100,-7422,1407,14851,3105.50,1,P-GPS,1,0,0,0,0,0,0,1618663617603,3721,3714,3716,3700,0,0,27,,,,,,,0,0,0,26.00,58.00,1440.00,-426.00,0.00,1387.00,6,1007.00,0.00,61.54,0.00,0.00,0.00,0,,,100,100,0,2,0,0,0,2,0,,,,,0.0,0.0,0
55.937840,-4.406318,100.60,0.00,0.00,6.15,100.90,100.90,0.00,6.32,5096,2021-04-17 12:46:57.707,2021-04-17 13:46:57.706,18,0,0,14.852,55.937787,-4.406347,0.00,0.00,0.00,-2.70,5.80,144.00,0,1,0,41,100,-7373,1405,14852,3104.50,1,P-GPS,1,0,0,0,0,0,0,1618663617706,3721,3714,3716,3700,0,0,27,,,,,,,0,0,0,27.00,58.00,1440.00,-426.00,0.00,1387.00,6,1006.00,0.00,61.49,0.00,0.00,0.00,0,,,100,100,0,2,0,0,0,2,0,,,,,0.0,0.0,0
55.937840,-4.406318,100.60,0.00,0.00,6.14,100.90,100.90,0.00,6.32,5197,2021-04-17 12:46:57.807,2021-04-17 13:46:57.807,18,0,0,14.852,55.937787,-4.406347,0.00,0.00,0.00,-2.70,5.60,144.10,0,1,0,41,100,-7373,1405,14852,3104.50,1,P-GPS,1,0,0,0,0,0,0,1618663617807,3721,3714,3716,3700,0,0,27,,,,,,,0,0,0,27.00,56.00,1441.00,-424.00,0.00,1387.00,6,1006.00,0.00,61.36,0.00,0.00,0.00,0,,,100,100,0,2,0,0,0,2,0,,,,,0.0,0.0,0
55.937840,-4.406318,100.60,0.00,0.00,6.13,100.90,100.90,0.00,6.32,5296,2021-04-17 12:46:57.906,2021-04-17 13:46:57.906,18,0,0,14.852,55.937787,-4.406347,0.00,0.00,0.00,-2.80,5.70,144.20,0,1,0,41,100,-7373,1405,14852,3104.50,1,P-GPS,1,0,0,0,0,0,0,1618663617906,3721,3714,3716,3700,0,0,27,,,,,,,0,0,0,28.00,57.00,1442.00,-420.00,0.00,1386.00,6,1006.00,0.00,61.30,0.00,0.00,0.00,0,,,100,100,0,2,0,0,0,2,0,,,,,0.0,0.0,0
55.937840,-4.406318,100.60,0.00,0.10,6.12,100.90,100.90,0.10,6.32,5396,2021-04-17 12:46:58.007,2021-04-17 13:46:58.007,18,0,0,14.852,55.937787,-4.406347,0.00,0.00,-0.10,-2.70,5.30,144.10,0,1,0,41,100,-7373,1405,14852,3104.50,1,P-GPS,1,0,0,0,0,0,0,1618663618006,3721,3714,3716,3700,0,0,27,,,,,,,0,0,0,27.00,53.00,1441.00,-420.00,0.00,1386.00,6,1006.00,1.00,61.22,0.00,0.00,-1.00,0,,,100,100,0,2,0,0,0,2,0,,,,,0.0,0.0,0
55.937840,-4.406318,100.60,0.00,0.10,6.11,100.90,100.90,0.10,6.32,5497,2021-04-17 12:46:58.108,2021-04-17 13:46:58.108,18,0,0,14.852,55.937787,-4.406347,0.00,0.00,-0.10,-3.00,5.00,144.00,0,1,0,41,100,-7373,1405,14852,3104.50,1,P-GPS,1,0,0,0,0,0,0,1618663618107,3721,3714,3716,3700,0,0,27,,,,,,,0,0,0,30.00,50.00,1440.00,-420.00,0.00,1386.00,6,1006.00,1.00,61.13,0.00,0.00,-1.00,0,,,100,100,0,2,0,0,0,2,0,,,,,0.0,0.0,0
55.937840,-4.406319,100.60,0.00,0.10,6.12,100.90,100.90,0.10,6.32,5597,2021-04-17 12:46:58.207,2021-04-17 13:46:58.207,18,0,0,14.852,55.937787,-4.406347,0.00,0.00,-0.10,-3.40,4.50,144.00,0,1,0,41,100,-7373,1405,14852,3104.50,1,P-GPS,1,0,0,0,0,0,0,1618663618207,3721,3714,3716,3700,0,0,27,,,,,,,0,0,0,34.00,45.00,1440.00,-420.00,0.00,1386.00,6,1006.00,1.00,61.21,0.00,0.00,-1.00,0,,,100,100,0,2,0,0,0,2,0,,,,,0.0,0.0,0
55.937840,-4.406319,100.60,0.00,0.00,6.11,100.90,100.90,0.10,6.32,5697,2021-04-17 12:46:58.308,2021-04-17 13:46:58.308,18,0,0,14.852,55.937787,-4.406347,0.00,0.00,0.00,-3.70,4.30,143.90,0,1,0,41,100,-7373,1405,14852,3104.50,1,P-GPS,1,0,0,0,0,0,0,1618663618307,3721,3714,3716,3700,0,0,27,,,,,,,0,0,0,37.00,43.00,1439.00,-420.00,0.00,1386.00,6,1006.00,0.00,61.13,0.00,0.00,0.00,0,,,100,100,0,2,0,0,0,2,0,,,,,0.0,0.0,0
55.937840,-4.406319,100.60,0.00,0.00,6.10,100.90,100.90,0.10,6.32,5798,2021-04-17 12:46:58.408,2021-04-17 13:46:58.408,18,0,0,14.852,55.937787,-4.406347,0.00,0.00,0.00,-3.80,4.10,143.90,0,1,0,41,100,-7373,1405,14852,3104.50,1,P-GPS,1,0,0,0,0,0,0,1618663618408,3721,3714,3716,3700,0,0,27,,,,,,,0,0,0,38.00,41.00,1439.00,-420.00,0.00,1386.00,6,1006.00,0.00,61.05,0.00,0.00,0.00,0,,,100,100,0,2,0,0,0,2,0,,,,,0.0,0.0,0
55.937840,-4.406319,100.60,0.00,0.10,6.10,100.90,100.90,0.10,6.32,5902,2021-04-17 12:46:58.512,2021-04-17 13:46:58.512,18,0,0,14.852,55.937787,-4.406347,0.00,0.00,-0.10,-3.80,4.00,143.90,0,1,0,41,100,-7373,1405,14852,3104.50,1,P-GPS,1,0,0,0,0,0,0,1618663618512,3721,3714,3716,3700,0,0,27,,,,,,,0,0,0,38.00,40.00,1439.00,-420.00,0.00,1386.00,6,1006.00,1.00,60.98,0.00,0.00,-1.00,0,,,100,100,0,2,0,0,0,2,0,,,,,0.0,0.0,0
55.937840,-4.406319,100.60,0.00,0.10,6.11,100.90,100.90,0.10,6.32,5999,2021-04-17 12:46:58.609,2021-04-17 13:46:58.609,18,0,0,14.852,55.937787,-4.406347,0.00,0.00,-0.10,-3.80,4.10,143.90,0,1,0,41,100,-7373,1405,14852,3104.50,1,P-GPS,1,0,0,0,0,0,0,1618663618609,3721,3714,3716,3700,0,0,27,,,,,,,0,0,0,38.00,41.00,1439.00,-420.00,0.00,1386.00,6,1006.00,1.00,61.06,0.00,0.00,-1.00,0,,,100,100,0,2,0,0,0,2,0,,,,,0.0,0.0,0
55.937840,-4.406319,100.60,0.00,0.10,6.10,100.90,100.90,0.10,6.32,6099,2021-04-17 12:46:58.709,2021-04-17 13:46:58.709,18,0,0,14.846,55.937787,-4.406347,0.00,0.00,-0.10,-3.90,4.20,143.90,0,1,0,41,100,-7517,1403,14846,3104.50,1,P-GPS,1,0,0,0,0,0,0,1618663618709,3721,3714,3716,3700,0,0,27,,,,,,,0,0,0,39.00,42.00,1439.00,-420.00,0.00,1386.00,6,1006.00,1.00,61.02,0.00,0.00,-1.00,0,,,100,100,0,2,0,0,0,2,0,,,,,0.0,0.0,0
55.937840,-4.406319,100.60,0.00,0.10,6.12,100.90,100.90,0.10,6.32,6200,2021-04-17 12:46:58.811,2021-04-17 13:46:58.811,18,0,0,14.846,55.937787,-4.406347,0.00,0.00,-0.10,-3.90,4.20,143.90,0,1,0,41,100,-7517,1403,14846,3104.50,1,P-GPS,1,0,0,0,0,0,0,1618663618810,3721,3714,3716,3700,0,0,27,,,,,,,0,0,0,39.00,42.00,1439.00,-420.00,0.00,1386.00,6,1006.00,1.00,61.24,0.00,0.00,-1.00,0,,,100,100,0,2,0,0,0,2,0,,,,,0.0,0.0,0
55.937840,-4.406320,100.60,0.00,0.10,6.12,100.90,100.90,0.10,6.32,6296,2021-04-17 12:46:58.906,2021-04-17 13:46:58.906,18,0,0,14.846,55.937787,-4.406347,0.00,0.00,-0.10,-3.80,4.30,143.80,0,1,0,41,100,-7517,1403,14846,3104.50,1,P-GPS,1,0,0,0,0,0,0,1618663618906,3721,3714,3716,3700,0,0,27,,,,,,,0,0,0,38.00,43.00,1438.00,-420.00,0.00,1386.00,6,1006.00,1.00,61.22,0.00,0.00,-1.00,0,,,100,100,0,2,0,0,0,2,0,,,,,0.0,0.0,0
55.937840,-4.406320,100.60,0.00,0.10,6.12,100.90,100.90,0.10,6.32,6395,2021-04-17 12:46:59.005,2021-04-17 13:46:59.005,18,0,0,14.846,55.937787,-4.406347,0.00,0.00,-0.10,-3.70,4.20,143.80,0,1,0,41,100,-7517,1403,14846,3104.50,1,P-GPS,1,0,0,0,0,0,0,1618663619005,3721,3714,3716,3700,0,0,27,,,,,,,0,0,0,37.00,42.00,1438.00,-420.00,0.00,1386.00,6,1006.00,1.00,61.23,0.00,0.00,-1.00,0,,,100,100,0,2,0,0,0,2,0,,,,,0.0,0.0,0
55.937840,-4.406320,100.60,0.00,0.10,6.12,100.90,100.90,0.10,6.32,6501,2021-04-17 12:46:59.111,2021-04-17 13:46:59.111,18,0,0,14.846,55.937787,-4.406347,0.00,0.00,-0.10,-3.50,4.20,143.90,0,1,0,41,100,-7517,1403,14846,3104.50,1,P-GPS,1,0,0,0,0,0,0,1618663619111,3721,3714,3716,3700,0,0,27,,,,,,,0,0,0,35.00,42.00,1439.00,-420.00,0.00,1386.00,6,1006.00,1.00,61.21,0.00,0.00,-1.00,0,,,100,100,0,2,0,0,0,2,0,,,,,0.0,0.0,0
55.937840,-4.406320,100.60,0.00,0.10,6.12,100.90,100.90,0.10,6.32,6597,2021-04-17 12:46:59.207,2021-04-17 13:46:59.207,18,0,0,14.846,55.937787,-4.406347,0.00,0.00,-0.10,-3.50,4.20,143.90,0,1,0,41,100,-7517,1403,14846,3104.50,1,P-GPS,1,0,0,0,0,0,0,1618663619207,3721,3714,3716,3700,0,0,27,,,,,,,0,0,0,35.00,42.00,1439.00,-420.00,0.00,1386.00,6,1006.00,1.00,61.19,0.00,0.00,-1.00,0,,,100,100,0,2,0,0,0,2,0,,,,,0.0,0.0,0
55.937840,-4.406320,100.60,0.00,0.10,6.12,100.90,100.90,0.10,6.32,6696,2021-04-17 12:46:59.306,2021-04-17 13:46:59.306,18,0,0,14.846,55.937787,-4.406347,0.00,0.00,-0.10,-3.30,4.20,144.00,0,1,0,41,100,-7517,1403,14846,3104.50,1,P-GPS,1,0,0,0,0,0,0,1618663619306,3721,3714,3716,3700,0,0,27,,,,,,,0,0,0,33.00,42.00,1440.00,-420.00,0.00,1386.00,6,1006.00,1.00,61.17,0.00,0.00,-1.00,0,,,100,100,0,2,0,0,0,2,0,,,,,0.0,0.0,0
55.937840,-4.406320,100.60,0.00,0.10,6.13,100.90,100.90,0.10,6.32,6796,2021-04-17 12:46:59.406,2021-04-17 13:46:59.406,18,0,0,14.846,55.937787,-4.406347,0.00,0.00,-0.10,-3.30,4.20,143.90,0,1,0,41,100,-7517,1403,14846,3104.50,1,P-GPS,1,0,0,0,0,0,25,1618663619406,3721,3714,3716,3700,0,0,27,,,,,,,0,0,0,33.00,42.00,1439.00,-420.00,0.00,1386.00,6,1006.00,1.00,61.31,0.00,0.00,-1.00,0,,,100,100,0,2,0,0,0,2,0,,,,,0.0,0.0,0
55.937840,-4.406320,100.60,0.00,0.10,6.13,100.90,100.90,0.10,6.32,6900,2021-04-17 12:46:59.510,2021-04-17 13:46:59.510,18,0,0,14.846,55.937787,-4.406347,0.00,0.00,-0.10,-3.40,4.10,143.90,0,1,0,41,100,-7517,1403,14846,3104.50,1,P-GPS,1,0,0,0,0,0,129,1618663619510,3721,3714,3716,3700,0,0,27,,,,,,,0,0,0,34.00,41.00,1439.00,-419.00,0.00,1386.00,6,1006.00,1.00,61.31,0.00,0.00,-1.00,0,,,100,100,0,2,0,0,0,2,0,,,,,0.0,0.0,0
55.937840,-4.406320,100.60,0.00,0.10,6.13,100.90,100.90,0.10,6.32,6997,2021-04-17 12:46:59.607,2021-04-17 13:46:59.607,18,0,0,14.846,55.937787,-4.406347,0.00,0.00,-0.10,-3.40,4.10,143.90,0,1,0,41,100,-7517,1403,14846,3104.50,1,P-GPS,1,0,0,0,0,0,282,1618663619607,3721,3714,3716,3700,0,0,27,,,,,,,0,0,0,34.00,41.00,1439.00,-416.00,0.00,1386.00,6,1006.00,1.00,61.34,0.00,0.00,-1.00,0,,,100,100,0,2,0,0,0,2,0,,,,,0.0,0.0,0
55.937840,-4.406320,100.60,0.00,0.10,6.13,100.90,100.90,0.10,6.32,7095,2021-04-17 12:46:59.705,2021-04-17 13:46:59.705,18,0,0,14.845,55.937787,-4.406347,0.00,0.00,-0.10,-3.20,4.20,143.90,0,1,0,41,100,-7524,1401,14845,3105.50,1,P-GPS,1,0,0,0,0,0,418,1618663619705,3721,3714,3716,3700,0,0,27,,,,,,,0,0,0,32.00,42.00,1439.00,-408.00,0.00,1386.00,6,1006.00,1.00,61.35,0.00,0.00,-1.00,0,,,100,100,0,2,0,0,0,2,0,,,,,0.0,0.0,0
55.937840,-4.406320,100.60,0.00,0.10,6.15,100.90,100.90,0.10,6.32,7203,2021-04-17 12:46:59.813,2021-04-17 13:46:59.813,18,0,0,14.845,55.937787,-4.406347,0.00,0.00,-0.10,-3.30,4.20,143.90,0,1,0,41,100,-7524,1401,14845,3105.50,1,P-GPS,1,0,0,0,0,0,492,1618663619813,3721,3714,3716,3700,0,0,27,,,,,,,0,0,0,33.00,42.00,1439.00,-394.00,0.00,1386.00,6,1006.00,1.00,61.54,0.00,0.00,-1.00,0,,,100,100,0,2,0,0,0,2,0,,,,,0.0,0.0,0
55.937840,-4.406320,100.60,0.00,0.10,6.16,100.90,100.90,0.10,6.32,7304,2021-04-17 12:46:59.915,2021-04-17 13:46:59.915,18,0,0,14.845,55.937787,-4.406347,0.00,0.00,-0.10,-3.40,4.20,143.90,0,1,0,41,100,-7524,1401,14845,3105.50,1,P-GPS,1,0,0,0,0,0,624,1618663619914,3721,3714,3716,3700,0,0,27,,,,,,,0,0,0,34.00,42.00,1439.00,-377.00,0.00,1386.00,6,1006.00,1.00,61.58,0.00,0.00,-1.00,0,,,100,100,0,2,0,0,0,2,0,,,,,0.0,0.0,0
55.937840,-4.406319,100.60,0.00,0.10,6.18,100.90,100.90,0.10,6.32,7411,2021-04-17 12:47:00.021,2021-04-17 13:47:00.021,18,0,0,14.845,55.937787,-4.406347,0.00,0.00,-0.10,-3.40,4.30,143.90,0,1,0,41,100,-7524,1401,14845,3105.50,1,P-GPS,1,0,0,0,0,0,660,1618663620021,3721,3714,3716,3700,0,0,27,,,,,,,0,0,0,34.00,43.00,1439.00,-356.00,0.00,1386.00,6,1006.00,1.00,61.76,0.00,0.00,-1.00,0,,,100,100,0,2,0,0,0,2,0,,,,,0.0,0.0,0
55.937840,-4.406319,100.60,0.00,0.10,6.18,100.90,100.90,0.10,6.32,7496,2021-04-17 12:47:00.107,2021-04-17 13:47:00.106,18,0,0,14.845,55.937787,-4.406347,0.00,0.00,-0.10,-3.30,4.20,143.90,0,1,0,41,100,-7524,1401,14845,3105.50,1,P-GPS,1,1,0,0,0,0,660,1618663620106,3721,3714,3716,3700,0,0,27,,,,,,,0,0,0,33.00,42.00,1439.00,-333.00,0.00,1386.00,6,1006.00,1.00,61.81,0.00,0.00,-1.00,0,,,100,100,0,2,0,0,0,2,0,,,,,0.0,0.0,0
55.937841,-4.406319,100.60,0.00,0.10,6.21,100.90,100.90,0.10,6.32,7600,2021-04-17 12:47:00.210,2021-04-17 13:47:00.210,18,0,0,14.845,55.937787,-4.406347,0.00,0.00,-0.10,-3.40,4.20,143.90,0,1,0,41,100,-7524,1401,14845,3105.50,1,P-GPS,1,1,0,0,0,0,87,1618663620210,3721,3714,3716,3700,0,0,27,,,,,,,0,0,0,34.00,42.00,1439.00,-309.00,0.00,1386.00,6,1006.00,1.00,62.12,0.00,0.00,-1.00,0,,,100,100,0,2,0,0,0,2,0,,,,,0.0,0.0,0
55.937841,-4.406319,100.60,0.00,0.10,6.22,100.90,100.90,0.10,6.32,7701,2021-04-17 12:47:00.311,2021-04-17 13:47:00.311,18,0,0,14.845,55.937787,-4.406347,0.00,0.00,-0.10,-3.50,4.10,143.80,0,1,0,41,100,-7524,1401,14845,3105.50,1,P-GPS,1,1,0,0,0,0,0,1618663620311,3721,3714,3716,3700,0,0,27,,,,,,,0,0,0,35.00,41.00,1438.00,-287.00,0.00,1386.00,6,1006.00,1.00,62.21,0.00,0.00,-1.00,0,,,100,100,0,2,0,0,0,2,0,,,,,0.0,0.0,0
55.937841,-4.406319,100.60,0.00,0.10,6.22,100.90,100.90,0.10,6.32,7794,2021-04-17 12:47:00.405,2021-04-17 13:47:00.405,18,0,0,14.845,55.937787,-4.406347,0.00,0.00,-0.10,-3.50,4.10,143.80,0,1,0,41,100,-7524,1401,14845,3105.50,1,P-GPS,1,1,0,0,0,0,0,1618663620404,3721,3714,3716,3700,0,0,27,,,,,,,0,0,0,35.00,41.00,1438.00,-271.00,0.00,1386.00,6,1006.00,1.00,62.21,0.00,0.00,-1.00,0,,,100,100,0,2,0,0,0,2,0,,,,,0.0,0.0,0
55.937841,-4.406319,100.60,0.00,0.10,6.26,100.90,100.90,0.10,6.32,7898,2021-04-17 12:47:00.508,2021-04-17 13:47:00.508,18,0,0,14.845,55.937787,-4.406347,0.00,0.00,-0.10,-3.40,4.40,143.90,0,1,0,41,100,-7524,1401,14845,3105.50,1,P-GPS,1,1,0,0,0,0,0,1618663620508,3721,3714,3716,3700,0,0,27,,,,,,,0,0,0,34.00,44.00,1439.00,-261.00,0.00,1386.00,6,1006.00,1.00,62.56,0.00,0.00,-1.00,0,,,100,100,0,2,0,0,0,2,0,,,,,0.0,0.0,0
55.937841,-4.406319,100.60,0.00,0.10,6.26,100.90,100.90,0.10,6.32,7998,2021-04-17 12:47:00.608,2021-04-17 13:47:00.608,18,0,0,14.845,55.937787,-4.406347,0.00,0.00,-0.10,-3.40,4.50,143.90,0,1,0,41,100,-7524,1401,14845,3105.50,1,P-GPS,1,1,0,0,0,0,0,1618663620608,3721,3714,3716,3700,0,0,27,,,,,,,0,0,0,34.00,45.00,1439.00,-256.00,0.00,1386.00,6,1006.00,1.00,62.58,0.00,0.00,-1.00,0,,,100,100,0,2,0,0,0,2,0,,,,,0.0,0.0,0
55.937841,-4.406319,100.60,0.00,0.10,6.27,100.90,100.90,0.10,6.32,8099,2021-04-17 12:47:00.709,2021-04-17 13:47:00.709,18,0,0,14.843,55.937787,-4.406347,0.00,0.00,-0.10,-3.40,4.70,143.90,0,1,0,41,100,-7531,1399,14843,3104.50,1,P-GPS,1,1,0,0,0,0,0,1618663620709,3721,3714,3716,3700,0,0,27,,,,,,,0,0,0,34.00,47.00,1439.00,-255.00,0.00,1386.00,6,1006.00,1.00,62.70,0.00,0.00,-1.00,0,,,100,100,0,2,0,0,0,2,0,,,,,0.0,0.0,0
55.937841,-4.406319,100.70,0.00,0.10,6.29,100.90,100.90,0.10,6.32,8203,2021-04-17 12:47:00.813,2021-04-17 13:47:00.813,18,0,0,14.843,55.937787,-4.406347,0.00,0.00,-0.10,-3.40,4.50,143.90,0,1,0,41,100,-7531,1399,14843,3104.50,1,P-GPS,1,1,0,0,0,0,0,1618663620813,3721,3714,3716,3700,0,0,27,,,,,,,0,0,0,34.00,45.00,1439.00,-255.00,0.00,1386.00,6,1007.00,1.00,62.87,0.00,0.00,-1.00,0,,,100,100,0,2,0,0,0,2,0,,,,,0.0,0.0,0
55.937841,-4.406319,100.70,0.00,0.10,6.30,100.90,100.90,0.10,6.32,8297,2021-04-17 12:47:00.907,2021-04-17 13:47:00.907,18,0,0,14.843,55.937787,-4.406347,0.00,0.00,-0.10,-3.40,4.40,143.90,0,1,0,41,100,-7531,1399,14843,3104.50,1,P-GPS,1,1,0,0,0,0,0,1618663620907,3721,3714,3716,3700,0,0,27,,,,,,,0,0,0,34.00,44.00,1439.00,-255.00,0.00,1386.00,6,1007.00,1.00,62.99,0.00,0.00,-1.00,0,,,100,100,0,2,0,0,0,2,0,,,,,0.0,0.0,0
55.937842,-4.406318,100.70,0.00,0.10,6.31,100.90,100.90,0.10,6.32,8397,2021-04-17 12:47:01.007,2021-04-17 13:47:01.007,18,0,0,14.843,55.937787,-4.406347,0.00,0.00,-0.10,-3.50,4.30,143.90,0,1,0,41,100,-7531,1399,14843,3104.50,1,P-GPS,1,1,0,0,0,0,0,1618663621007,3721,3714,3716,3700,0,0,27,,,,,,,0,0,0,35.00,43.00,1439.00,-255.00,0.00,1386.00,6,1007.00,1.00,63.13,0.00,0.00,-1.00,0,,,100,100,0,2,0,0,0,2,0,,,,,0.0,0.0,0
55.937842,-4.406318,100.70,0.00,0.10,6.33,100.90,100.90,0.10,6.33,8502,2021-04-17 12:47:01.112,2021-04-17 13:47:01.112,18,0,0,14.843,55.937787,-4.406347,0.00,0.00,-0.10,-3.50,4.10,143.90,0,1,0,41,100,-7531,1399,14843,3104.50,1,P-GPS,1,1,0,0,0,0,0,1618663621112,3721,3714,3716,3700,0,0,27,,,,,,,0,0,0,35.00,41.00,1439.00,-255.00,0.00,1386.00,6,1007.00,1.00,63.25,0.00,0.00,-1.00,0,,,100,100,0,2,0,0,0,2,0,,,,,0.0,0.0,0
55.937842,-4.406318,100.70,0.00,0.10,6.33,100.90,100.90,0.10,6.33,8595,2021-04-17 12:47:01.205,2021-04-17 13:47:01.205,18,0,0,14.843,55.937787,-4.406347,0.00,0.00,-0.10,-3.30,4.00,143.90,0,1,0,41,100,-7531,1399,14843,3104.50,1,P-GPS,1,1,0,0,0,0,0,1618663621205,3721,3714,3716,3700,0,0,27,,,,,,,0,0,0,33.00,40.00,1439.00,-255.00,0.00,1386.00,6,1007.00,1.00,63.34,0.00,0.00,-1.00,0,,,100,100,0,2,0,0,0,2,0,,,,,0.0,0.0,0
55.937842,-4.406318,100.70,0.00,0.10,6.34,100.90,100.90,0.10,6.34,8703,2021-04-17 12:47:01.313,2021-04-17 13:47:01.313,18,0,0,14.843,55.937787,-4.406347,0.00,0.00,-0.10,-3.30,3.90,143.90,0,1,0,41,100,-7531,1399,14843,3104.50,1,P-GPS,1,1,0,0,0,0,0,1618663621313,3721,3714,3716,3700,0,0,27,,,,,,,0,0,0,33.00,39.00,1439.00,-255.00,0.00,1386.00,6,1007.00,1.00,63.45,0.00,0.00,-1.00,0,,,100,100,0,2,0,0,0,2,0,,,,,0.0,0.0,0
55.937842,-4.406318,100.70,0.00,0.10,6.36,100.90,100.90,0.10,6.36,8800,2021-04-17 12:47:01.410,2021-04-17 13:47:01.410,18,0,0,14.843,55.937787,-4.406347,0.00,0.00,-0.10,-3.50,3.70,143.90,0,1,0,41,100,-7531,1399,14843,3104.50,1,P-GPS,1,1,0,0,0,0,0,1618663621410,3721,3714,3716,3700,0,0,27,,,,,,,0,0,0,35.00,37.00,1439.00,-255.00,0.00,1386.00,6,1007.00,1.00,63.56,0.00,0.00,-1.00,0,,,100,100,0,2,0,0,0,2,0,,,,,0.0,0.0,0
55.937842,-4.406318,100.70,0.00,0.00,6.37,100.90,100.90,0.10,6.37,8898,2021-04-17 12:47:01.508,2021-04-17 13:47:01.508,18,0,0,14.843,55.937787,-4.406347,0.00,0.00,0.00,-3.50,3.50,143.90,0,1,0,41,100,-7531,1399,14843,3104.50,1,P-GPS,1,1,0,0,0,0,0,1618663621508,3721,3714,3716,3700,0,0,27,,,,,,,0,0,0,35.00,35.00,1439.00,-255.00,0.00,1386.00,6,1007.00,0.00,63.67,0.00,0.00,0.00,0,,,100,100,0,2,0,0,0,2,0,,,,,0.0,0.0,0
55.937842,-4.406318,100.70,0.00,0.00,6.36,100.90,100.90,0.10,6.37,8997,2021-04-17 12:47:01.607,2021-04-17 13:47:01.607,18,0,0,14.843,55.937787,-4.406347,0.00,0.00,0.00,-3.40,3.50,143.90,0,1,0,41,100,-7531,1399,14843,3104.50,1,P-GPS,1,1,0,0,0,0,0,1618663621607,3721,3714,3716,3700,0,0,27,,,,,,,0,0,0,34.00,35.00,1439.00,-255.00,0.00,1386.00,6,1007.00,0.00,63.58,0.00,0.00,0.00,0,,,100,100,0,2,0,0,0,2,0,,,,,0.0,0.0,0
55.937842,-4.406318,100.70,0.00,0.00,6.37,100.90,100.90,0.10,6.37,9104,2021-04-17 12:47:01.714,2021-04-17 13:47:01.714,18,0,0,14.844,55.937787,-4.406347,0.00,0.00,0.00,-3.20,3.60,144.00,0,1,0,41,100,-7556,1397,14844,3105.50,1,P-GPS,1,1,0,0,0,0,0,1618663621714,3721,3714,3716,3700,0,0,27,,,,,,,0,0,0,32.00,36.00,1440.00,-255.00,0.00,1386.00,6,1007.00,0.00,63.68,0.00,0.00,0.00,0,,,100,100,0,2,0,0,0,2,0,,,,,0.0,0.0,0
55.937842,-4.406318,100.70,0.00,0.00,6.37,100.90,100.90,0.10,6.37,9225,2021-04-17 12:47:01.836,2021-04-17 13:47:01.835,18,0,0,14.844,55.937787,-4.406347,0.00,0.00,0.00,-3.20,3.80,143.90,0,1,0,41,100,-7556,1397,14844,3105.50,1,P-GPS,1,1,0,0,0,0,0,1618663621835,3721,3714,3716,3700,0,0,27,,,,,,,0,0,0,32.00,38.00,1439.00,-255.00,0.00,1386.00,6,1007.00,0.00,63.67,0.00,0.00,0.00,0,,,100,100,0,2,0,0,0,2,0,,,,,0.0,0.0,0
55.937842,-4.406318,100.70,0.00,0.00,6.39,100.90,100.90,0.10,6.39,9403,2021-04-17 12:47:02.014,2021-04-17 13:47:02.013,18,0,0,14.844,55.937787,-4.406347,0.00,0.00,0.00,-3.40,3.80,143.90,0,1,0,41,100,-7556,1397,14844,3105.50,1,P-GPS,1,1,0,0,0,0,0,1618663622013,3721,3714,3716,3700,0,0,27,,,,,,,0,0,0,34.00,38.00,1439.00,-255.00,0.00,1386.00,6,1007.00,0.00,63.94,0.00,0.00,0.00,0,,,100,100,0,2,0,0,0,2,0,,,,,0.0,0.0,0
55.937842,-4.406318,100.70,0.00,0.00,6.40,100.90,100.90,0.10,6.40,9503,2021-04-17 12:47:02.113,2021-04-17 13:47:02.113,18,0,0,14.844,55.937787,-4.406347,0.00,0.00,0.00,-3.50,3.80,143.90,0,1,0,41,100,-7556,1397,14844,3105.50,1,P-GPS,1,1,0,0,0,0,0,1618663622113,3721,3714,3716,3700,0,0,27,,,,,,,0,0,0,35.00,38.00,1439.00,-255.00,0.00,1386.00,6,1007.00,0.00,64.04,0.00,0.00,0.00,0,,,100,100,0,2,0,0,0,2,0,,,,,0.0,0.0,0
55.937842,-4.406318,100.70,0.00,0.00,6.41,100.90,100.90,0.10,6.41,9599,2021-04-17 12:47:02.209,2021-04-17 13:47:02.209,18,0,0,14.844,55.937787,-4.406347,0.00,0.00,0.00,-3.40,4.00,143.90,0,1,0,41,100,-7556,1397,14844,3105.50,1,P-GPS,1,1,0,0,0,0,0,1618663622209,3721,3714,3716,3700,0,0,27,,,,,,,0,0,0,34.00,40.00,1439.00,-255.00,0.00,1386.00,6,1007.00,0.00,64.06,0.00,0.00,0.00,0,,,100,100,0,2,0,0,0,2,0,,,,,0.0,0.0,0
55.937842,-4.406318,100.70,0.00,0.00,6.42,100.90,100.90,0.10,6.42,9700,2021-04-17 12:47:02.310,2021-04-17 13:47:02.310,18,0,0,14.844,55.937787,-4.406347,0.00,0.00,0.00,-3.50,4.10,143.90,0,1,0,41,100,-7556,1397,14844,3105.50,1,P-GPS,1,1,0,0,0,0,-24,1618663622310,3721,3714,3716,3700,0,0,27,,,,,,,0,0,0,35.00,41.00,1439.00,-255.00,0.00,1386.00,6,1007.00,0.00,64.16,0.00,0.00,0.00,0,,,100,100,0,2,0,0,0,2,0,,,,,0.0,0.0,0
55.937842,-4.406318,100.70,0.00,0.00,6.42,100.90,100.90,0.10,6.42,9794,2021-04-17 12:47:02.404,2021-04-17 13:47:02.404,18,0,0,14.844,55.937787,-4.406347,0.00,0.00,0.00,-3.50,4.10,143.90,0,1,0,41,100,-7556,1397,14844,3105.50,1,P-GPS,1,1,0,0,0,0,-144,1618663622404,3721,3714,3716,3700,0,0,27,,,,,,,0,0,0,35.00,41.00,1439.00,-256.00,0.00,1386.00,6,1007.00,0.00,64.16,0.00,0.00,0.00,0,,,100,100,0,2,0,0,0,2,0,,,,,0.0,0.0,0
55.937842,-4.406318,100.70,0.00,0.00,6.43,100.90,100.90,0.10,6.43,9897,2021-04-17 12:47:02.507,2021-04-17 13:47:02.507,18,0,0,14.844,55.937787,-4.406347,0.00,0.00,0.00,-3.40,4.20,143.90,0,1,0,41,100,-7556,1397,14844,3105.50,1,P-GPS,1,1,0,0,0,0,-329,1618663622507,3721,3714,3716,3700,0,0,27,,,,,,,0,0,0,34.00,42.00,1439.00,-260.00,0.00,1386.00,6,1007.00,0.00,64.30,0.00,0.00,0.00,0,,,100,100,0,2,0,0,0,2,0,,,,,0.0,0.0,0
55.937842,-4.406318,100.70,0.00,0.00,6.43,100.90,100.90,0.10,6.43,9997,2021-04-17 12:47:02.607,2021-04-17 13:47:02.607,18,0,0,14.844,55.937787,-4.406347,0.00,0.00,0.00,-3.50,4.30,143.90,0,1,0,41,100,-7556,1397,14844,3105.50,1,P-GPS,1,1,0,0,0,0,-548,1618663622607,3721,3714,3716,3700,0,0,27,,,,,,,0,0,0,35.00,43.00,1439.00,-269.00,0.00,1386.00,6,1007.00,0.00,64.30,0.00,0.00,0.00,0,,,100,100,0,2,0,0,0,2,0,,,,,0.0,0.0,0
55.937843,-4.406318,100.70,0.00,0.00,6.44,100.90,100.90,0.10,6.44,10100,2021-04-17 12:47:02.710,2021-04-17 13:47:02.710,18,0,0,14.834,55.937787,-4.406347,0.00,0.00,0.00,-3.40,4.30,143.90,0,1,0,41,100,-7614,1395,14834,3105.50,1,P-GPS,1,1,0,0,0,0,-660,1618663622710,3721,3714,3716,3700,0,0,27,,,,,,,0,0,0,34.00,43.00,1439.00,-283.00,0.00,1386.00,6,1007.00,0.00,64.39,0.00,0.00,0.00,0,,,100,100,0,2,0,0,0,2,0,,,,,0.0,0.0,0
55.937843,-4.406317,100.70,0.00,0.00,6.44,100.90,100.90,0.10,6.44,10211,2021-04-17 12:47:02.821,2021-04-17 13:47:02.821,18,0,0,14.834,55.937787,-4.406347,0.00,0.00,0.00,-3.40,4.30,143.90,0,1,0,41,100,-7614,1395,14834,3105.50,1,P-GPS,1,1,0,0,0,0,-660,1618663622821,3721,3714,3716,3700,0,0,27,,,,,,,0,0,0,34.00,43.00,1439.00,-303.00,0.00,1386.00,6,1007.00,0.00,64.42,0.00,0.00,0.00,0,,,100,100,0,2,0,0,0,2,0,,,,,0.0,0.0,0
55.937843,-4.406317,100.70,0.00,0.00,6.45,100.90,100.90,0.10,6.45,10297,2021-04-17 12:47:02.908,2021-04-17 13:47:02.908,17,0,0,14.834,55.937787,-4.406347,0.00,0.00,0.00,-3.40,4.50,144.00,0,1,0,41,100,-7614,1395,14834,3105.50,1,P-GPS,1,1,0,0,0,0,-660,1618663622907,3721,3714,3716,3700,0,0,27,,,,,,,0,0,0,34.00,45.00,1440.00,-327.00,0.00,1386.00,6,1007.00,0.00,64.51,0.00,0.00,0.00,0,,,100,100,0,2,0,0,0,2,0,,,,,0.0,0.0,0
55.937843,-4.406317,100.70,0.00,0.00,6.45,100.90,100.90,0.10,6.45,10399,2021-04-17 12:47:03.009,2021-04-17 13:47:03.009,17,0,0,14.834,55.937787,-4.406347,0.00,0.00,0.00,-3.40,4.50,143.90,0,1,0,41,100,-7614,1395,14834,3105.50,1,P-GPS,1,1,0,0,0,0,0,1618663623009,3721,3714,3716,3700,0,0,27,,,,,,,0,0,0,34.00,45.00,1439.00,-350.00,0.00,1386.00,6,1007.00,0.00,64.51,0.00,0.00,0.00,0,,,100,100,0,2,0,0,0,2,0,,,,,0.0,0.0,0
55.937843,-4.406317,100.70,0.00,0.00,6.46,100.90,100.90,0.10,6.46,10502,2021-04-17 12:47:03.112,2021-04-17 13:47:03.112,18,0,0,14.834,55.937787,-4.406347,0.00,0.00,0.00,-3.40,4.50,143.90,0,1,0,41,100,-7614,1395,14834,3105.50,1,P-GPS,1,1,0,0,0,0,0,1618663623112,3721,3714,3716,3700,0,0,27,,,,,,,0,0,0,34.00,45.00,1439.00,-369.00,0.00,1386.00,6,1007.00,0.00,64.58,0.00,0.00,0.00,0,,,100,100,0,2,0,0,0,2,0,,,,,0.0,0.0,0
55.937843,-4.406317,100.70,0.00,0.00,6.44,100.90,100.90,0.10,6.46,10600,2021-04-17 12:47:03.210,2021-04-17 13:47:03.210,18,0,0,14.834,55.937787,-4.406347,0.00,0.00,0.00,-3.20,4.30,144.00,0,1,0,41,100,-7614,1395,14834,3105.50,1,P-GPS,1,1,0,0,0,0,0,1618663623210,3721,3714,3716,3700,0,0,27,,,,,,,0,0,0,32.00,43.00,1440.00,-383.00,0.00,1386.00,6,1007.00,0.00,64.43,0.00,0.00,0.00,0,,,100,100,0,2,0,0,0,2,0,,,,,0.0,0.0,0
55.937843,-4.406317,100.70,0.00,0.00,6.45,100.90,100.90,0.10,6.46,10704,2021-04-17 12:47:03.314,2021-04-17 13:47:03.314,18,0,0,14.834,55.937787,-4.406347,0.00,0.00,0.00,-3.20,4.20,144.00,0,1,0,41,100,-7614,1395,14834,3105.50,1,P-GPS,1,1,0,0,0,0,0,1618663623314,3721,3714,3716,3700,0,0,27,,,,,,,0,0,0,32.00,42.00,1440.00,-392.00,0.00,1386.00,6,1007.00,0.00,64.47,0.00,0.00,0.00,0,,,100,100,0,2,0,0,0,2,0,,,,,0.0,0.0,0
55.937842,-4.406317,100.70,0.00,0.00,6.43,100.90,100.90,0.10,6.46,10802,2021-04-17 12:47:03.412,2021-04-17 13:47:03.412,18,0,0,14.834,55.937787,-4.406347,0.00,0.00,0.00,-3.20,4.10,144.00,0,1,0,41,100,-7614,1395,14834,3105.50,1,P-GPS,1,1,0,0,0,0,-83,1618663623412,3721,3714,3716,3700,0,0,27,,,,,,,0,0,0,32.00,41.00,1440.00,-394.00,0.00,1386.00,6,1007.00,0.00,64.35,0.00,0.00,0.00,0,,,100,100,0,2,0,0,0,2,0,,,,,0.0,0.0,0
55.937842,-4.406317,100.70,0.00,0.00,6.44,100.90,100.90,0.10,6.46,10897,2021-04-17 12:47:03.507,2021-04-17 13:47:03.507,18,0,0,14.834,55.937787,-4.406347,0.00,0.00,0.00,-3.30,4.40,144.00,0,1,0,41,100,-7614,1395,14834,3105.50,1,P-GPS,1,1,0,0,0,0,-573,1618663623507,3721,3714,3716,3700,0,0,27,,,,,,,0,0,0,33.00,44.00,1440.00,-396.00,0.00,1386.00,6,1007.00,0.00,64.37,0.00,0.00,0.00,0,,,100,100,0,2,0,0,0,2,0,,,,,0.0,0.0,0
55.937842,-4.406317,100.70,0.00,0.00,6.43,100.90,100.90,0.10,6.46,11000,2021-04-17 12:47:03.610,2021-04-17 13:47:03.610,18,0,0,14.834,55.937787,-4.406347,0.00,0.00,0.00,-3.10,4.50,144.00,0,1,0,41,100,-7614,1395,14834,3105.50,1,P-GPS,1,1,0,0,0,0,-660,1618663623610,3721,3714,3716,3700,0,0,27,,,,,,,0,0,0,31.00,45.00,1440.00,-402.00,0.00,1386.00,6,1007.00,0.00,64.31,0.00,0.00,0.00,0,,,100,100,0,2,0,0,0,2,0,,,,,0.0,0.0,0
55.937842,-4.406317,100.70,0.00,0.10,6.43,100.90,100.90,0.10,6.46,11100,2021-04-17 12:47:03.710,2021-04-17 13:47:03.710,18,0,0,14.832,55.937787,-4.406347,0.00,0.00,-0.10,-3.10,4.50,144.00,0,1,0,41,100,-7734,1393,14832,3105.50,1,P-GPS,1,1,0,0,0,0,-660,1618663623710,3721,3714,3716,3700,0,0,27,,,,,,,0,0,0,31.00,45.00,1440.00,-413.00,0.00,1386.00,6,1007.00,1.00,64.32,0.00,0.00,-1.00,0,,,100,100,0,2,0,0,0,2,0,,,,,0.0,0.0,0
55.937843,-4.406317,100.70,0.00,0.00,6.45,100.90,100.90,0.10,6.46,11195,2021-04-17 12:47:03.805,2021-04-17 13:47:03.805,18,0,0,14.832,55.937787,-4.406347,0.00,0.00,0.00,-3.10,4.50,144.00,0,1,0,41,100,-7734,1393,14832,3105.50,1,P-GPS,1,1,0,0,0,0,-578,1618663623805,3721,3714,3716,3700,0,0,27,,,,,,,0,0,0,31.00,45.00,1440.00,-431.00,0.00,1386.00,6,1007.00,0.00,64.49,0.00,0.00,0.00,0,,,100,100,0,2,0,0,0,2,0,,,,,0.0,0.0,0
55.937843,-4.406317,100.60,0.00,0.00,6.45,100.90,100.90,0.10,6.46,11298,2021-04-17 12:47:03.908,2021-04-17 13:47:03.908,18,0,0,14.832,55.937787,-4.406347,0.00,0.00,0.00,-3.10,4.30,144.00,0,1,0,41,100,-7734,1393,14832,3105.50,1,P-GPS,1,1,0,0,0,0,0,1618663623908,3721,3714,3716,3700,0,0,27,,,,,,,0,0,0,31.00,43.00,1440.00,-452.00,0.00,1386.00,6,1006.00,0.00,64.50,0.00,0.00,0.00,0,,,100,100,0,2,0,0,0,2,0,,,,,0.0,0.0,0
55.937842,-4.406317,100.60,0.00,0.00,6.45,100.90,100.90,0.10,6.46,11398,2021-04-17 12:47:04.008,2021-04-17 13:47:04.008,18,0,0,14.832,55.937787,-4.406347,0.00,0.00,0.00,-3.10,4.20,144.00,0,1,0,41,100,-7734,1393,14832,3105.50,1,P-GPS,1,1,0,0,0,0,0,1618663624008,3721,3714,3716,3700,0,0,27,,,,,,,0,0,0,31.00,42.00,1440.00,-470.00,0.00,1386.00,6,1006.00,0.00,64.45,0.00,0.00,0.00,0,,,100,100,0,2,0,0,0,2,0,,,,,0.0,0.0,0
55.937842,-4.406317,100.60,0.00,0.00,6.45,100.90,100.90,0.10,6.46,11498,2021-04-17 12:47:04.109,2021-04-17 13:47:04.108,18,0,0,14.832,55.937787,-4.406347,0.00,0.00,0.00,-3.10,4.10,144.00,0,1,0,41,100,-7734,1393,14832,3105.50,1,P-GPS,1,1,0,0,0,0,0,1618663624108,3721,3714,3716,3700,0,0,27,,,,,,,0,0,0,31.00,41.00,1440.00,-482.00,0.00,1386.00,6,1006.00,0.00,64.45,0.00,0.00,0.00,0,,,100,100,0,2,0,0,0,2,0,,,,,0.0,0.0,0
55.937842,-4.406317,100.60,0.00,0.10,6.44,100.90,100.90,0.10,6.46,11604,2021-04-17 12:47:04.216,2021-04-17 13:47:04.216,18,0,0,14.832,55.937787,-4.406347,0.00,0.00,-0.10,-3.00,4.20,143.90,0,1,0,41,100,-7734,1393,14832,3105.50,1,P-GPS,1,1,0,0,0,0,-83,1618663624214,3721,3714,3716,3700,0,0,27,,,,,,,0,0,0,30.00,42.00,1439.00,-488.00,0.00,1386.00,6,1006.00,1.00,64.43,0.00,0.00,-1.00,0,,,100,100,0,2,0,0,0,2,0,,,,,0.0,0.0,0
55.937842,-4.406317,100.60,0.00,0.10,6.44,100.90,100.90,0.10,6.46,11716,2021-04-17 12:47:04.327,2021-04-17 13:47:04.326,18,0,0,14.832,55.937787,-4.406347,0.00,0.00,-0.10,-3.00,4.20,143.90,0,1,0,41,100,-7734,1393,14832,3105.50,1,P-GPS,1,1,0,0,0,0,-537,1618663624326,3721,3714,3716,3700,0,0,27,,,,,,,0,0,0,30.00,42.00,1439.00,-491.00,0.00,1386.00,6,1006.00,1.00,64.41,0.00,0.00,-1.00,0,,,100,100,0,2,0,0,0,2,0,,,,,0.0,0.0,0
55.937842,-4.406317,100.60,0.00,0.10,6.42,100.90,100.90,0.10,6.46,11897,2021-04-17 12:47:04.507,2021-04-17 13:47:04.507,18,0,0,14.832,55.937787,-4.406347,0.00,0.00,-0.10,-2.80,4.20,144.00,0,1,0,41,100,-7734,1393,14832,3105.50,1,P-GPS,1,1,0,0,0,0,-660,1618663624507,3721,3714,3716,3700,0,0,27,,,,,,,0,0,0,28.00,42.00,1440.00,-511.00,0.00,1386.00,6,1006.00,1.00,64.19,0.00,0.00,-1.00,0,,,100,100,0,2,0,0,0,2,0,,,,,0.0,0.0,0
55.937842,-4.406317,100.60,0.00,0.10,6.42,100.90,100.90,0.10,6.46,11998,2021-04-17 12:47:04.608,2021-04-17 13:47:04.608,18,0,0,14.832,55.937787,-4.406347,0.00,0.00,-0.10,-2.80,4.20,144.00,0,1,0,41,100,-7734,1393,14832,3105.50,1,P-GPS,1,1,0,0,0,0,-660,1618663624608,3721,3714,3716,3700,0,0,27,,,,,,,0,0,0,28.00,42.00,1440.00,-529.00,0.00,1386.00,6,1006.00,1.00,64.19,0.00,0.00,-1.00,0,,,100,100,0,2,0,0,0,2,0,,,,,0.0,0.0,0
55.937842,-4.406317,100.60,0.00,0.10,6.42,100.90,100.90,0.10,6.46,12096,2021-04-17 12:47:04.706,2021-04-17 13:47:04.706,18,0,0,14.832,55.937787,-4.406347,0.00,0.00,-0.10,-2.80,4.20,144.00,0,1,0,41,100,-7755,1391,14832,3104.50,1,P-GPS,1,1,0,0,0,0,-115,1618663624706,3721,3714,3716,3700,0,0,27,,,,,,,0,0,0,28.00,42.00,1440.00,-552.00,0.00,1386.00,6,1006.00,1.00,64.15,0.00,0.00,-1.00,0,,,100,100,0,2,0,0,0,2,0,,,,,0.0,0.0,0
55.937842,-4.406317,100.60,0.00,0.10,6.40,100.90,100.90,0.10,6.46,12196,2021-04-17 12:47:04.806,2021-04-17 13:47:04.806,18,0,0,14.832,55.937787,-4.406347,0.00,0.00,-0.10,-2.90,4.10,143.90,0,1,0,41,100,-7755,1391,14832,3104.50,1,P-GPS,1,1,0,0,0,0,0,1618663624806,3721,3714,3716,3700,0,0,27,,,,,,,0,0,0,29.00,41.00,1439.00,-574.00,0.00,1386.00,6,1006.00,1.00,64.01,0.00,0.00,-1.00,0,,,100,100,0,2,0,0,0,2,0,,,,,0.0,0.0,0
55.937842,-4.406317,100.60,0.00,0.10,6.40,100.90,100.90,0.10,6.46,12300,2021-04-17 12:47:04.910,2021-04-17 13:47:04.910,18,0,0,14.832,55.937787,-4.406347,0.00,0.00,-0.10,-2.80,4.10,144.00,0,1,0,41,100,-7755,1391,14832,3104.50,1,P-GPS,1,1,0,0,0,0,0,1618663624910,3721,3714,3716,3700,0,0,27,,,,,,,0,0,0,28.00,41.00,1440.00,-589.00,0.00,1386.00,6,1006.00,1.00,63.97,0.00,0.00,-1.00,0,,,100,100,0,2,0,0,0,2,0,,,,,0.0,0.0,0
55.937842,-4.406317,100.60,0.00,0.10,6.39,100.90,100.90,0.10,6.46,12399,2021-04-17 12:47:05.009,2021-04-17 13:47:05.009,18,0,0,14.832,55.937787,-4.406347,0.00,0.00,-0.10,-2.70,4.10,144.00,0,1,0,41,100,-7755,1391,14832,3104.50,1,P-GPS,1,1,0,0,0,0,0,1618663625009,3721,3714,3716,3700,0,0,27,,,,,,,0,0,0,27.00,41.00,1440.00,-599.00,0.00,1386.00,6,1006.00,1.00,63.87,0.00,0.00,-1.00,0,,,100,100,0,2,0,0,0,2,0,,,,,0.0,0.0,0
55.937842,-4.406317,100.60,0.00,0.10,6.38,100.90,100.90,0.10,6.46,12505,2021-04-17 12:47:05.116,2021-04-17 13:47:05.116,18,0,0,14.832,55.937787,-4.406347,0.00,0.00,-0.10,-2.70,4.30,144.00,0,1,0,41,100,-7755,1391,14832,3104.50,1,P-GPS,1,1,0,0,0,0,-337,1618663625115,3721,3714,3716,3700,0,0,27,,,,,,,0,0,0,27.00,43.00,1440.00,-604.00,0.00,1386.00,6,1006.00,1.00,63.83,0.00,0.00,-1.00,0,,,100,100,0,2,0,0,0,2,0,,,,,0.0,0.0,0
55.937842,-4.406318,100.60,0.00,0.10,6.39,100.90,100.90,0.10,6.46,12599,2021-04-17 12:47:05.210,2021-04-17 13:47:05.210,18,0,0,14.832,55.937787,-4.406347,0.00,0.00,-0.10,-2.80,4.30,144.00,0,1,0,41,100,-7755,1391,14832,3104.50,1,P-GPS,1,1,0,0,0,0,-660,1618663625209,3721,3714,3716,3700,0,0,27,,,,,,,0,0,0,28.00,43.00,1440.00,-609.00,0.00,1386.00,6,1006.00,1.00,63.88,0.00,0.00,-1.00,0,,,100,100,0,2,0,0,0,2,0,,,,,0.0,0.0,0
55.937842,-4.406318,100.60,0.00,0.10,6.38,100.90,100.90,0.10,6.46,12696,2021-04-17 12:47:05.306,2021-04-17 13:47:05.306,18,0,0,14.832,55.937787,-4.406347,0.00,0.00,-0.10,-2.90,4.30,144.00,0,1,0,41,100,-7755,1391,14832,3104.50,1,P-GPS,1,1,0,0,0,0,-660,1618663625306,3721,3714,3716,3700,0,0,27,,,,,,,0,0,0,29.00,43.00,1440.00,-620.00,0.00,1386.00,6,1006.00,1.00,63.84,0.00,0.00,-1.00,0,,,100,100,0,2,0,0,0,2,0,,,,,0.0,0.0,0
55.937842,-4.406318,100.60,0.00,0.10,6.38,100.90,100.90,0.10,6.46,12785,2021-04-17 12:47:05.395,2021-04-17 13:47:05.395,18,0,0,14.832,55.937787,-4.406347,0.00,0.00,-0.10,-2.90,4.30,144.00,0,1,0,41,100,-7755,1391,14832,3104.50,1,P-GPS,1,1,0,0,0,0,-660,1618663625395,3721,3714,3716,3700,0,0,27,,,,,,,0,0,0,29.00,43.00,1440.00,-636.00,0.00,1386.00,6,1006.00,1.00,63.84,0.00,0.00,-1.00,0,,,100,100,0,2,0,0,0,2,0,,,,,0.0,0.0,0
55.937842,-4.406318,100.60,0.00,0.10,6.39,100.90,100.90,0.10,6.46,12897,2021-04-17 12:47:05.507,2021-04-17 13:47:05.507,18,0,0,14.832,55.937787,-4.406347,0.00,0.00,-0.10,-3.00,4.30,144.00,0,1,0,41,100,-7755,1391,14832,3104.50,1,P-GPS,1,1,0,0,0,0,-660,1618663625507,3721,3714,3716,3700,0,0,27,,,,,,,0,0,0,30.00,43.00,1440.00,-657.00,0.00,1386.00,6,1006.00,1.00,63.86,0.00,0.00,-1.00,0,,,100,100,0,2,0,0,0,2,0,,,,,0.0,0.0,0
55.937842,-4.406318,100.60,0.00,0.10,6.39,100.90,100.90,0.10,6.46,12997,2021-04-17 12:47:05.607,2021-04-17 13:47:05.607,18,0,0,14.825,55.937787,-4.406347,0.00,0.00,-0.10,-3.00,4.30,144.00,0,1,0,41,100,-7735,1388,14825,3105.50,1,P-GPS,1,1,0,0,0,0,-660,1618663625607,3721,3714,3716,3700,0,0,27,,,,,,,0,0,0,30.00,43.00,1440.00,-681.00,0.00,1386.00,6,1006.00,1.00,63.88,0.00,0.00,-1.00,0,,,100,100,0,2,0,0,0,2,0,,,,,0.0,0.0,0
55.937842,-4.406318,100.60,0.00,0.10,6.38,100.90,100.90,0.10,6.46,13097,2021-04-17 12:47:05.707,2021-04-17 13:47:05.707,17,0,0,14.825,55.937787,-4.406347,0.00,0.00,-0.10,-3.10,4.30,144.00,0,1,0,41,100,-7735,1388,14825,3105.50,1,P-GPS,1,1,0,0,0,0,-660,1618663625707,3721,3714,3716,3700,0,0,27,,,,,,,0,0,0,31.00,43.00,1440.00,-704.00,0.00,1386.00,6,1006.00,1.00,63.84,0.00,0.00,-1.00,0,,,100,100,0,2,0,0,0,2,0,,,,,0.0,0.0,0
55.937842,-4.406318,100.60,0.00,0.10,6.37,100.90,100.90,0.10,6.46,13197,2021-04-17 12:47:05.807,2021-04-17 13:47:05.807,17,0,0,14.825,55.937787,-4.406347,0.00,0.00,-0.10,-3.00,4.40,144.00,0,1,0,41,100,-7735,1388,14825,3105.50,1,P-GPS,1,1,0,0,0,0,-452,1618663625807,3721,3714,3716,3700,0,0,27,,,,,,,0,0,0,30.00,44.00,1440.00,-728.00,0.00,1386.00,6,1006.00,1.00,63.70,0.00,0.00,-1.00,0,,,100,100,0,2,0,0,0,2,0,,,,,0.0,0.0,0
55.937842,-4.406318,100.60,0.00,0.10,6.37,100.90,100.90,0.10,6.46,13298,2021-04-17 12:47:05.909,2021-04-17 13:47:05.908,17,0,0,14.825,55.937787,-4.406347,0.00,0.00,-0.10,-3.10,4.40,144.00,0,1,0,41,100,-7735,1388,14825,3105.50,1,P-GPS,1,1,0,0,0,0,0,1618663625908,3721,3714,3716,3700,0,0,27,,,,,,,0,0,0,31.00,44.00,1440.00,-750.00,0.00,1386.00,6,1006.00,1.00,63.65,0.00,0.00,-1.00,0,,,100,100,0,2,0,0,0,2,0,,,,,0.0,0.0,0
55.937842,-4.406318,100.60,0.00,0.10,6.37,100.90,100.90,0.10,6.46,13432,2021-04-17 12:47:06.043,2021-04-17 13:47:06.042,17,0,0,14.825,55.937787,-4.406347,0.00,0.00,-0.10,-2.90,4.40,144.00,0,1,0,41,100,-7735,1388,14825,3105.50,1,P-GPS,1,1,0,0,0,0,0,1618663626042,3721,3714,3716,3700,0,0,27,,,,,,,0,0,0,29.00,44.00,1440.00,-768.00,0.00,1386.00,6,1006.00,1.00,63.70,0.00,0.00,-1.00,0,,,100,100,0,2,0,0,0,2,0,,,,,0.0,0.0,0
55.937842,-4.406318,100.60,0.00,0.10,6.38,100.90,100.90,0.10,6.46,13601,2021-04-17 12:47:06.211,2021-04-17 13:47:06.211,17,0,0,14.825,55.937787,-4.406347,0.00,0.00,-0.10,-2.70,4.20,144.00,0,1,0,41,100,-7735,1388,14825,3105.50,1,P-GPS,1,1,0,0,0,0,-64,1618663626211,3721,3714,3716,3700,0,0,27,,,,,,,0,0,0,27.00,42.00,1440.00,-785.00,0.00,1386.00,6,1006.00,1.00,63.85,0.00,0.00,-1.00,0,,,100,100,0,2,0,0,0,2,0,,,,,0.0,0.0,0
55.937842,-4.406318,100.60,0.00,0.10,6.38,100.90,100.90,0.10,6.46,13696,2021-04-17 12:47:06.306,2021-04-17 13:47:06.306,17,0,0,14.825,55.937787,-4.406347,0.00,0.00,-0.10,-2.70,4.30,144.00,0,1,0,41,100,-7735,1388,14825,3105.50,1,P-GPS,1,1,0,0,0,0,-472,1618663626306,3721,3714,3716,3700,0,0,27,,,,,,,0,0,0,27.00,43.00,1440.00,-787.00,0.00,1386.00,6,1006.00,1.00,63.81,0.00,0.00,-1.00,0,,,100,100,0,2,0,0,0,2,0,,,,,0.0,0.0,0
55.937842,-4.406318,100.60,0.00,0.10,6.38,100.90,100.90,0.10,6.46,13802,2021-04-17 12:47:06.412,2021-04-17 13:47:06.412,17,0,0,14.825,55.937787,-4.406347,0.00,0.00,-0.10,-2.80,4.30,144.00,0,1,0,41,100,-7735,1388,14825,3105.50,1,P-GPS,1,1,0,0,0,0,-660,1618663626412,3721,3714,3716,3700,0,0,27,,,,,,,0,0,0,28.00,43.00,1440.00,-793.00,0.00,1386.00,6,1006.00,1.00,63.82,0.00,0.00,-1.00,0,,,100,100,0,2,0,0,0,2,0,,,,,0.0,0.0,0
55.937842,-4.406318,100.60,0.00,0.10,6.38,100.90,100.90,0.10,6.46,13900,2021-04-17 12:47:06.511,2021-04-17 13:47:06.510,17,0,0,14.825,55.937787,-4.406347,0.00,0.00,-0.10,-2.80,4.40,144.00,0,1,0,41,100,-7735,1388,14825,3105.50,1,P-GPS,1,1,0,0,0,0,-660,1618663626510,3721,3714,3716,3700,0,0,27,,,,,,,0,0,0,28.00,44.00,1440.00,-806.00,0.00,1386.00,6,1006.00,1.00,63.80,0.00,0.00,-1.00,0,,,100,100,0,2,0,0,0,2,0,,,,,0.0,0.0,0
55.937842,-4.406318,100.60,0.00,0.10,6.39,100.90,100.90,0.10,6.46,14002,2021-04-17 12:47:06.612,2021-04-17 13:47:06.612,17,0,0,14.824,55.937787,-4.406347,0.00,0.00,-0.10,-2.80,4.50,144.00,0,1,0,40,100,-7821,1384,14824,3105.50,1,P-GPS,1,1,0,0,0,0,-660,1618663626612,3721,3714,3716,3700,0,0,27,,,,,,,0,0,0,28.00,45.00,1440.00,-823.00,0.00,1386.00,6,1006.00,1.00,63.85,0.00,0.00,-1.00,0,,,100,100,0,2,0,0,0,2,0,,,,,0.0,0.0,0
55.937842,-4.406318,100.60,0.00,0.10,6.38,100.90,100.90,0.10,6.46,14098,2021-04-17 12:47:06.708,2021-04-17 13:47:06.708,17,0,0,14.824,55.937787,-4.406347,0.00,0.00,-0.10,-2.80,4.30,144.00,0,1,0,40,100,-7821,1384,14824,3105.50,1,P-GPS,1,1,0,0,0,0,-638,1618663626708,3721,3714,3716,3700,0,0,27,,,,,,,0,0,0,28.00,43.00,1440.00,-846.00,0.00,1386.00,6,1006.00,1.00,63.83,0.00,0.00,-1.00,0,,,100,100,0,2,0,0,0,2,0,,,,,0.0,0.0,0
55.937842,-4.406318,100.60,0.00,0.10,6.38,100.90,100.90,0.10,6.46,14197,2021-04-17 12:47:06.807,2021-04-17 13:47:06.807,17,0,0,14.824,55.937787,-4.406347,0.00,0.00,-0.10,-2.80,4.10,144.00,0,1,0,40,100,-7821,1384,14824,3105.50,1,P-GPS,1,1,0,0,0,0,0,1618663626807,3721,3714,3716,3700,0,0,27,,,,,,,0,0,0,28.00,41.00,1440.00,-869.00,0.00,1386.00,6,1006.00,1.00,63.83,0.00,0.00,-1.00,0,,,100,100,0,2,0,0,0,2,0,,,,,0.0,0.0,0
55.937842,-4.406319,100.60,0.00,0.10,6.38,100.90,100.90,0.10,6.46,14302,2021-04-17 12:47:06.912,2021-04-17 13:47:06.912,18,0,0,14.824,55.937787,-4.406347,0.00,0.00,-0.10,-2.90,4.00,144.00,0,1,0,40,100,-7821,1384,14824,3105.50,1,P-GPS,1,1,0,0,0,0,0,1618663626912,3721,3714,3716,3700,0,0,27,,,,,,,0,0,0,29.00,40.00,1440.00,-887.00,0.00,1386.00,6,1006.00,1.00,63.81,0.00,0.00,-1.00,0,,,100,100,0,2,0,0,0,2,0,,,,,0.0,0.0,0
