latitude,longitude,altitude(m),ultrasonicHeight(m),speed(mps),distance(m),max_altitude(m),max_ascent(m),max_speed(mps),max_distance(m),time(millisecond),datetime(utc),datetime(local),satellites,pressure(Pa),temperature(F),voltage(v),home_latitude,home_longitude,velocityX(mps),velocityY(mps),velocityZ(mps),pitch(deg),roll(deg),yaw(deg),powerlevel,isflying,istakingphoto,remainPowerPercent,remainLifePercent,currentCurrent,currentElectricity,currentVoltage,batteryTemperature,dischargeCount,flightmode,isMotorsOn,isTakingVideo,Rc_elevator,Rc_aileron,Rc_throttle,Rc_rudder,Rc_gyro,timestamp,Battery_Cell1,Battery_Cell2,Battery_Cell3,Battery_Cell4,Battery_Cell5,Battery_Cell6,Dronetype,AppVersion,Planename,FlyControllerSerialNumber,RemoteSerialNumber,BatterySerialNumber,CENTER_BATTERY.productDate,CENTER_BATTERY.serialNo,CENTER_BATTERY.fullCapacity,CENTER_BATTERY.productDateRaw,pitchRaw,rollRaw,yawRaw,gimbalPitchRaw,gimbalRollRaw,gimbalYawRaw,flyState,altitudeRaw,speedRaw,distanceRaw,velocityXRaw,velocityYRaw,velocityZRaw,data_reuse,App_Tip,App_Warning,downlinkSignalQuality,uplinkSignalQuality,transmissionChannel,rcModeSwitch,rcHome,rcPause,rcTransform,rcJoystickMode,appMode,FlyControllerSerialNumber_legacy,RemoteSerialNumber_legacy,BatterySerialNumber_legacy,Battery2SerialNumber,frontAvoidDist,backAvoidDist,isBrakingToAvoid
55.937800,-4.406358,0.60,0.60,1.40,0.04,0.60,0.60,1.40,0.04,0,2021-04-17 12:51:45.384,2021-04-17 13:51:45.384,16,0,0,13.979,55.937800,-4.406358,0.10,0.00,-1.40,-1.40,2.30,106.70,0,1,0,32,100,-4826,1150,13979,2910.50,0,P-GPS,1,1,0,0,567,0,0,1618663905384,3688,3668,3658,3666,0,0,27,Litchi_4.18.0-g,CJTMAVIC,163DFAS001K45C,0VECFAK0072T52,0P2AFB353405ER,,0,0,0,14.00,23.00,1067.00,0.00,0.00,1073.00,6,6.00,14.04,0.44,1.00,0.00,-14.00,0,,,100,100,0,2,0,0,0,2,0,,,,null,0.0,4.0,0
55.937800,-4.406358,0.80,0.80,1.70,0.06,0.80,0.80,1.70,0.06,106,2021-04-17 12:51:45.490,2021-04-17 13:51:45.490,16,0,0,13.979,55.937800,-4.406358,0.10,0.00,-1.70,-1.30,2.30,106.80,0,1,0,32,100,-4826,1150,13979,2910.50,0,P-GPS,1,1,0,0,580,0,0,1618663905490,3688,3668,3658,3666,0,0,27,,,,,,,0,0,0,13.00,23.00,1068.00,0.00,0.00,1073.00,6,8.00,17.03,0.61,1.00,0.00,-17.00,0,,,100,100,0,2,0,0,0,2,0,,,,,0.0,4.0,0
55.937800,-4.406358,1.00,1.00,2.00,0.08,1.00,1.00,2.00,0.08,191,2021-04-17 12:51:45.575,2021-04-17 13:51:45.575,17,0,0,13.979,55.937800,-4.406358,0.10,0.00,-2.00,-1.00,2.60,106.70,0,1,0,32,100,-4826,1150,13979,2910.50,0,P-GPS,1,1,0,0,583,0,0,1618663905575,3688,3668,3658,3666,0,0,27,,,,,,,0,0,0,10.00,26.00,1067.00,0.00,0.00,1073.00,6,10.00,20.02,0.77,1.00,0.00,-20.00,0,,,100,100,0,2,0,0,0,2,0,,,,,0.0,4.0,0
55.937801,-4.406358,1.20,1.20,2.40,0.09,1.20,1.20,2.40,0.09,282,2021-04-17 12:51:45.667,2021-04-17 13:51:45.666,17,0,0,13.398,55.937800,-4.406358,0.10,0.00,-2.40,-0.90,2.50,106.70,0,1,0,32,100,-9621,1148,13398,2910.50,0,P-GPS,1,1,0,0,576,0,0,1618663905666,3688,3668,3658,3666,0,0,27,,,,,,,0,0,0,9.00,25.00,1067.00,0.00,0.00,1073.00,6,12.00,24.02,0.92,1.00,0.00,-24.00,0,,,100,100,0,2,0,0,0,2,0,,,,,0.0,4.0,0
55.937801,-4.406358,1.40,1.50,2.70,0.10,1.40,1.40,2.70,0.10,392,2021-04-17 12:51:45.776,2021-04-17 13:51:45.776,17,0,0,13.398,55.937800,-4.406358,0.10,0.00,-2.70,-1.40,2.70,106.60,0,1,0,32,100,-9621,1148,13398,2910.50,0,P-GPS,1,1,0,0,542,0,0,1618663905776,3688,3668,3658,3666,0,0,27,,,,,,,0,0,0,14.00,27.00,1066.00,0.00,0.00,1073.00,6,14.00,27.02,1.03,1.00,0.00,-27.00,0,,,100,100,0,2,0,0,0,2,0,,,,,0.0,4.0,0
55.937801,-4.406358,1.70,1.80,2.80,0.12,1.70,1.70,2.80,0.12,497,2021-04-17 12:51:45.881,2021-04-17 13:51:45.881,17,0,0,13.398,55.937800,-4.406358,0.00,0.00,-2.80,-1.60,3.20,106.70,0,1,0,32,100,-9621,1148,13398,2910.50,0,P-GPS,1,1,0,0,392,0,0,1618663905881,3688,3668,3658,3666,0,0,27,,,,,,,0,0,0,16.00,32.00,1067.00,0.00,0.00,1073.00,6,17.00,28.00,1.16,0.00,0.00,-28.00,0,,,100,100,0,2,0,0,0,2,0,,,,,0.0,4.0,0
55.937801,-4.406358,2.00,2.00,2.80,0.11,2.00,2.00,2.80,0.12,598,2021-04-17 12:51:45.982,2021-04-17 13:51:45.982,17,0,0,13.398,55.937800,-4.406358,0.00,0.00,-2.80,-1.70,3.60,106.70,0,1,0,32,100,-9621,1148,13398,2910.50,0,P-GPS,1,1,0,0,226,0,0,1618663905982,3688,3668,3658,3666,0,0,27,,,,,,,0,0,0,17.00,36.00,1067.00,0.00,0.00,1073.00,6,20.00,28.00,1.14,0.00,0.00,-28.00,0,,,100,100,0,2,0,0,0,2,0,,,,,0.0,4.0,0
55.937801,-4.406358,2.30,2.30,2.70,0.12,2.30,2.30,2.80,0.12,697,2021-04-17 12:51:46.081,2021-04-17 13:51:46.081,17,0,0,13.398,55.937800,-4.406358,0.00,0.00,-2.70,-1.00,3.60,106.70,0,1,0,32,100,-9621,1148,13398,2910.50,0,P-GPS,1,1,0,0,8,0,0,1618663906081,3688,3668,3658,3666,0,0,27,,,,,,,0,0,0,10.00,36.00,1067.00,0.00,0.00,1073.00,6,23.00,27.00,1.23,0.00,0.00,-27.00,0,,,100,100,0,2,0,0,0,2,0,,,,,0.0,4.0,0
55.937801,-4.406358,2.60,2.60,2.50,0.09,2.60,2.60,2.80,0.12,784,2021-04-17 12:51:46.169,2021-04-17 13:51:46.169,16,0,0,13.398,55.937800,-4.406358,0.00,0.00,-2.50,-0.80,3.30,106.70,0,1,0,32,100,-9621,1148,13398,2910.50,0,P-GPS,1,1,0,0,0,0,0,1618663906168,3688,3668,3658,3666,0,0,27,,,,,,,0,0,0,8.00,33.00,1067.00,0.00,0.00,1073.00,6,26.00,25.00,0.92,0.00,0.00,-25.00,0,,,100,100,0,2,0,0,0,2,0,,,,,0.0,4.0,0
55.937801,-4.406358,2.80,2.80,2.30,0.09,2.80,2.80,2.80,0.12,896,2021-04-17 12:51:46.280,2021-04-17 13:51:46.280,16,0,0,13.398,55.937800,-4.406358,0.00,0.00,-2.30,-0.70,2.90,106.60,0,1,0,32,100,-9621,1148,13398,2910.50,0,P-GPS,1,1,0,0,0,0,0,1618663906280,3688,3668,3658,3666,0,0,27,,,,,,,0,0,0,7.00,29.00,1066.00,0.00,0.00,1073.00,6,28.00,23.00,0.93,0.00,0.00,-23.00,0,,,100,100,0,2,0,0,0,2,0,,,,,0.0,4.0,0
55.937800,-4.406357,3.10,3.00,2.00,0.08,3.10,3.10,2.80,0.12,988,2021-04-17 12:51:46.372,2021-04-17 13:51:46.372,16,0,0,13.398,55.937800,-4.406358,0.00,0.00,-2.00,-0.70,2.70,106.60,0,1,0,32,100,-9621,1148,13398,2910.50,0,P-GPS,1,1,0,0,0,0,0,1618663906372,3688,3668,3658,3666,0,0,27,,,,,,,0,0,0,7.00,27.00,1066.00,0.00,0.00,1073.00,6,31.00,20.00,0.83,0.00,0.00,-20.00,0,,,100,100,0,2,0,0,0,2,0,,,,,0.0,4.0,0
55.937800,-4.406357,3.20,3.20,1.60,0.08,3.20,3.20,2.80,0.12,1085,2021-04-17 12:51:46.470,2021-04-17 13:51:46.469,16,0,0,13.398,55.937800,-4.406358,0.00,0.00,-1.60,-0.60,2.70,106.60,0,1,0,32,100,-9621,1148,13398,2910.50,0,P-GPS,1,1,0,0,0,0,0,1618663906469,3688,3668,3658,3666,0,0,27,,,,,,,0,0,0,6.00,27.00,1066.00,0.00,0.00,1073.00,6,32.00,16.00,0.83,0.00,0.00,-16.00,0,,,100,100,0,2,0,0,0,2,0,,,,,0.0,4.0,0
55.937801,-4.406357,3.40,3.30,1.30,0.11,3.40,3.40,2.80,0.12,1205,2021-04-17 12:51:46.589,2021-04-17 13:51:46.589,16,0,0,13.398,55.937800,-4.406358,0.00,0.00,-1.30,-0.70,2.30,106.70,0,1,0,32,100,-9621,1148,13398,2910.50,0,P-GPS,1,1,0,0,0,0,0,1618663906589,3688,3668,3658,3666,0,0,27,,,,,,,0,0,0,7.00,23.00,1067.00,0.00,0.00,1073.00,6,34.00,13.00,1.07,0.00,0.00,-13.00,0,,,100,100,0,2,0,0,0,2,0,,,,,0.0,11.4,0
55.937801,-4.406357,3.60,3.50,0.60,0.11,3.60,3.60,2.80,0.12,1394,2021-04-17 12:51:46.778,2021-04-17 13:51:46.778,16,0,0,13.627,55.937800,-4.406358,0.00,0.00,-0.60,-0.50,2.70,106.70,0,1,0,32,100,-10736,1145,13627,2911.50,0,P-GPS,1,1,0,0,0,0,0,1618663906778,3688,3668,3658,3666,0,0,27,,,,,,,0,0,0,5.00,27.00,1067.00,0.00,0.00,1073.00,6,36.00,6.00,1.14,0.00,0.00,-6.00,0,,,100,100,0,2,0,0,0,2,0,,,,,0.0,12.0,0
55.937801,-4.406357,3.70,3.50,0.30,0.12,3.70,3.70,2.80,0.12,1493,2021-04-17 12:51:46.877,2021-04-17 13:51:46.877,16,0,0,13.627,55.937800,-4.406358,0.00,0.00,-0.30,-0.70,2.70,106.60,0,1,0,32,100,-10736,1145,13627,2911.50,0,P-GPS,1,1,0,0,0,0,0,1618663906877,3688,3668,3658,3666,0,0,27,,,,,,,0,0,0,7.00,27.00,1066.00,0.00,0.00,1073.00,6,37.00,3.00,1.18,0.00,0.00,-3.00,0,,,100,100,0,2,0,0,0,2,0,,,,,0.0,12.0,0
55.937801,-4.406357,3.70,3.50,0.10,0.10,3.70,3.70,2.80,0.12,1590,2021-04-17 12:51:46.974,2021-04-17 13:51:46.974,17,0,0,13.627,55.937800,-4.406358,0.00,0.00,-0.10,-1.00,2.90,106.60,0,1,0,32,100,-10736,1145,13627,2911.50,0,P-GPS,1,1,0,0,0,0,0,1618663906974,3688,3668,3658,3666,0,0,27,,,,,,,0,0,0,10.00,29.00,1066.00,0.00,0.00,1073.00,6,37.00,1.00,1.05,0.00,0.00,-1.00,0,,,100,100,0,2,0,0,0,2,0,,,,,0.0,0.0,0
55.937801,-4.406357,3.70,3.50,0.00,0.11,3.70,3.70,2.80,0.12,1681,2021-04-17 12:51:47.066,2021-04-17 13:51:47.066,17,0,0,13.627,55.937800,-4.406358,0.00,0.00,0.00,-1.10,3.10,106.60,0,1,0,32,100,-10736,1145,13627,2911.50,0,P-GPS,1,1,0,0,0,0,0,1618663907065,3688,3668,3658,3666,0,0,27,,,,,,,0,0,0,11.00,31.00,1066.00,0.00,0.00,1073.00,6,37.00,0.00,1.09,0.00,0.00,0.00,0,,,100,100,0,2,0,0,0,2,0,,,,,0.0,0.0,0
55.937801,-4.406357,3.70,3.50,0.00,0.11,3.70,3.70,2.80,0.12,1775,2021-04-17 12:51:47.159,2021-04-17 13:51:47.159,17,0,0,13.627,55.937800,-4.406358,0.00,0.00,0.00,-1.10,3.10,106.60,0,1,0,32,100,-10736,1145,13627,2911.50,0,P-GPS,1,1,0,0,0,0,0,1618663907159,3688,3668,3658,3666,0,0,27,,,,,,,0,0,0,11.00,31.00,1066.00,0.00,0.00,1073.00,6,37.00,0.00,1.09,0.00,0.00,0.00,0,,,100,100,0,2,0,0,0,2,0,,,,,0.0,0.0,0
55.937801,-4.406357,3.70,3.50,0.10,0.18,3.70,3.70,2.80,0.18,1896,2021-04-17 12:51:47.280,2021-04-17 13:51:47.280,17,0,0,13.627,55.937800,-4.406358,0.00,0.00,0.10,-1.20,3.90,106.60,0,1,0,32,100,-10736,1145,13627,2911.50,0,P-GPS,1,1,0,0,0,0,0,1618663907280,3688,3668,3658,3666,0,0,27,,,,,,,0,0,0,12.00,39.00,1066.00,0.00,0.00,1073.00,6,37.00,1.00,1.81,0.00,0.00,1.00,0,,,100,100,0,2,0,0,0,2,0,,,,,0.0,0.0,0
55.937802,-4.406357,3.60,3.50,0.10,0.21,3.70,3.70,2.80,0.21,1994,2021-04-17 12:51:47.378,2021-04-17 13:51:47.378,17,0,0,13.627,55.937800,-4.406358,0.00,0.00,0.10,-1.60,3.80,106.60,0,1,0,32,100,-10736,1145,13627,2911.50,0,P-GPS,1,1,0,0,0,0,0,1618663907378,3688,3668,3658,3666,0,0,27,,,,,,,0,0,0,16.00,38.00,1066.00,0.00,0.00,1073.00,6,36.00,1.00,2.15,0.00,0.00,1.00,0,,,100,100,0,2,0,0,0,2,0,,,,,0.0,0.0,0
55.937802,-4.406357,3.60,3.50,0.10,0.23,3.70,3.70,2.80,0.23,2095,2021-04-17 12:51:47.479,2021-04-17 13:51:47.479,17,0,0,13.627,55.937800,-4.406358,0.00,0.00,0.10,-1.90,3.90,106.60,0,1,0,32,100,-10736,1145,13627,2911.50,0,P-GPS,1,1,0,0,0,0,0,1618663907479,3688,3668,3658,3666,0,0,27,,,,,,,0,0,0,19.00,39.00,1066.00,0.00,0.00,1073.00,6,36.00,1.00,2.27,0.00,0.00,1.00,0,,,100,100,0,2,0,0,0,2,0,,,,,0.0,0.0,0
55.937802,-4.406357,3.60,3.50,0.00,0.25,3.70,3.70,2.80,0.25,2193,2021-04-17 12:51:47.577,2021-04-17 13:51:47.577,17,0,0,13.627,55.937800,-4.406358,0.00,0.00,0.00,-1.70,4.00,106.70,0,1,0,32,100,-10736,1145,13627,2911.50,0,P-GPS,1,1,0,0,0,0,0,1618663907577,3688,3668,3658,3666,0,0,27,,,,,,,0,0,0,17.00,40.00,1067.00,0.00,0.00,1073.00,6,36.00,0.00,2.48,0.00,0.00,0.00,0,,,100,100,0,2,0,0,0,2,0,,,,,0.0,0.0,0
55.937802,-4.406357,3.60,3.50,0.00,0.26,3.70,3.70,2.80,0.26,2300,2021-04-17 12:51:47.684,2021-04-17 13:51:47.684,17,0,0,13.687,55.937800,-4.406358,0.00,0.00,0.00,-1.80,3.90,106.70,0,1,0,32,100,-6380,1143,13687,2911.50,0,P-GPS,1,1,0,0,0,0,0,1618663907684,3688,3668,3658,3666,0,0,27,,,,,,,0,0,0,18.00,39.00,1067.00,0.00,0.00,1073.00,6,36.00,0.00,2.59,0.00,0.00,0.00,0,,,100,100,0,2,0,0,0,2,0,,,,,0.0,0.0,0
55.937802,-4.406357,3.60,3.50,0.00,0.26,3.70,3.70,2.80,0.26,2395,2021-04-17 12:51:47.779,2021-04-17 13:51:47.779,17,0,0,13.687,55.937800,-4.406358,0.00,0.00,0.00,-1.70,4.10,106.70,0,1,0,32,100,-6380,1143,13687,2911.50,0,P-GPS,1,1,0,0,0,0,0,1618663907779,3688,3668,3658,3666,0,0,27,,,,,,,0,0,0,17.00,41.00,1067.00,0.00,0.00,1073.00,6,36.00,0.00,2.64,0.00,0.00,0.00,0,,,100,100,0,2,0,0,0,2,0,,,,,0.0,0.0,0
55.937802,-4.406357,3.60,3.50,0.00,0.27,3.70,3.70,2.80,0.27,2482,2021-04-17 12:51:47.866,2021-04-17 13:51:47.866,17,0,0,13.687,55.937800,-4.406358,0.00,0.00,0.00,-1.70,4.40,106.60,0,1,0,32,100,-6380,1143,13687,2911.50,0,P-GPS,1,1,0,0,0,0,0,1618663907866,3688,3668,3658,3666,0,0,27,,,,,,,0,0,0,17.00,44.00,1066.00,0.00,0.00,1073.00,6,36.00,0.00,2.72,0.00,0.00,0.00,0,,,100,100,0,2,0,0,0,2,0,,,,,0.0,0.0,0
55.937802,-4.406357,3.60,3.50,0.00,0.28,3.70,3.70,2.80,0.28,2584,2021-04-17 12:51:47.968,2021-04-17 13:51:47.968,17,0,0,13.687,55.937800,-4.406358,0.00,0.00,0.00,-1.90,4.30,106.60,0,1,0,32,100,-6380,1143,13687,2911.50,0,P-GPS,1,1,0,0,0,0,0,1618663907968,3688,3668,3658,3666,0,0,27,,,,,,,0,0,0,19.00,43.00,1066.00,0.00,0.00,1073.00,6,36.00,0.00,2.79,0.00,0.00,0.00,0,,,100,100,0,2,0,0,0,2,0,,,,,0.0,0.0,0
55.937802,-4.406357,3.60,3.50,0.00,0.28,3.70,3.70,2.80,0.28,2682,2021-04-17 12:51:48.066,2021-04-17 13:51:48.066,17,0,0,13.687,55.937800,-4.406358,0.00,0.00,0.00,-2.10,4.20,106.60,0,1,0,32,100,-6380,1143,13687,2911.50,0,P-GPS,1,1,0,0,0,0,0,1618663908066,3688,3668,3658,3666,0,0,27,,,,,,,0,0,0,21.00,42.00,1066.00,0.00,0.00,1073.00,6,36.00,0.00,2.82,0.00,0.00,0.00,0,,,100,100,0,2,0,0,0,2,0,,,,,0.0,0.0,0
55.937802,-4.406357,3.60,3.50,0.00,0.27,3.70,3.70,2.80,0.28,2797,2021-04-17 12:51:48.182,2021-04-17 13:51:48.181,17,0,0,13.687,55.937800,-4.406358,0.00,0.00,0.00,-2.20,4.30,106.60,0,1,0,32,100,-6380,1143,13687,2911.50,0,P-GPS,1,1,0,0,0,0,0,1618663908181,3688,3668,3658,3666,0,0,27,,,,,,,0,0,0,22.00,43.00,1066.00,0.00,0.00,1073.00,6,36.00,0.00,2.72,0.00,0.00,0.00,0,,,100,100,0,2,0,0,0,2,0,,,,,0.0,0.0,0
55.937802,-4.406357,3.60,3.50,0.00,0.27,3.70,3.70,2.80,0.28,2884,2021-04-17 12:51:48.268,2021-04-17 13:51:48.268,17,0,0,13.687,55.937800,-4.406358,0.00,0.00,0.00,-2.30,4.20,106.60,0,1,0,32,100,-6380,1143,13687,2911.50,0,P-GPS,1,1,0,0,0,0,0,1618663908268,3459,3428,3395,3405,0,0,27,,,,,,,0,0,0,23.00,42.00,1066.00,0.00,0.00,1073.00,6,36.00,0.00,2.71,0.00,0.00,0.00,0,,,100,100,0,2,0,0,0,2,0,,,,,0.0,0.0,0
55.937802,-4.406357,3.60,3.40,0.00,0.25,3.70,3.70,2.80,0.28,2982,2021-04-17 12:51:48.366,2021-04-17 13:51:48.366,17,0,0,13.687,55.937800,-4.406358,0.00,0.00,0.00,-2.20,3.90,106.70,0,1,0,32,100,-6380,1143,13687,2911.50,0,P-GPS,1,1,0,0,0,0,0,1618663908366,3459,3428,3395,3405,0,0,27,,,,,,,0,0,0,22.00,39.00,1067.00,0.00,0.00,1073.00,6,36.00,0.00,2.51,0.00,0.00,0.00,0,,,100,100,0,2,0,0,0,2,0,,,,,0.0,0.0,0
55.937802,-4.406357,3.60,3.40,0.00,0.25,3.70,3.70,2.80,0.28,3095,2021-04-17 12:51:48.479,2021-04-17 13:51:48.479,17,0,0,13.687,55.937800,-4.406358,0.00,0.00,0.00,-2.10,3.70,106.70,0,1,0,32,100,-6380,1143,13687,2911.50,0,P-GPS,1,1,0,0,0,0,0,1618663908479,3459,3428,3395,3405,0,0,27,,,,,,,0,0,0,21.00,37.00,1067.00,0.00,0.00,1073.00,6,36.00,0.00,2.46,0.00,0.00,0.00,0,,,100,100,0,2,0,0,0,2,0,,,,,0.0,0.0,0
55.937802,-4.406357,3.60,3.40,0.00,0.23,3.70,3.70,2.80,0.28,3193,2021-04-17 12:51:48.577,2021-04-17 13:51:48.577,17,0,0,13.687,55.937800,-4.406358,0.00,0.00,0.00,-2.10,3.90,106.60,0,1,0,32,100,-6380,1143,13687,2911.50,0,P-GPS,1,1,0,0,0,0,0,1618663908577,3459,3428,3395,3405,0,0,27,,,,,,,0,0,0,21.00,39.00,1066.00,0.00,0.00,1073.00,6,36.00,0.00,2.25,0.00,0.00,0.00,0,,,100,100,0,2,0,0,0,2,0,,,,,0.0,0.0,0
55.937802,-4.406357,3.60,3.50,0.00,0.22,3.70,3.70,2.80,0.28,3282,2021-04-17 12:51:48.666,2021-04-17 13:51:48.666,17,0,0,13.572,55.937800,-4.406358,0.00,0.00,0.00,-2.00,3.50,106.70,0,1,0,32,100,-8509,1141,13572,2912.50,0,P-GPS,1,1,0,0,0,0,0,1618663908666,3459,3428,3395,3405,0,0,27,,,,,,,0,0,0,20.00,35.00,1067.00,0.00,0.00,1073.00,6,36.00,0.00,2.19,0.00,0.00,0.00,0,,,100,100,0,2,0,0,0,2,0,,,,,0.0,0.0,0
55.937801,-4.406357,3.60,3.50,0.00,0.18,3.70,3.70,2.80,0.28,3401,2021-04-17 12:51:48.785,2021-04-17 13:51:48.785,17,0,0,13.572,55.937800,-4.406358,0.00,0.00,0.00,-2.00,3.10,106.80,0,1,0,32,100,-8509,1141,13572,2912.50,0,P-GPS,1,1,0,0,0,0,0,1618663908785,3459,3428,3395,3405,0,0,27,,,,,,,0,0,0,20.00,31.00,1068.00,0.00,0.00,1073.00,6,36.00,0.00,1.75,0.00,0.00,0.00,0,,,100,100,0,2,0,0,0,2,0,,,,,0.0,0.0,0
55.937801,-4.406357,3.60,3.50,0.00,0.17,3.70,3.70,2.80,0.28,3498,2021-04-17 12:51:48.882,2021-04-17 13:51:48.882,17,0,0,13.572,55.937800,-4.406358,0.00,0.00,0.00,-1.60,3.40,106.80,0,1,0,32,100,-8509,1141,13572,2912.50,0,P-GPS,1,1,0,0,0,0,0,1618663908882,3459,3428,3395,3405,0,0,27,,,,,,,0,0,0,16.00,34.00,1068.00,0.00,0.00,1073.00,6,36.00,0.00,1.66,0.00,0.00,0.00,0,,,100,100,0,2,0,0,0,2,0,,,,,0.0,0.0,0
55.937801,-4.406357,3.60,3.40,0.00,0.14,3.70,3.70,2.80,0.28,3696,2021-04-17 12:51:49.081,2021-04-17 13:51:49.080,17,0,0,13.572,55.937800,-4.406358,0.00,0.00,0.00,-1.50,3.30,106.70,0,1,0,32,100,-8509,1141,13572,2912.50,0,P-GPS,1,1,0,0,0,0,0,1618663909080,3459,3428,3395,3405,0,0,27,,,,,,,0,0,0,15.00,33.00,1067.00,0.00,0.00,1073.00,6,36.00,0.00,1.39,0.00,0.00,0.00,0,,,100,100,0,2,0,0,0,2,0,,,,,0.0,0.0,0
55.937801,-4.406358,3.60,3.40,0.00,0.13,3.70,3.70,2.80,0.28,3796,2021-04-17 12:51:49.181,2021-04-17 13:51:49.180,17,0,0,13.572,55.937800,-4.406358,0.00,0.00,0.00,-1.80,2.90,106.60,0,1,0,32,100,-8509,1141,13572,2912.50,0,P-GPS,1,1,0,0,0,0,0,1618663909180,3459,3428,3395,3405,0,0,27,,,,,,,0,0,0,18.00,29.00,1066.00,0.00,0.00,1073.00,6,36.00,0.00,1.26,0.00,0.00,0.00,0,,,100,100,0,2,0,0,0,2,0,,,,,0.0,0.0,0
55.937801,-4.406358,3.60,3.40,0.00,0.12,3.70,3.70,2.80,0.28,3882,2021-04-17 12:51:49.266,2021-04-17 13:51:49.266,17,0,0,13.572,55.937800,-4.406358,0.00,0.00,0.00,-1.30,2.50,106.60,0,1,0,32,100,-8509,1141,13572,2912.50,0,P-GPS,1,1,0,0,0,0,0,1618663909266,3459,3428,3395,3405,0,0,27,,,,,,,0,0,0,13.00,25.00,1066.00,0.00,0.00,1073.00,6,36.00,0.00,1.17,0.00,0.00,0.00,0,,,100,100,0,2,0,0,0,2,0,,,,,0.0,0.0,0
55.937801,-4.406358,3.60,3.40,0.00,0.11,3.70,3.70,2.80,0.28,3996,2021-04-17 12:51:49.380,2021-04-17 13:51:49.380,17,0,0,13.572,55.937800,-4.406358,0.00,0.00,0.00,-0.80,2.80,106.70,0,1,0,32,100,-8509,1141,13572,2912.50,0,P-GPS,1,1,0,0,0,0,0,1618663909380,3459,3428,3395,3405,0,0,27,,,,,,,0,0,0,8.00,28.00,1067.00,0.00,0.00,1073.00,6,36.00,0.00,1.09,0.00,0.00,0.00,0,,,100,100,0,2,0,0,0,2,0,,,,,0.0,0.0,0
55.937801,-4.406357,3.60,3.40,0.00,0.10,3.70,3.70,2.80,0.28,4083,2021-04-17 12:51:49.468,2021-04-17 13:51:49.468,17,0,0,13.572,55.937800,-4.406358,0.00,0.00,0.00,-1.10,2.90,106.70,0,1,0,32,100,-8509,1141,13572,2912.50,0,P-GPS,1,1,0,0,0,0,0,1618663909467,3459,3428,3395,3405,0,0,27,,,,,,,0,0,0,11.00,29.00,1067.00,0.00,0.00,1073.00,6,36.00,0.00,1.02,0.00,0.00,0.00,0,,,100,100,0,2,0,0,0,2,0,,,,,0.0,0.0,0
55.937801,-4.406358,3.60,3.50,0.00,0.09,3.70,3.70,2.80,0.28,4197,2021-04-17 12:51:49.581,2021-04-17 13:51:49.581,17,0,0,13.572,55.937800,-4.406358,0.00,0.00,0.00,-1.70,2.80,106.60,0,1,0,32,100,-8509,1141,13572,2912.50,0,P-GPS,1,1,0,0,0,0,0,1618663909581,3459,3428,3395,3405,0,0,27,,,,,,,0,0,0,17.00,28.00,1066.00,0.00,0.00,1073.00,6,36.00,0.00,0.92,0.00,0.00,0.00,0,,,100,100,0,2,0,0,0,2,0,,,,,0.0,0.0,0
55.937801,-4.406358,3.60,3.50,0.00,0.09,3.70,3.70,2.80,0.28,4301,2021-04-17 12:51:49.685,2021-04-17 13:51:49.685,17,0,0,13.587,55.937800,-4.406358,0.00,0.00,0.00,-1.70,2.80,106.60,0,1,0,32,100,-8116,1139,13587,2913.50,0,P-GPS,1,1,0,0,0,0,0,1618663909685,3459,3428,3395,3405,0,0,27,,,,,,,0,0,0,17.00,28.00,1066.00,0.00,0.00,1073.00,6,36.00,0.00,0.86,0.00,0.00,0.00,0,,,100,100,0,2,0,0,0,2,0,,,,,0.0,0.0,0
55.937800,-4.406358,3.60,3.50,0.00,0.07,3.70,3.70,2.80,0.28,4402,2021-04-17 12:51:49.786,2021-04-17 13:51:49.786,17,0,0,13.587,55.937800,-4.406358,0.00,0.00,0.00,-1.40,2.80,106.60,0,1,0,32,100,-8116,1139,13587,2913.50,0,P-GPS,1,1,0,0,0,0,0,1618663909786,3459,3428,3395,3405,0,0,27,,,,,,,0,0,0,14.00,28.00,1066.00,0.00,0.00,1073.00,6,36.00,0.00,0.73,0.00,0.00,0.00,0,,,100,100,0,2,0,0,0,2,0,,,,,0.0,0.0,0
55.937800,-4.406357,3.60,3.50,0.00,0.07,3.70,3.70,2.80,0.28,4585,2021-04-17 12:51:49.969,2021-04-17 13:51:49.969,17,0,0,13.587,55.937800,-4.406358,0.00,0.00,0.00,-1.60,3.10,106.50,0,1,0,32,100,-8116,1139,13587,2913.50,0,P-GPS,1,1,0,0,0,0,0,1618663909969,3459,3428,3395,3405,0,0,27,,,,,,,0,0,0,16.00,31.00,1065.00,0.00,0.00,1073.00,6,36.00,0.00,0.70,0.00,0.00,0.00,0,,,100,100,0,2,0,0,0,2,0,,,,,0.0,0.0,0
55.937800,-4.406357,3.60,3.50,0.00,0.07,3.70,3.70,2.80,0.28,4685,2021-04-17 12:51:50.069,2021-04-17 13:51:50.069,17,0,0,13.587,55.937800,-4.406358,0.00,0.00,0.00,-1.80,3.30,106.40,0,1,0,32,100,-8116,1139,13587,2913.50,0,P-GPS,1,1,0,0,0,0,0,1618663910069,3459,3428,3395,3405,0,0,27,,,,,,,0,0,0,18.00,33.00,1064.00,0.00,0.00,1073.00,6,36.00,0.00,0.70,0.00,0.00,0.00,0,,,100,100,0,2,0,0,0,2,0,,,,,0.0,0.0,0
55.937800,-4.406357,3.60,3.50,0.00,0.07,3.70,3.70,2.80,0.28,4771,2021-04-17 12:51:50.155,2021-04-17 13:51:50.155,17,0,0,13.587,55.937800,-4.406358,0.00,0.00,0.00,-1.80,3.30,106.40,0,1,0,32,100,-8116,1139,13587,2913.50,0,P-GPS,1,1,0,0,0,0,0,1618663910155,3459,3428,3395,3405,0,0,27,,,,,,,0,0,0,18.00,33.00,1064.00,0.00,0.00,1073.00,6,36.00,0.00,0.70,0.00,0.00,0.00,0,,,100,100,0,2,0,0,0,2,0,,,,,0.0,0.0,0
55.937800,-4.406357,3.60,3.40,0.00,0.06,3.70,3.70,2.80,0.28,4885,2021-04-17 12:51:50.269,2021-04-17 13:51:50.269,17,0,0,13.587,55.937800,-4.406358,0.00,0.00,0.00,-1.10,4.10,106.50,0,1,0,32,100,-8116,1139,13587,2913.50,0,P-GPS,1,1,0,0,0,0,0,1618663910269,3459,3428,3395,3405,0,0,27,,,,,,,0,0,0,11.00,41.00,1065.00,0.00,0.00,1073.00,6,36.00,0.00,0.61,0.00,0.00,0.00,0,,,100,100,0,2,0,0,0,2,0,,,,,0.0,0.0,0
55.937800,-4.406357,3.60,3.40,0.00,0.06,3.70,3.70,2.80,0.28,4988,2021-04-17 12:51:50.372,2021-04-17 13:51:50.372,17,0,0,13.587,55.937800,-4.406358,0.00,0.00,0.00,-1.10,4.10,106.50,0,1,0,32,100,-8116,1139,13587,2913.50,0,P-GPS,1,1,0,0,0,0,0,1618663910372,3459,3428,3395,3405,0,0,27,,,,,,,0,0,0,11.00,41.00,1065.00,0.00,0.00,1073.00,6,36.00,0.00,0.62,0.00,0.00,0.00,0,,,100,100,0,2,0,0,0,2,0,,,,,0.0,0.0,0
55.937800,-4.406357,3.60,3.40,0.00,0.06,3.70,3.70,2.80,0.28,5084,2021-04-17 12:51:50.468,2021-04-17 13:51:50.468,17,0,0,13.587,55.937800,-4.406358,0.00,0.00,0.00,-1.30,4.20,106.50,0,1,0,32,100,-8116,1139,13587,2913.50,0,P-GPS,1,1,0,0,0,0,0,1618663910468,3459,3428,3395,3405,0,0,27,,,,,,,0,0,0,13.00,42.00,1065.00,0.00,0.00,1073.00,6,36.00,0.00,0.65,0.00,0.00,0.00,0,,,100,100,0,2,0,0,0,2,0,,,,,0.0,0.0,0
55.937800,-4.406357,3.60,3.40,0.00,0.07,3.70,3.70,2.80,0.28,5186,2021-04-17 12:51:50.571,2021-04-17 13:51:50.570,17,0,0,13.587,55.937800,-4.406358,0.00,0.00,0.00,-1.00,4.20,106.60,0,1,0,32,100,-8116,1139,13587,2913.50,0,P-GPS,1,1,0,0,0,0,0,1618663910570,3459,3428,3395,3405,0,0,27,,,,,,,0,0,0,10.00,42.00,1066.00,0.00,0.00,1073.00,6,36.00,0.00,0.67,0.00,0.00,0.00,0,,,100,100,0,2,0,0,0,2,0,,,,,0.0,0.0,0
55.937800,-4.406357,3.60,3.40,0.00,0.07,3.70,3.70,2.80,0.28,5282,2021-04-17 12:51:50.666,2021-04-17 13:51:50.666,17,0,0,13.537,55.937800,-4.406358,0.00,0.00,0.00,-0.80,4.80,106.60,0,1,0,32,100,-8218,1134,13537,2913.50,0,P-GPS,1,1,0,0,0,0,0,1618663910666,3459,3428,3395,3405,0,0,27,,,,,,,0,0,0,8.00,48.00,1066.00,0.00,0.00,1073.00,6,36.00,0.00,0.72,0.00,0.00,0.00,0,,,100,100,0,2,0,0,0,2,0,,,,,0.0,0.0,0
55.937800,-4.406357,3.60,3.40,0.00,0.09,3.70,3.70,2.80,0.28,5388,2021-04-17 12:51:50.772,2021-04-17 13:51:50.772,17,0,0,13.537,55.937800,-4.406358,0.00,0.00,0.00,-0.90,5.20,106.60,0,1,0,32,100,-8218,1134,13537,2913.50,0,P-GPS,1,1,0,0,0,0,0,1618663910772,3459,3428,3395,3405,0,0,27,,,,,,,0,0,0,9.00,52.00,1066.00,0.00,0.00,1073.00,6,36.00,0.00,0.89,0.00,0.00,0.00,0,,,100,100,0,2,0,0,0,2,0,,,,,0.0,0.0,0
55.937800,-4.406356,3.60,3.40,0.00,0.09,3.70,3.70,2.80,0.28,5484,2021-04-17 12:51:50.868,2021-04-17 13:51:50.868,17,0,0,13.537,55.937800,-4.406358,0.00,0.00,0.00,-0.90,5.40,106.50,0,1,0,32,100,-8218,1134,13537,2913.50,0,P-GPS,1,1,0,0,0,0,0,1618663910868,3459,3428,3395,3405,0,0,27,,,,,,,0,0,0,9.00,54.00,1065.00,0.00,0.00,1073.00,6,36.00,0.00,0.93,0.00,0.00,0.00,0,,,100,100,0,2,0,0,0,2,0,,,,,0.0,0.0,0
55.937800,-4.406356,3.60,3.40,0.00,0.11,3.70,3.70,2.80,0.28,5605,2021-04-17 12:51:50.989,2021-04-17 13:51:50.989,17,0,0,13.537,55.937800,-4.406358,0.00,0.00,0.00,-0.90,5.30,106.40,0,1,0,32,100,-8218,1134,13537,2913.50,0,P-GPS,1,1,0,0,0,0,0,1618663910989,3459,3428,3395,3405,0,0,27,,,,,,,0,0,0,9.00,53.00,1064.00,0.00,0.00,1073.00,6,36.00,0.00,1.14,0.00,0.00,0.00,0,,,100,100,0,2,0,0,0,2,0,,,,,0.0,0.0,0
55.937800,-4.406356,3.60,3.40,0.00,0.12,3.70,3.70,2.80,0.28,5727,2021-04-17 12:51:51.111,2021-04-17 13:51:51.111,17,0,0,13.537,55.937800,-4.406358,0.00,0.00,0.00,-0.90,5.00,106.30,0,1,0,32,100,-8218,1134,13537,2913.50,0,P-GPS,1,1,0,0,0,0,0,1618663911111,3459,3428,3395,3405,0,0,27,,,,,,,0,0,0,9.00,50.00,1063.00,0.00,0.00,1073.00,6,36.00,0.00,1.17,0.00,0.00,0.00,0,,,100,100,0,2,0,0,0,2,0,,,,,0.0,0.0,0
55.937800,-4.406356,3.60,3.40,0.00,0.13,3.70,3.70,2.80,0.28,5887,2021-04-17 12:51:51.271,2021-04-17 13:51:51.271,17,0,0,13.537,55.937800,-4.406358,0.00,0.00,0.00,-1.20,4.70,106.50,0,1,0,32,100,-8218,1134,13537,2913.50,0,P-GPS,1,1,0,0,0,0,0,1618663911271,3459,3428,3395,3405,0,0,27,,,,,,,0,0,0,12.00,47.00,1065.00,0.00,0.00,1073.00,6,36.00,0.00,1.29,0.00,0.00,0.00,0,,,100,100,0,2,0,0,0,2,0,,,,,0.0,0.0,0
55.937800,-4.406356,3.60,3.40,0.00,0.15,3.70,3.70,2.80,0.28,5985,2021-04-17 12:51:51.369,2021-04-17 13:51:51.369,16,0,0,13.537,55.937800,-4.406358,0.00,0.00,0.00,-1.40,4.60,106.60,0,1,0,32,100,-8218,1134,13537,2913.50,0,P-GPS,1,1,0,0,0,0,0,1618663911369,3459,3428,3395,3405,0,0,27,,,,,,,0,0,0,14.00,46.00,1066.00,0.00,0.00,1073.00,6,36.00,0.00,1.46,0.00,0.00,0.00,0,,,100,100,0,2,0,0,0,2,0,,,,,0.0,0.0,0
55.937800,-4.406356,3.60,3.40,0.00,0.15,3.70,3.70,2.80,0.28,6106,2021-04-17 12:51:51.490,2021-04-17 13:51:51.490,16,0,0,13.537,55.937800,-4.406358,0.00,0.00,0.00,-1.50,4.60,106.50,0,1,0,32,100,-8218,1134,13537,2913.50,0,P-GPS,1,1,0,0,0,0,0,1618663911490,3459,3428,3395,3405,0,0,27,,,,,,,0,0,0,15.00,46.00,1065.00,0.00,0.00,1073.00,6,36.00,0.00,1.48,0.00,0.00,0.00,0,,,100,100,0,2,0,0,0,2,0,,,,,0.0,0.0,0
55.937800,-4.406355,3.60,3.40,0.00,0.16,3.70,3.70,2.80,0.28,6310,2021-04-17 12:51:51.694,2021-04-17 13:51:51.694,16,0,0,13.554,55.937800,-4.406358,0.00,0.00,0.00,-1.30,4.50,106.40,0,1,0,32,100,-8075,1132,13554,2914.50,0,P-GPS,1,1,0,0,0,0,0,1618663911694,3459,3428,3395,3405,0,0,27,,,,,,,0,0,0,13.00,45.00,1064.00,0.00,0.00,1073.00,6,36.00,0.00,1.64,0.00,0.00,0.00,0,,,100,100,0,2,0,0,0,2,0,,,,,0.0,0.0,0
55.937800,-4.406355,3.60,3.40,0.00,0.18,3.70,3.70,2.80,0.28,6405,2021-04-17 12:51:51.789,2021-04-17 13:51:51.789,16,0,0,13.554,55.937800,-4.406358,0.00,0.00,0.00,-1.30,4.50,106.50,0,1,0,32,100,-8075,1132,13554,2914.50,0,P-GPS,1,1,0,0,0,0,0,1618663911789,3459,3428,3395,3405,0,0,27,,,,,,,0,0,0,13.00,45.00,1065.00,0.00,0.00,1073.00,6,36.00,0.00,1.77,0.00,0.00,0.00,0,,,100,100,0,2,0,0,0,2,0,,,,,0.0,0.0,0
55.937800,-4.406355,3.60,3.40,0.00,0.18,3.70,3.70,2.80,0.28,6497,2021-04-17 12:51:51.881,2021-04-17 13:51:51.881,16,0,0,13.554,55.937800,-4.406358,0.00,0.00,0.00,-1.10,4.70,106.60,0,1,0,32,100,-8075,1132,13554,2914.50,0,P-GPS,1,1,0,0,0,0,0,1618663911881,3459,3428,3395,3405,0,0,27,,,,,,,0,0,0,11.00,47.00,1066.00,0.00,0.00,1073.00,6,36.00,0.00,1.82,0.00,0.00,0.00,0,,,100,100,0,2,0,0,0,2,0,,,,,0.0,0.0,0
55.937800,-4.406355,3.60,3.40,0.00,0.19,3.70,3.70,2.80,0.28,6610,2021-04-17 12:51:51.994,2021-04-17 13:51:51.994,16,0,0,13.554,55.937800,-4.406358,0.00,0.00,0.00,-1.00,5.10,106.60,0,1,0,32,100,-8075,1132,13554,2914.50,0,P-GPS,1,1,0,0,0,0,0,1618663911994,3459,3428,3395,3405,0,0,27,,,,,,,0,0,0,10.00,51.00,1066.00,0.00,0.00,1073.00,6,36.00,0.00,1.94,0.00,0.00,0.00,0,,,100,100,0,2,0,0,0,2,0,,,,,0.0,0.0,0
55.937800,-4.406355,3.60,3.40,0.00,0.20,3.70,3.70,2.80,0.28,6695,2021-04-17 12:51:52.079,2021-04-17 13:51:52.079,16,0,0,13.554,55.937800,-4.406358,0.00,0.00,0.00,-1.20,5.20,106.60,0,1,0,32,100,-8075,1132,13554,2914.50,0,P-GPS,1,1,0,0,0,0,0,1618663912079,3459,3428,3395,3405,0,0,27,,,,,,,0,0,0,12.00,52.00,1066.00,0.00,0.00,1073.00,6,36.00,0.00,2.00,0.00,0.00,0.00,0,,,100,100,0,2,0,0,0,2,0,,,,,0.0,0.0,0
55.937800,-4.406355,3.60,3.40,0.00,0.20,3.70,3.70,2.80,0.28,6804,2021-04-17 12:51:52.188,2021-04-17 13:51:52.188,16,0,0,13.554,55.937800,-4.406358,0.00,0.00,0.00,-1.50,5.20,106.70,0,1,0,32,100,-8075,1132,13554,2914.50,0,P-GPS,1,1,0,0,0,0,0,1618663912188,3459,3428,3395,3405,0,0,27,,,,,,,0,0,0,15.00,52.00,1067.00,0.00,0.00,1073.00,6,36.00,0.00,2.01,0.00,0.00,0.00,0,,,100,100,0,2,0,0,0,2,0,,,,,0.0,0.0,0
55.937800,-4.406355,3.60,3.40,0.00,0.20,3.70,3.70,2.80,0.28,6984,2021-04-17 12:51:52.369,2021-04-17 13:51:52.368,16,0,0,13.554,55.937800,-4.406358,0.00,0.00,0.00,-2.40,5.30,106.60,0,1,0,32,100,-8075,1132,13554,2914.50,0,P-GPS,1,1,0,0,0,0,0,1618663912368,3459,3428,3395,3405,0,0,27,,,,,,,0,0,0,24.00,53.00,1066.00,0.00,0.00,1073.00,6,36.00,0.00,1.96,0.00,0.00,0.00,0,,,100,100,0,2,0,0,0,2,0,,,,,0.0,0.0,0
55.937800,-4.406355,3.60,3.40,0.00,0.20,3.70,3.70,2.80,0.28,7081,2021-04-17 12:51:52.466,2021-04-17 13:51:52.465,16,0,0,13.554,55.937800,-4.406358,0.00,0.00,0.00,-2.80,5.00,106.60,0,1,0,32,100,-8075,1132,13554,2914.50,0,P-GPS,1,1,0,0,0,0,0,1618663912465,3459,3428,3395,3405,0,0,27,,,,,,,0,0,0,28.00,50.00,1066.00,0.00,0.00,1073.00,6,36.00,0.00,1.96,0.00,0.00,0.00,0,,,100,100,0,2,0,0,0,2,0,,,,,0.0,0.0,0
55.937800,-4.406355,3.60,3.40,0.00,0.20,3.70,3.70,2.80,0.28,7187,2021-04-17 12:51:52.571,2021-04-17 13:51:52.571,16,0,0,13.554,55.937800,-4.406358,0.00,0.00,0.00,-2.90,5.00,106.60,0,1,0,32,100,-8075,1132,13554,2914.50,0,P-GPS,1,1,0,0,0,0,0,1618663912571,3459,3428,3395,3405,0,0,27,,,,,,,0,0,0,29.00,50.00,1066.00,0.00,0.00,1073.00,6,36.00,0.00,1.95,0.00,0.00,0.00,0,,,100,100,0,2,0,0,0,2,0,,,,,0.0,0.0,0
55.937800,-4.406355,3.60,3.40,0.00,0.20,3.70,3.70,2.80,0.28,7298,2021-04-17 12:51:52.682,2021-04-17 13:51:52.682,16,0,0,13.554,55.937800,-4.406358,0.00,0.00,0.00,-2.90,4.80,106.50,0,1,0,32,100,-8075,1132,13554,2914.50,0,P-GPS,1,1,0,0,0,0,0,1618663912682,3459,3428,3395,3405,0,0,27,,,,,,,0,0,0,29.00,48.00,1065.00,0.00,0.00,1073.00,6,36.00,0.00,1.96,0.00,0.00,0.00,0,,,100,100,0,2,0,0,0,2,0,,,,,0.0,0.0,0
55.937800,-4.406355,3.60,3.40,0.00,0.19,3.70,3.70,2.80,0.28,7400,2021-04-17 12:51:52.784,2021-04-17 13:51:52.784,17,0,0,13.554,55.937800,-4.406358,0.00,0.00,0.00,-2.90,4.70,106.60,0,1,0,32,100,-8075,1132,13554,2914.50,0,P-GPS,1,1,0,0,0,0,0,1618663912784,3459,3428,3395,3405,0,0,27,,,,,,,0,0,0,29.00,47.00,1066.00,0.00,0.00,1073.00,6,36.00,0.00,1.90,0.00,0.00,0.00,0,,,100,100,0,2,0,0,0,2,0,,,,,0.0,0.0,0
55.937800,-4.406355,3.60,3.40,0.00,0.19,3.70,3.70,2.80,0.28,7613,2021-04-17 12:51:52.997,2021-04-17 13:51:52.997,17,0,0,13.554,55.937800,-4.406358,0.00,0.00,0.00,-2.70,4.30,106.60,0,1,0,32,100,-8075,1132,13554,2914.50,0,P-GPS,1,1,0,0,0,0,0,1618663912997,3459,3428,3395,3405,0,0,27,,,,,,,0,0,0,27.00,43.00,1066.00,0.00,0.00,1073.00,6,36.00,0.00,1.86,0.00,0.00,0.00,0,,,100,100,0,2,0,0,0,2,0,,,,,0.0,0.0,0
55.937800,-4.406355,3.60,3.40,0.00,0.19,3.70,3.70,2.80,0.28,7731,2021-04-17 12:51:53.116,2021-04-17 13:51:53.115,17,0,0,13.554,55.937800,-4.406358,0.00,0.00,0.00,-2.30,4.20,106.60,0,1,0,32,100,-8075,1132,13554,2914.50,0,P-GPS,1,1,0,0,0,0,0,1618663913115,3459,3428,3395,3405,0,0,27,,,,,,,0,0,0,23.00,42.00,1066.00,0.00,0.00,1073.00,6,36.00,0.00,1.88,0.00,0.00,0.00,0,,,100,100,0,2,0,0,0,2,0,,,,,0.0,0.0,0
55.937800,-4.406355,3.60,3.40,0.00,0.17,3.70,3.70,2.80,0.28,7900,2021-04-17 12:51:53.284,2021-04-17 13:51:53.284,17,0,0,13.554,55.937800,-4.406358,0.00,0.00,0.00,-2.10,4.40,106.70,0,1,0,32,100,-8075,1132,13554,2914.50,0,P-GPS,1,1,0,0,0,0,0,1618663913284,3459,3428,3395,3405,0,0,27,,,,,,,0,0,0,21.00,44.00,1067.00,0.00,0.00,1073.00,6,36.00,0.00,1.71,0.00,0.00,0.00,0,,,100,100,0,2,0,0,0,2,0,,,,,0.0,0.0,0
55.937800,-4.406355,3.60,3.40,0.00,0.17,3.70,3.70,2.80,0.28,7999,2021-04-17 12:51:53.383,2021-04-17 13:51:53.383,17,0,0,13.554,55.937800,-4.406358,0.00,0.00,0.00,-2.30,4.00,106.70,0,1,0,32,100,-8075,1132,13554,2914.50,0,P-GPS,1,1,0,0,0,0,0,1618663913383,3459,3428,3395,3405,0,0,27,,,,,,,0,0,0,23.00,40.00,1067.00,0.00,0.00,1073.00,6,36.00,0.00,1.68,0.00,0.00,0.00,0,,,100,100,0,2,0,0,0,2,0,,,,,0.0,0.0,0
55.937800,-4.406355,3.60,3.40,0.00,0.17,3.70,3.70,2.80,0.28,8101,2021-04-17 12:51:53.486,2021-04-17 13:51:53.485,17,0,0,13.554,55.937800,-4.406358,0.00,0.00,0.00,-2.20,4.10,106.70,0,1,0,32,100,-8075,1132,13554,2914.50,0,P-GPS,1,1,0,0,0,0,0,1618663913485,3459,3428,3395,3405,0,0,27,,,,,,,0,0,0,22.00,41.00,1067.00,0.00,0.00,1073.00,6,36.00,0.00,1.69,0.00,0.00,0.00,0,,,100,100,0,2,0,0,0,2,0,,,,,0.0,0.0,0
55.937800,-4.406355,3.60,3.40,0.00,0.17,3.70,3.70,2.80,0.28,8299,2021-04-17 12:51:53.683,2021-04-17 13:51:53.683,17,0,0,13.520,55.937800,-4.406358,0.00,0.00,0.00,-2.40,3.70,106.60,0,1,0,31,100,-8179,1130,13520,2914.50,0,P-GPS,1,1,0,0,0,0,0,1618663913683,3459,3428,3395,3405,0,0,27,,,,,,,0,0,0,24.00,37.00,1066.00,0.00,0.00,1073.00,6,36.00,0.00,1.66,0.00,0.00,0.00,0,,,100,100,0,2,0,0,0,2,0,,,,,0.0,0.0,0
55.937800,-4.406355,3.60,3.40,0.00,0.16,3.70,3.70,2.80,0.28,8391,2021-04-17 12:51:53.775,2021-04-17 13:51:53.775,17,0,0,13.520,55.937800,-4.406358,0.00,0.00,0.00,-2.50,3.70,106.60,0,1,0,31,100,-8179,1130,13520,2914.50,0,P-GPS,1,1,0,0,0,0,0,1618663913775,3459,3428,3395,3405,0,0,27,,,,,,,0,0,0,25.00,37.00,1066.00,0.00,0.00,1073.00,6,36.00,0.00,1.65,0.00,0.00,0.00,0,,,100,100,0,2,0,0,0,2,0,,,,,0.0,0.0,0
55.937800,-4.406355,3.60,3.40,0.00,0.17,3.70,3.70,2.80,0.28,8483,2021-04-17 12:51:53.867,2021-04-17 13:51:53.867,17,0,0,13.520,55.937800,-4.406358,0.00,0.00,0.00,-2.60,3.80,106.50,0,1,0,31,100,-8179,1130,13520,2914.50,0,P-GPS,1,1,0,0,0,0,0,1618663913867,3459,3428,3395,3405,0,0,27,,,,,,,0,0,0,26.00,38.00,1065.00,0.00,0.00,1073.00,6,36.00,0.00,1.68,0.00,0.00,0.00,0,,,100,100,0,2,0,0,0,2,0,,,,,0.0,0.0,0
55.937800,-4.406355,3.60,3.40,0.00,0.16,3.70,3.70,2.80,0.28,8584,2021-04-17 12:51:53.968,2021-04-17 13:51:53.968,17,0,0,13.520,55.937800,-4.406358,0.00,0.00,0.00,-2.60,4.10,106.50,0,1,0,31,100,-8179,1130,13520,2914.50,0,P-GPS,1,1,0,0,0,0,0,1618663913968,3459,3428,3395,3405,0,0,27,,,,,,,0,0,0,26.00,41.00,1065.00,0.00,0.00,1073.00,6,36.00,0.00,1.61,0.00,0.00,0.00,0,,,100,100,0,2,0,0,0,2,0,,,,,0.0,0.0,0
55.937800,-4.406355,3.60,3.40,0.00,0.17,3.70,3.70,2.80,0.28,8700,2021-04-17 12:51:54.084,2021-04-17 13:51:54.084,17,0,0,13.520,55.937800,-4.406358,0.00,0.00,0.00,-2.40,4.60,106.40,0,1,0,31,100,-8179,1130,13520,2914.50,0,P-GPS,1,1,0,0,0,0,0,1618663914084,3459,3428,3395,3405,0,0,27,,,,,,,0,0,0,24.00,46.00,1064.00,0.00,0.00,1073.00,6,36.00,0.00,1.66,0.00,0.00,0.00,0,,,100,100,0,2,0,0,0,2,0,,,,,0.0,0.0,0
55.937800,-4.406355,3.60,3.40,0.00,0.19,3.70,3.70,2.80,0.28,8888,2021-04-17 12:51:54.272,2021-04-17 13:51:54.272,17,0,0,13.520,55.937800,-4.406358,0.00,0.00,0.00,-1.50,5.40,106.50,0,1,0,31,100,-8179,1130,13520,2914.50,0,P-GPS,1,1,0,0,0,0,0,1618663914272,3459,3428,3395,3405,0,0,27,,,,,,,0,0,0,15.00,54.00,1065.00,0.00,0.00,1073.00,6,36.00,0.00,1.89,0.00,0.00,0.00,0,,,100,100,0,2,0,0,0,2,0,,,,,0.0,0.0,0
55.937799,-4.406355,3.60,3.40,0.00,0.21,3.70,3.70,2.80,0.28,8999,2021-04-17 12:51:54.384,2021-04-17 13:51:54.383,17,0,0,13.520,55.937800,-4.406358,0.00,0.00,0.00,-1.20,5.40,106.60,0,1,0,31,100,-8179,1130,13520,2914.50,0,P-GPS,1,1,0,0,0,0,0,1618663914383,3459,3428,3395,3405,0,0,27,,,,,,,0,0,0,12.00,54.00,1066.00,0.00,0.00,1073.00,6,36.00,0.00,2.07,0.00,0.00,0.00,0,,,100,100,0,2,0,0,0,2,0,,,,,0.0,0.0,0
55.937799,-4.406354,3.60,3.40,0.00,0.22,3.70,3.70,2.80,0.28,9097,2021-04-17 12:51:54.482,2021-04-17 13:51:54.481,17,0,0,13.520,55.937800,-4.406358,0.00,0.00,0.00,-0.90,5.40,106.60,0,1,0,31,100,-8179,1130,13520,2914.50,0,P-GPS,1,1,0,0,0,0,0,1618663914481,3459,3428,3395,3405,0,0,27,,,,,,,0,0,0,9.00,54.00,1066.00,0.00,0.00,1073.00,6,36.00,0.00,2.17,0.00,0.00,0.00,0,,,100,100,0,2,0,0,0,2,0,,,,,0.0,0.0,0
55.937799,-4.406354,3.60,3.40,0.00,0.23,3.70,3.70,2.80,0.28,9197,2021-04-17 12:51:54.581,2021-04-17 13:51:54.581,17,0,0,13.520,55.937800,-4.406358,0.00,0.00,0.00,-0.90,5.10,106.60,0,1,0,31,100,-8179,1130,13520,2914.50,0,P-GPS,1,1,0,0,0,0,0,1618663914581,3459,3428,3395,3405,0,0,27,,,,,,,0,0,0,9.00,51.00,1066.00,0.00,0.00,1073.00,6,36.00,0.00,2.33,0.00,0.00,0.00,0,,,100,100,0,2,0,0,0,2,0,,,,,0.0,0.0,0
55.937799,-4.406354,3.60,3.40,0.00,0.24,3.70,3.70,2.80,0.28,9300,2021-04-17 12:51:54.684,2021-04-17 13:51:54.684,17,0,0,13.538,55.937800,-4.406358,0.00,0.00,0.00,-0.80,4.90,106.60,0,1,0,31,100,-8121,1127,13538,2914.50,0,P-GPS,1,1,0,0,0,0,0,1618663914684,3459,3428,3395,3405,0,0,27,,,,,,,0,0,0,8.00,49.00,1066.00,0.00,0.00,1073.00,6,36.00,0.00,2.42,0.00,0.00,0.00,0,,,100,100,0,2,0,0,0,2,0,,,,,0.0,0.0,0
55.937799,-4.406354,3.60,3.40,0.00,0.26,3.70,3.70,2.80,0.28,9394,2021-04-17 12:51:54.778,2021-04-17 13:51:54.778,17,0,0,13.538,55.937800,-4.406358,0.00,0.00,0.00,-1.00,4.60,106.40,0,1,0,31,100,-8121,1127,13538,2914.50,0,P-GPS,1,1,0,0,0,0,0,1618663914778,3459,3428,3395,3405,0,0,27,,,,,,,0,0,0,10.00,46.00,1064.00,0.00,0.00,1073.00,6,36.00,0.00,2.59,0.00,0.00,0.00,0,,,100,100,0,2,0,0,0,2,0,,,,,0.0,0.0,0
55.937799,-4.406354,3.60,3.40,0.00,0.27,3.70,3.70,2.80,0.28,9508,2021-04-17 12:51:54.893,2021-04-17 13:51:54.892,17,0,0,13.538,55.937800,-4.406358,0.00,0.00,0.00,-1.60,4.20,106.40,0,1,0,31,100,-8121,1127,13538,2914.50,0,P-GPS,1,1,0,0,0,0,0,1618663914892,3459,3428,3395,3405,0,0,27,,,,,,,0,0,0,16.00,42.00,1064.00,0.00,0.00,1073.00,6,36.00,0.00,2.70,0.00,0.00,0.00,0,,,100,100,0,2,0,0,0,2,0,,,,,0.0,0.0,0
55.937799,-4.406353,3.60,3.40,0.00,0.30,3.70,3.70,2.80,0.30,9699,2021-04-17 12:51:55.083,2021-04-17 13:51:55.083,17,0,0,13.538,55.937800,-4.406358,0.00,0.00,0.00,-0.20,5.00,106.60,0,1,0,31,100,-8121,1127,13538,2914.50,0,P-GPS,1,1,0,0,0,0,0,1618663915083,3459,3428,3395,3405,0,0,27,,,,,,,0,0,0,2.00,50.00,1066.00,0.00,0.00,1073.00,6,36.00,0.00,2.96,0.00,0.00,0.00,0,,,100,100,0,2,0,0,0,2,0,,,,,0.0,0.0,0
55.937799,-4.406353,3.60,3.40,0.00,0.32,3.70,3.70,2.80,0.32,9796,2021-04-17 12:51:55.180,2021-04-17 13:51:55.180,17,0,0,13.538,55.937800,-4.406358,0.00,0.00,0.00,0.80,5.20,106.70,0,1,0,31,100,-8121,1127,13538,2914.50,0,P-GPS,1,1,0,0,0,0,0,1618663915180,3459,3428,3395,3405,0,0,27,,,,,,,0,0,0,-8.00,52.00,1067.00,0.00,0.00,1073.00,6,36.00,0.00,3.18,0.00,0.00,0.00,0,,,100,100,0,2,0,0,0,2,0,,,,,0.0,0.0,0
55.937799,-4.406353,3.60,3.40,0.00,0.33,3.70,3.70,2.80,0.33,9894,2021-04-17 12:51:55.278,2021-04-17 13:51:55.278,17,0,0,13.538,55.937800,-4.406358,0.00,0.00,0.00,0.40,4.70,106.60,0,1,0,31,100,-8121,1127,13538,2914.50,0,P-GPS,1,1,0,0,0,0,0,1618663915278,3459,3428,3395,3405,0,0,27,,,,,,,0,0,0,-4.00,47.00,1066.00,0.00,0.00,1073.00,6,36.00,0.00,3.30,0.00,0.00,0.00,0,,,100,100,0,2,0,0,0,2,0,,,,,0.0,0.0,0
55.937799,-4.406353,3.60,3.40,0.00,0.34,3.70,3.70,2.80,0.34,9992,2021-04-17 12:51:55.376,2021-04-17 13:51:55.376,17,0,0,13.538,55.937800,-4.406358,0.00,0.00,0.00,-0.60,4.30,106.50,0,1,0,31,100,-8121,1127,13538,2914.50,0,P-GPS,1,1,0,0,0,0,0,1618663915376,3459,3428,3395,3405,0,0,27,,,,,,,0,0,0,6.00,43.00,1065.00,0.00,0.00,1073.00,6,36.00,0.00,3.37,0.00,0.00,0.00,0,,,100,100,0,2,0,0,0,2,0,,,,,0.0,0.0,0
55.937798,-4.406353,3.60,3.40,0.00,0.35,3.70,3.70,2.80,0.35,10086,2021-04-17 12:51:55.470,2021-04-17 13:51:55.470,17,0,0,13.538,55.937800,-4.406358,0.00,0.00,0.00,-0.50,4.20,106.40,0,1,0,31,100,-8121,1127,13538,2914.50,0,P-GPS,1,1,0,0,0,0,0,1618663915470,3459,3428,3395,3405,0,0,27,,,,,,,0,0,0,5.00,42.00,1064.00,0.00,0.00,1073.00,6,36.00,0.00,3.48,0.00,0.00,0.00,0,,,100,100,0,2,0,0,0,2,0,,,,,0.0,0.0,0
55.937798,-4.406353,3.60,3.40,0.00,0.36,3.70,3.70,2.80,0.36,10193,2021-04-17 12:51:55.577,2021-04-17 13:51:55.577,17,0,0,13.538,55.937800,-4.406358,0.00,0.00,0.00,-0.10,4.40,106.50,0,1,0,31,100,-8121,1127,13538,2914.50,0,P-GPS,1,1,0,0,0,0,0,1618663915577,3459,3428,3395,3405,0,0,27,,,,,,,0,0,0,1.00,44.00,1065.00,0.00,0.00,1073.00,6,36.00,0.00,3.64,0.00,0.00,0.00,0,,,100,100,0,2,0,0,0,2,0,,,,,0.0,0.0,0
55.937798,-4.406353,3.60,3.40,0.00,0.37,3.70,3.70,2.80,0.37,10294,2021-04-17 12:51:55.678,2021-04-17 13:51:55.678,17,0,0,13.510,55.937800,-4.406358,0.00,0.00,0.00,0.00,5.10,106.60,0,1,0,31,100,-8168,1125,13510,2914.50,0,P-GPS,1,1,0,0,0,0,0,1618663915678,3459,3428,3395,3405,0,0,27,,,,,,,0,0,0,-0.00,51.00,1066.00,0.00,0.00,1073.00,6,36.00,0.00,3.74,0.00,0.00,0.00,0,,,100,100,0,2,0,0,0,2,0,,,,,0.0,0.0,0
55.937798,-4.406353,3.60,3.40,0.00,0.38,3.70,3.70,2.80,0.38,10399,2021-04-17 12:51:55.783,2021-04-17 13:51:55.783,17,0,0,13.510,55.937800,-4.406358,0.00,0.00,0.00,-0.10,4.90,106.60,0,1,0,31,100,-8168,1125,13510,2914.50,0,P-GPS,1,1,0,0,0,0,0,1618663915783,3459,3428,3395,3405,0,0,27,,,,,,,0,0,0,1.00,49.00,1066.00,0.00,0.00,1073.00,6,36.00,0.00,3.81,0.00,0.00,0.00,0,,,100,100,0,2,0,0,0,2,0,,,,,0.0,0.0,0
55.937798,-4.406352,3.60,3.40,0.00,0.39,3.70,3.70,2.80,0.39,10495,2021-04-17 12:51:55.879,2021-04-17 13:51:55.879,17,0,0,13.510,55.937800,-4.406358,0.00,0.00,0.00,-0.80,4.20,106.70,0,1,0,31,100,-8168,1125,13510,2914.50,0,P-GPS,1,1,0,0,0,0,0,1618663915879,3459,3428,3395,3405,0,0,27,,,,,,,0,0,0,8.00,42.00,1067.00,0.00,0.00,1073.00,6,36.00,0.00,3.89,0.00,0.00,0.00,0,,,100,100,0,2,0,0,0,2,0,,,,,0.0,0.0,0
55.937798,-4.406353,3.60,3.40,0.00,0.40,3.70,3.70,2.80,0.40,10591,2021-04-17 12:51:55.975,2021-04-17 13:51:55.975,17,0,0,13.510,55.937800,-4.406358,0.00,0.00,0.00,-1.20,4.20,106.80,0,1,0,31,100,-8168,1125,13510,2914.50,0,P-GPS,1,1,0,0,0,0,0,1618663915975,3459,3428,3395,3405,0,0,27,,,,,,,0,0,0,12.00,42.00,1068.00,0.00,0.00,1073.00,6,36.00,0.00,3.96,0.00,0.00,0.00,0,,,100,100,0,2,0,0,0,2,0,,,,,0.0,0.0,0
55.937798,-4.406353,3.60,3.40,0.00,0.41,3.70,3.70,2.80,0.41,10693,2021-04-17 12:51:56.077,2021-04-17 13:51:56.077,17,0,0,13.510,55.937800,-4.406358,0.00,0.00,0.00,-1.00,3.80,106.80,0,1,0,31,100,-8168,1125,13510,2914.50,0,P-GPS,1,1,0,0,0,0,0,1618663916077,3459,3428,3395,3405,0,0,27,,,,,,,0,0,0,10.00,38.00,1068.00,0.00,0.00,1073.00,6,36.00,0.00,4.05,0.00,0.00,0.00,0,,,100,100,0,2,0,0,0,2,0,,,,,0.0,0.0,0
55.937798,-4.406353,3.60,3.40,0.00,0.40,3.70,3.70,2.80,0.41,10788,2021-04-17 12:51:56.172,2021-04-17 13:51:56.172,17,0,0,13.510,55.937800,-4.406358,0.00,0.00,0.00,-1.10,3.20,106.70,0,1,0,31,100,-8168,1125,13510,2914.50,0,P-GPS,1,1,0,0,0,0,0,1618663916172,3459,3428,3395,3405,0,0,27,,,,,,,0,0,0,11.00,32.00,1067.00,0.00,0.00,1073.00,6,36.00,0.00,3.96,0.00,0.00,0.00,0,,,100,100,0,2,0,0,0,2,0,,,,,0.0,0.0,0
55.937798,-4.406353,3.60,3.40,0.00,0.40,3.70,3.70,2.80,0.41,10886,2021-04-17 12:51:56.270,2021-04-17 13:51:56.270,17,0,0,13.510,55.937800,-4.406358,0.00,0.00,0.00,-1.10,3.10,106.70,0,1,0,31,100,-8168,1125,13510,2914.50,0,P-GPS,1,1,0,0,0,0,0,1618663916270,3459,3428,3395,3405,0,0,27,,,,,,,0,0,0,11.00,31.00,1067.00,0.00,0.00,1073.00,6,36.00,0.00,4.04,0.00,0.00,0.00,0,,,100,100,0,2,0,0,0,2,0,,,,,0.0,0.0,0
55.937797,-4.406353,3.60,3.40,0.00,0.41,3.70,3.70,2.80,0.41,10992,2021-04-17 12:51:56.376,2021-04-17 13:51:56.376,17,0,0,13.510,55.937800,-4.406358,0.00,0.00,0.00,-1.30,3.10,106.80,0,1,0,31,100,-8168,1125,13510,2914.50,0,P-GPS,1,1,0,0,0,0,0,1618663916376,3459,3428,3395,3405,0,0,27,,,,,,,0,0,0,13.00,31.00,1068.00,0.00,0.00,1073.00,6,36.00,0.00,4.10,0.00,0.00,0.00,0,,,100,100,0,2,0,0,0,2,0,,,,,0.0,0.0,0
55.937797,-4.406353,3.60,3.40,0.00,0.42,3.70,3.70,2.80,0.42,11092,2021-04-17 12:51:56.476,2021-04-17 13:51:56.476,17,0,0,13.510,55.937800,-4.406358,0.00,0.00,0.00,-1.30,2.90,106.70,0,1,0,31,100,-8168,1125,13510,2914.50,0,P-GPS,1,1,0,0,43,0,0,1618663916476,3459,3428,3395,3405,0,0,27,,,,,,,0,0,0,13.00,29.00,1067.00,0.00,0.00,1073.00,6,36.00,0.00,4.19,0.00,0.00,0.00,0,,,100,100,0,2,0,0,0,2,0,,,,,0.0,0.0,0
55.937797,-4.406353,3.60,3.40,0.00,0.41,3.70,3.70,2.80,0.42,11198,2021-04-17 12:51:56.582,2021-04-17 13:51:56.582,17,0,0,13.510,55.937800,-4.406358,0.00,0.00,0.00,-1.40,2.60,106.70,0,1,0,31,100,-8168,1125,13510,2914.50,0,P-GPS,1,1,0,0,55,0,0,1618663916582,3459,3428,3395,3405,0,0,27,,,,,,,0,0,0,14.00,26.00,1067.00,0.00,0.00,1073.00,6,36.00,0.00,4.10,0.00,0.00,0.00,0,,,100,100,0,2,0,0,0,2,0,,,,,0.0,0.0,0
55.937797,-4.406353,3.60,3.40,0.00,0.42,3.70,3.70,2.80,0.42,11284,2021-04-17 12:51:56.668,2021-04-17 13:51:56.668,17,0,0,13.505,55.937800,-4.406358,0.00,0.00,0.00,-1.60,2.20,106.70,0,1,0,31,100,-8133,1123,13505,2915.50,0,P-GPS,1,1,0,0,78,0,0,1618663916668,3459,3428,3395,3405,0,0,27,,,,,,,0,0,0,16.00,22.00,1067.00,0.00,0.00,1073.00,6,36.00,0.00,4.19,0.00,0.00,0.00,0,,,100,100,0,2,0,0,0,2,0,,,,,0.0,0.0,0
55.937797,-4.406353,3.60,3.40,0.00,0.43,3.70,3.70,2.80,0.43,11393,2021-04-17 12:51:56.777,2021-04-17 13:51:56.777,17,0,0,13.505,55.937800,-4.406358,0.00,0.00,0.00,-1.50,2.10,106.80,0,1,0,31,100,-8133,1123,13505,2915.50,0,P-GPS,1,1,0,0,165,0,0,1618663916777,3459,3428,3395,3405,0,0,27,,,,,,,0,0,0,15.00,21.00,1068.00,0.00,0.00,1073.00,6,36.00,0.00,4.25,0.00,0.00,0.00,0,,,100,100,0,2,0,0,0,2,0,,,,,0.0,0.0,0
55.937797,-4.406353,3.60,3.40,0.00,0.44,3.70,3.70,2.80,0.44,11492,2021-04-17 12:51:56.876,2021-04-17 13:51:56.876,17,0,0,13.505,55.937800,-4.406358,0.00,0.00,0.00,-1.50,2.20,106.80,0,1,0,31,100,-8133,1123,13505,2915.50,0,P-GPS,1,1,0,0,225,0,0,1618663916876,3459,3428,3395,3405,0,0,27,,,,,,,0,0,0,15.00,22.00,1068.00,0.00,0.00,1073.00,6,36.00,0.00,4.35,0.00,0.00,0.00,0,,,100,100,0,2,0,0,0,2,0,,,,,0.0,0.0,0
55.937797,-4.406354,3.60,3.40,0.10,0.42,3.70,3.70,2.80,0.44,11583,2021-04-17 12:51:56.967,2021-04-17 13:51:56.967,17,0,0,13.505,55.937800,-4.406358,0.00,0.00,-0.10,-1.30,2.20,106.70,0,1,0,31,100,-8133,1123,13505,2915.50,0,P-GPS,1,1,0,0,240,0,0,1618663916967,3459,3428,3395,3405,0,0,27,,,,,,,0,0,0,13.00,22.00,1067.00,0.00,0.00,1073.00,6,36.00,1.00,4.19,0.00,0.00,-1.00,0,,,100,100,0,2,0,0,0,2,0,,,,,0.0,0.0,0
55.937797,-4.406354,3.60,3.40,0.20,0.43,3.70,3.70,2.80,0.44,11692,2021-04-17 12:51:57.076,2021-04-17 13:51:57.076,17,0,0,13.505,55.937800,-4.406358,0.00,0.00,-0.20,-1.00,2.20,106.60,0,1,0,31,100,-8133,1123,13505,2915.50,0,P-GPS,1,1,15,0,267,0,0,1618663917076,3459,3428,3395,3405,0,0,27,,,,,,,0,0,0,10.00,22.00,1066.00,0.00,0.00,1073.00,6,36.00,2.00,4.28,0.00,0.00,-2.00,0,,,100,100,0,2,0,0,0,2,0,,,,,0.0,0.0,0
55.937797,-4.406354,3.60,3.40,0.20,0.43,3.70,3.70,2.80,0.44,11787,2021-04-17 12:51:57.171,2021-04-17 13:51:57.171,17,0,0,13.505,55.937800,-4.406358,0.00,0.00,-0.20,-1.00,2.20,106.60,0,1,0,31,100,-8133,1123,13505,2915.50,0,P-GPS,1,1,64,0,341,0,0,1618663917171,3459,3428,3395,3405,0,0,27,,,,,,,0,0,0,10.00,22.00,1066.00,0.00,0.00,1073.00,6,36.00,2.00,4.28,0.00,0.00,-2.00,0,,,100,100,0,2,0,0,0,2,0,,,,,0.0,0.0,0
55.937797,-4.406354,3.70,3.50,0.50,0.43,3.70,3.70,2.80,0.44,11883,2021-04-17 12:51:57.267,2021-04-17 13:51:57.267,17,0,0,13.505,55.937800,-4.406358,0.00,0.00,-0.50,-1.20,2.20,106.50,0,1,0,31,100,-8133,1123,13505,2915.50,0,P-GPS,1,1,106,0,374,0,0,1618663917267,3459,3428,3395,3405,0,0,27,,,,,,,0,0,0,12.00,22.00,1065.00,0.00,0.00,1073.00,6,37.00,5.00,4.34,0.00,0.00,-5.00,0,,,100,100,0,2,0,0,0,2,0,,,,,0.0,0.0,0
55.937796,-4.406354,3.80,3.50,0.70,0.44,3.80,3.80,2.80,0.44,11992,2021-04-17 12:51:57.376,2021-04-17 13:51:57.376,17,0,0,13.505,55.937800,-4.406358,0.00,0.00,-0.70,-1.40,2.30,106.50,0,1,0,31,100,-8133,1123,13505,2915.50,0,P-GPS,1,1,121,0,394,0,0,1618663917376,3459,3428,3395,3405,0,0,27,,,,,,,0,0,0,14.00,23.00,1065.00,0.00,0.00,1073.00,6,38.00,7.00,4.40,0.00,0.00,-7.00,0,,,100,100,0,2,0,0,0,2,0,,,,,0.0,0.0,0
55.937796,-4.406354,3.80,3.60,0.90,0.45,3.80,3.80,2.80,0.45,12092,2021-04-17 12:51:57.476,2021-04-17 13:51:57.476,17,0,0,13.505,55.937800,-4.406358,0.00,0.00,-0.90,-1.40,2.20,106.50,0,1,0,31,100,-8133,1123,13505,2915.50,0,P-GPS,1,1,137,0,448,0,0,1618663917476,3459,3428,3395,3405,0,0,27,,,,,,,0,0,0,14.00,22.00,1065.00,0.00,0.00,1073.00,6,38.00,9.00,4.48,0.00,0.00,-9.00,0,,,100,100,0,2,0,0,0,2,0,,,,,0.0,0.0,0
55.937796,-4.406354,4.00,3.80,1.20,0.46,4.00,4.00,2.80,0.46,12203,2021-04-17 12:51:57.588,2021-04-17 13:51:57.587,17,0,0,13.505,55.937800,-4.406358,0.00,0.00,-1.20,-1.60,2.10,106.50,0,1,0,31,100,-8133,1123,13505,2915.50,0,P-GPS,1,1,148,0,460,0,0,1618663917587,3459,3428,3395,3405,0,0,27,,,,,,,0,0,0,16.00,21.00,1065.00,0.00,0.00,1073.00,6,40.00,12.00,4.56,0.00,0.00,-12.00,0,,,100,100,0,2,0,0,0,2,0,,,,,0.0,0.0,0
55.937796,-4.406354,4.10,3.90,1.50,0.47,4.10,4.10,2.80,0.47,12292,2021-04-17 12:51:57.676,2021-04-17 13:51:57.676,17,0,0,13.490,55.937800,-4.406358,-0.10,0.00,-1.50,-1.90,1.90,106.50,0,1,0,31,100,-8486,1120,13490,2916.50,0,P-GPS,1,1,152,0,460,0,0,1618663917676,3459,3428,3395,3405,0,0,27,,,,,,,0,0,0,19.00,19.00,1065.00,0.00,0.00,1073.00,6,41.00,15.03,4.67,-1.00,0.00,-15.00,0,,,100,100,0,2,0,0,0,2,0,,,,,0.0,0.0,0
55.937796,-4.406354,4.20,4.00,1.60,0.51,4.20,4.20,2.80,0.51,12400,2021-04-17 12:51:57.784,2021-04-17 13:51:57.784,17,0,0,13.490,55.937800,-4.406358,-0.10,0.00,-1.60,-2.10,1.70,106.60,0,1,0,31,100,-8486,1120,13490,2916.50,0,P-GPS,1,1,151,0,456,0,0,1618663917784,3459,3428,3395,3405,0,0,27,,,,,,,0,0,0,21.00,17.00,1066.00,0.00,0.00,1073.00,6,42.00,16.03,5.09,-1.00,0.00,-16.00,0,,,100,100,0,2,0,0,0,2,0,,,,,0.0,0.0,0
55.937796,-4.406354,4.40,4.20,1.80,0.53,4.40,4.40,2.80,0.53,12492,2021-04-17 12:51:57.876,2021-04-17 13:51:57.876,17,0,0,13.490,55.937800,-4.406358,-0.10,0.00,-1.80,-2.30,1.40,106.50,0,1,0,31,100,-8486,1120,13490,2916.50,0,P-GPS,1,1,151,0,447,0,0,1618663917876,3459,3428,3395,3405,0,0,27,,,,,,,0,0,0,23.00,14.00,1065.00,0.00,0.00,1073.00,6,44.00,18.03,5.27,-1.00,0.00,-18.00,0,,,100,100,0,2,0,0,0,2,0,,,,,0.0,0.0,0
55.937795,-4.406354,4.60,4.40,1.80,0.55,4.60,4.60,2.80,0.55,12593,2021-04-17 12:51:57.977,2021-04-17 13:51:57.977,17,0,0,13.490,55.937800,-4.406358,-0.10,0.00,-1.80,-2.30,1.40,106.50,0,1,0,31,100,-8486,1120,13490,2916.50,0,P-GPS,1,1,159,0,447,0,0,1618663917977,3459,3428,3395,3405,0,0,27,,,,,,,0,0,0,23.00,14.00,1065.00,0.00,0.00,1073.00,6,46.00,18.03,5.48,-1.00,0.00,-18.00,0,,,100,100,0,2,0,0,0,2,0,,,,,0.0,0.0,0
55.937795,-4.406354,4.80,4.60,1.81,0.57,4.80,4.80,2.80,0.57,12687,2021-04-17 12:51:58.071,2021-04-17 13:51:58.071,17,0,0,13.490,55.937800,-4.406358,-0.10,0.10,-1.80,-2.30,1.60,106.50,0,1,0,31,100,-8486,1120,13490,2916.50,0,P-GPS,1,1,187,0,448,0,0,1618663918071,3459,3428,3395,3405,0,0,27,,,,,,,0,0,0,23.00,16.00,1065.00,0.00,0.00,1073.00,6,48.00,18.06,5.68,-1.00,1.00,-18.00,0,,,100,100,0,2,0,0,0,2,0,,,,,0.0,0.0,0
55.937795,-4.406354,5.00,4.70,1.81,0.59,5.00,5.00,2.80,0.59,12803,2021-04-17 12:51:58.187,2021-04-17 13:51:58.187,17,0,0,13.490,55.937800,-4.406358,-0.10,0.10,-1.80,-2.60,1.80,106.50,0,1,0,31,100,-8486,1120,13490,2916.50,0,P-GPS,1,1,247,0,446,0,0,1618663918187,3459,3428,3395,3405,0,0,27,,,,,,,0,0,0,26.00,18.00,1065.00,0.00,0.00,1073.00,6,50.00,18.06,5.89,-1.00,1.00,-18.00,0,,,100,100,0,2,0,0,0,2,0,,,,,0.0,0.0,0
55.937795,-4.406353,5.20,4.90,1.81,0.61,5.20,5.20,2.80,0.61,12893,2021-04-17 12:51:58.277,2021-04-17 13:51:58.277,17,0,0,13.490,55.937800,-4.406358,-0.10,0.10,-1.80,-3.40,1.70,106.60,0,1,0,31,100,-8486,1120,13490,2916.50,0,P-GPS,1,1,305,0,446,0,0,1618663918277,3281,3250,3232,3268,0,0,27,,,,,,,0,0,0,34.00,17.00,1066.00,0.00,0.00,1073.00,6,52.00,18.06,6.10,-1.00,1.00,-18.00,0,,,100,100,0,2,0,0,0,2,0,,,,,0.0,0.0,0
55.937795,-4.406353,5.30,5.10,1.71,0.62,5.30,5.30,2.80,0.62,12991,2021-04-17 12:51:58.375,2021-04-17 13:51:58.375,17,0,0,13.490,55.937800,-4.406358,-0.10,0.10,-1.70,-5.10,1.60,106.60,0,1,0,31,100,-8486,1120,13490,2916.50,0,P-GPS,1,1,341,0,448,0,0,1618663918375,3281,3250,3232,3268,0,0,27,,,,,,,0,0,0,51.00,16.00,1066.00,0.00,0.00,1073.00,6,53.00,17.06,6.16,-1.00,1.00,-17.00,0,,,100,100,0,2,0,0,0,2,0,,,,,0.0,0.0,0
55.937795,-4.406353,5.50,5.20,1.71,0.64,5.50,5.50,2.80,0.64,13089,2021-04-17 12:51:58.473,2021-04-17 13:51:58.473,17,0,0,13.490,55.937800,-4.406358,-0.10,0.20,-1.70,-7.00,1.70,106.60,0,1,0,31,100,-8486,1120,13490,2916.50,0,P-GPS,1,1,381,0,446,0,0,1618663918473,3281,3250,3232,3268,0,0,27,,,,,,,0,0,0,70.00,17.00,1066.00,0.00,0.00,1073.00,6,55.00,17.15,6.42,-1.00,2.00,-17.00,0,,,100,100,0,2,0,0,0,2,0,,,,,0.0,0.0,0
55.937795,-4.406352,5.70,5.40,1.73,0.66,5.70,5.70,2.80,0.66,13186,2021-04-17 12:51:58.571,2021-04-17 13:51:58.570,17,0,0,13.490,55.937800,-4.406358,-0.10,0.30,-1.70,-9.00,1.70,106.50,0,1,0,31,100,-8486,1120,13490,2916.50,0,P-GPS,1,1,410,0,439,0,0,1618663918570,3281,3250,3232,3268,0,0,27,,,,,,,0,0,0,90.00,17.00,1065.00,0.00,0.00,1073.00,6,57.00,17.29,6.61,-1.00,3.00,-17.00,0,,,100,100,0,2,0,0,0,2,0,,,,,0.0,0.0,0
55.937794,-4.406352,5.90,5.60,1.76,0.70,5.90,5.90,2.80,0.70,13285,2021-04-17 12:51:58.669,2021-04-17 13:51:58.669,17,0,0,13.031,55.937800,-4.406358,-0.20,0.40,-1.70,-11.20,1.70,106.40,0,1,0,31,100,-11244,1118,13031,2917.50,0,P-GPS,1,1,422,0,437,0,0,1618663918669,3281,3250,3232,3268,0,0,27,,,,,,,0,0,0,112.00,17.00,1064.00,0.00,0.00,1073.00,6,59.00,17.58,7.03,-2.00,4.00,-17.00,0,,,100,100,0,2,0,0,0,2,0,,,,,0.0,0.0,0
55.937794,-4.406351,6.00,5.70,1.72,0.73,6.00,6.00,2.80,0.73,13392,2021-04-17 12:51:58.776,2021-04-17 13:51:58.776,17,0,0,13.031,55.937800,-4.406358,-0.20,0.60,-1.60,-13.00,1.70,106.40,0,1,0,31,100,-11244,1118,13031,2917.50,0,P-GPS,1,1,422,0,437,0,0,1618663918776,3281,3250,3232,3268,0,0,27,,,,,,,0,0,0,130.00,17.00,1064.00,0.00,0.00,1073.00,6,60.00,17.20,7.34,-2.00,6.00,-16.00,0,,,100,100,0,2,0,0,0,2,0,,,,,0.0,0.0,0
55.937794,-4.406350,6.20,5.90,1.81,0.80,6.20,6.20,2.80,0.80,13492,2021-04-17 12:51:58.877,2021-04-17 13:51:58.876,17,0,0,13.031,55.937800,-4.406358,-0.30,0.80,-1.60,-14.10,1.80,106.40,0,1,0,31,100,-11244,1118,13031,2917.50,0,P-GPS,1,1,422,0,437,0,0,1618663918876,3281,3250,3232,3268,0,0,27,,,,,,,0,0,0,141.00,18.00,1064.00,0.00,0.00,1073.00,6,62.00,18.14,8.01,-3.00,8.00,-16.00,0,,,100,100,0,2,0,0,0,2,0,,,,,0.0,0.0,0
55.937794,-4.406349,6.40,6.00,1.91,0.89,6.40,6.40,2.80,0.89,13589,2021-04-17 12:51:58.974,2021-04-17 13:51:58.973,17,0,0,13.031,55.937800,-4.406358,-0.30,1.00,-1.60,-14.40,2.10,106.40,0,1,0,31,100,-11244,1118,13031,2917.50,0,P-GPS,1,1,423,0,437,0,0,1618663918973,3281,3250,3232,3268,0,0,27,,,,,,,0,0,0,144.00,21.00,1064.00,0.00,0.00,1073.00,6,64.00,19.10,8.94,-3.00,10.00,-16.00,0,,,100,100,0,2,0,0,0,2,0,,,,,0.0,0.0,0
55.937793,-4.406347,6.50,6.20,2.04,1.00,6.50,6.50,2.80,1.00,13692,2021-04-17 12:51:59.077,2021-04-17 13:51:59.076,17,0,0,13.031,55.937800,-4.406358,-0.40,1.20,-1.60,-14.80,1.60,106.40,0,1,0,31,100,-11244,1118,13031,2917.50,0,P-GPS,1,1,424,0,437,0,0,1618663919076,3281,3250,3232,3268,0,0,27,,,,,,,0,0,0,148.00,16.00,1064.00,0.00,0.00,1073.00,6,65.00,20.40,10.00,-4.00,12.00,-16.00,0,,,100,100,0,2,0,0,0,2,0,,,,,0.0,0.0,0
55.937793,-4.406345,6.70,6.30,2.16,1.12,6.70,6.70,2.80,1.12,13795,2021-04-17 12:51:59.180,2021-04-17 13:51:59.179,17,0,0,13.031,55.937800,-4.406358,-0.40,1.40,-1.60,-14.80,1.30,106.30,0,1,0,31,100,-11244,1118,13031,2917.50,0,P-GPS,1,1,424,0,442,0,0,1618663919179,3281,3250,3232,3268,0,0,27,,,,,,,0,0,0,148.00,13.00,1063.00,0.00,0.00,1073.00,6,67.00,21.63,11.15,-4.00,14.00,-16.00,0,,,100,100,0,2,0,0,0,2,0,,,,,0.0,0.0,0
55.937793,-4.406342,6.90,6.50,2.32,1.27,6.90,6.90,2.80,1.27,13921,2021-04-17 12:51:59.305,2021-04-17 13:51:59.305,17,0,0,13.031,55.937800,-4.406358,-0.50,1.60,-1.60,-14.20,1.50,106.30,0,1,0,31,100,-11244,1118,13031,2917.50,0,P-GPS,1,1,424,0,446,0,0,1618663919305,3281,3250,3232,3268,0,0,27,,,,,,,0,0,0,142.00,15.00,1063.00,0.00,0.00,1073.00,6,69.00,23.17,12.65,-5.00,16.00,-16.00,0,,,100,100,0,2,0,0,0,2,0,,,,,0.0,0.0,0
55.937792,-4.406336,7.20,6.80,2.69,1.63,7.20,7.20,2.80,1.63,14092,2021-04-17 12:51:59.476,2021-04-17 13:51:59.476,17,0,0,13.031,55.937800,-4.406358,-0.60,2.00,-1.70,-13.20,2.90,107.20,0,1,0,31,100,-11244,1118,13031,2917.50,0,P-GPS,1,1,424,0,446,0,0,1618663919476,3281,3250,3232,3268,0,0,27,,,,,,,0,0,0,132.00,29.00,1072.00,0.00,0.00,1073.00,6,72.00,26.93,16.28,-6.00,20.00,-17.00,0,,,100,100,0,2,0,0,0,2,0,,,,,0.0,0.0,0
55.937791,-4.406333,7.40,7.00,2.87,1.85,7.40,7.40,2.87,1.85,14190,2021-04-17 12:51:59.574,2021-04-17 13:51:59.574,17,0,0,13.031,55.937800,-4.406358,-0.70,2.20,-1.70,-12.90,2.80,107.60,0,1,0,31,100,-11244,1118,13031,2917.50,0,P-GPS,1,1,424,0,448,0,0,1618663919574,3281,3250,3232,3268,0,0,27,,,,,,,0,0,0,129.00,28.00,1076.00,0.00,0.00,1073.00,6,74.00,28.67,18.48,-7.00,22.00,-17.00,0,,,100,100,0,2,0,0,0,2,0,,,,,0.0,0.0,0
55.937790,-4.406330,7.50,7.10,3.05,2.08,7.50,7.50,3.05,2.08,14291,2021-04-17 12:51:59.675,2021-04-17 13:51:59.675,17,0,0,13.345,55.937800,-4.406358,-0.80,2.40,-1.70,-12.60,2.50,108.00,0,1,0,31,100,-9387,1115,13345,2917.50,0,P-GPS,1,1,424,0,448,0,0,1618663919675,3281,3250,3232,3268,0,0,27,,,,,,,0,0,0,126.00,25.00,1080.00,0.00,0.00,1073.00,6,75.00,30.48,20.83,-8.00,24.00,-17.00,0,,,100,100,0,2,0,0,0,2,0,,,,,0.0,0.0,0
55.937789,-4.406326,7.70,7.30,3.21,2.37,7.70,7.70,3.21,2.37,14396,2021-04-17 12:51:59.780,2021-04-17 13:51:59.780,17,0,0,13.345,55.937800,-4.406358,-0.80,2.60,-1.70,-12.40,2.40,108.30,0,1,0,31,100,-9387,1115,13345,2917.50,0,P-GPS,1,1,424,0,450,0,0,1618663919780,3281,3250,3232,3268,0,0,27,,,,,,,0,0,0,124.00,24.00,1083.00,0.00,0.00,1073.00,6,77.00,32.08,23.66,-8.00,26.00,-17.00,0,,,100,100,0,2,0,0,0,2,0,,,,,0.0,0.0,0
55.937788,-4.406321,7.90,7.40,3.32,2.64,7.90,7.90,3.32,2.64,14494,2021-04-17 12:51:59.878,2021-04-17 13:51:59.878,17,0,0,13.345,55.937800,-4.406358,-0.90,2.70,-1.70,-11.90,2.40,108.50,0,1,0,31,100,-9387,1115,13345,2917.50,0,P-GPS,1,1,424,0,457,0,0,1618663919878,3281,3250,3232,3268,0,0,27,,,,,,,0,0,0,119.00,24.00,1085.00,0.00,0.00,1073.00,6,79.00,33.15,26.38,-9.00,27.00,-17.00,0,,,100,100,0,2,0,0,0,2,0,,,,,0.0,0.0,0
55.937787,-4.406317,8.10,7.60,3.48,2.93,8.10,8.10,3.48,2.93,14591,2021-04-17 12:51:59.976,2021-04-17 13:51:59.975,17,0,0,13.345,55.937800,-4.406358,-0.90,2.90,-1.70,-11.50,2.80,108.50,0,1,0,31,100,-9387,1115,13345,2917.50,0,P-GPS,1,1,425,0,480,0,0,1618663919975,3281,3250,3232,3268,0,0,27,,,,,,,0,0,0,115.00,28.00,1085.00,0.00,0.00,1073.00,6,81.00,34.80,29.32,-9.00,29.00,-17.00,0,,,100,100,0,2,0,0,0,2,0,,,,,0.0,0.0,0
55.937786,-4.406313,8.20,7.80,3.64,3.24,8.20,8.20,3.64,3.24,14683,2021-04-17 12:52:00.067,2021-04-17 13:52:00.067,17,0,0,13.345,55.937800,-4.406358,-1.00,3.00,-1.80,-11.00,3.10,108.60,0,1,0,31,100,-9387,1115,13345,2917.50,0,P-GPS,1,1,427,0,511,0,0,1618663920067,3281,3250,3232,3268,0,0,27,,,,,,,0,0,0,110.00,31.00,1086.00,0.00,0.00,1073.00,6,82.00,36.39,32.36,-10.00,30.00,-18.00,0,,,100,100,0,2,0,0,0,2,0,,,,,0.0,0.0,0
55.937784,-4.406308,8.40,7.90,3.88,3.57,8.40,8.40,3.88,3.57,14793,2021-04-17 12:52:00.177,2021-04-17 13:52:00.177,17,0,0,13.345,55.937800,-4.406358,-1.10,3.20,-1.90,-10.20,3.00,108.80,0,1,0,31,100,-9387,1115,13345,2917.50,0,P-GPS,1,1,426,0,530,0,0,1618663920177,3281,3250,3232,3268,0,0,27,,,,,,,0,0,0,102.00,30.00,1088.00,0.00,0.00,1073.00,6,84.00,38.81,35.75,-11.00,32.00,-19.00,0,,,100,100,0,2,0,0,0,2,0,,,,,0.0,0.0,0
55.937783,-4.406303,8.60,8.10,4.09,3.91,8.60,8.60,4.09,3.91,14894,2021-04-17 12:52:00.278,2021-04-17 13:52:00.278,17,0,0,13.345,55.937800,-4.406358,-1.20,3.30,-2.10,-9.80,2.60,109.20,0,1,0,31,100,-9387,1115,13345,2917.50,0,P-GPS,1,1,427,0,535,0,0,1618663920278,3281,3250,3232,3268,0,0,27,,,,,,,0,0,0,98.00,26.00,1092.00,0.00,0.00,1073.00,6,86.00,40.91,39.12,-12.00,33.00,-21.00,0,,,100,100,0,2,0,0,0,2,0,,,,,0.0,0.0,0
55.937782,-4.406298,8.90,8.40,4.28,4.27,8.90,8.90,4.28,4.27,14985,2021-04-17 12:52:00.369,2021-04-17 13:52:00.369,18,0,0,13.345,55.937800,-4.406358,-1.20,3.40,-2.30,-9.90,2.20,109.40,0,1,0,31,100,-9387,1115,13345,2917.50,0,P-GPS,1,1,427,0,534,0,0,1618663920369,3281,3250,3232,3268,0,0,27,,,,,,,0,0,0,99.00,22.00,1094.00,0.00,0.00,1073.00,6,89.00,42.77,42.70,-12.00,34.00,-23.00,0,,,100,100,0,2,0,0,0,2,0,,,,,0.0,0.0,0
55.937780,-4.406292,9.10,8.60,4.44,4.63,9.10,9.10,4.44,4.63,15095,2021-04-17 12:52:00.479,2021-04-17 13:52:00.479,18,0,0,13.345,55.937800,-4.406358,-1.30,3.50,-2.40,-10.00,2.60,111.00,0,1,0,31,100,-9387,1115,13345,2917.50,0,P-GPS,1,1,427,0,535,0,0,1618663920479,3281,3250,3232,3268,0,0,27,,,,,,,0,0,0,100.00,26.00,1110.00,0.00,0.00,1073.00,6,91.00,44.38,46.33,-13.00,35.00,-24.00,0,,,100,100,0,2,0,0,0,2,0,,,,,0.0,0.0,0
55.937779,-4.406287,9.30,8.80,4.55,5.01,9.30,9.30,4.55,5.01,15190,2021-04-17 12:52:00.574,2021-04-17 13:52:00.574,18,0,0,13.345,55.937800,-4.406358,-1.40,3.60,-2.40,-10.10,2.50,110.30,0,1,0,31,100,-9387,1115,13345,2917.50,0,P-GPS,1,1,427,0,536,0,0,1618663920574,3281,3250,3232,3268,0,0,27,,,,,,,0,0,0,101.00,25.00,1103.00,0.00,0.00,1073.00,6,93.00,45.48,50.13,-14.00,36.00,-24.00,0,,,100,100,0,2,0,0,0,2,0,,,,,0.0,0.0,0
55.937778,-4.406281,9.60,9.10,4.71,5.40,9.60,9.60,4.71,5.40,15298,2021-04-17 12:52:00.682,2021-04-17 13:52:00.682,18,0,0,13.259,55.937800,-4.406358,-1.50,3.70,-2.50,-10.20,2.00,110.90,0,1,0,31,100,-10181,1112,13259,2918.50,0,P-GPS,1,1,427,0,536,0,0,1618663920682,3281,3250,3232,3268,0,0,27,,,,,,,0,0,0,102.00,20.00,1109.00,0.00,0.00,1073.00,6,96.00,47.11,54.00,-15.00,37.00,-25.00,0,,,100,100,0,2,0,0,0,2,0,,,,,0.0,0.0,0
55.937776,-4.406275,9.80,9.40,4.87,5.80,9.80,9.80,4.87,5.80,15390,2021-04-17 12:52:00.774,2021-04-17 13:52:00.774,18,0,0,13.259,55.937800,-4.406358,-1.60,3.80,-2.60,-10.40,1.30,110.20,0,1,0,31,100,-10181,1112,13259,2918.50,0,P-GPS,1,1,427,0,536,0,0,1618663920774,3281,3250,3232,3268,0,0,27,,,,,,,0,0,0,104.00,13.00,1102.00,0.00,0.00,1073.00,6,98.00,48.74,57.97,-16.00,38.00,-26.00,0,,,100,100,0,2,0,0,0,2,0,,,,,0.0,0.0,0
