latitude,longitude,altitude(m),ultrasonicHeight(m),speed(mps),distance(m),max_altitude(m),max_ascent(m),max_speed(mps),max_distance(m),time(millisecond),datetime(utc),datetime(local),satellites,pressure(Pa),temperature(F),voltage(v),home_latitude,home_longitude,velocityX(mps),velocityY(mps),velocityZ(mps),pitch(deg),roll(deg),yaw(deg),powerlevel,isflying,istakingphoto,remainPowerPercent,remainLifePercent,currentCurrent,currentElectricity,currentVoltage,batteryTemperature,dischargeCount,flightmode,isMotorsOn,isTakingVideo,Rc_elevator,Rc_aileron,Rc_throttle,Rc_rudder,Rc_gyro,timestamp,Battery_Cell1,Battery_Cell2,Battery_Cell3,Battery_Cell4,Battery_Cell5,Battery_Cell6,Dronetype,AppVersion,Planename,FlyControllerSerialNumber,RemoteSerialNumber,BatterySerialNumber,CENTER_BATTERY.productDate,CENTER_BATTERY.serialNo,CENTER_BATTERY.fullCapacity,CENTER_BATTERY.productDateRaw,pitchRaw,rollRaw,yawRaw,gimbalPitchRaw,gimbalRollRaw,gimbalYawRaw,flyState,altitudeRaw,speedRaw,distanceRaw,velocityXRaw,velocityYRaw,velocityZRaw,data_reuse,App_Tip,App_Warning,downlinkSignalQuality,uplinkSignalQuality,transmissionChannel,rcModeSwitch,rcHome,rcPause,rcTransform,rcJoystickMode,appMode,FlyControllerSerialNumber_legacy,RemoteSerialNumber_legacy,BatterySerialNumber_legacy,Battery2SerialNumber,frontAvoidDist,backAvoidDist,isBrakingToAvoid
55.941084,-4.404963,50.10,0.00,0.00,86.77,50.10,50.10,0.00,86.77,0,2021-05-02 10:47:49.128,2021-05-02 11:47:49.127,18,0,0,15.217,55.940871,-4.406299,0.00,0.00,0.00,4.20,3.00,-175.70,0,1,0,0,0,0,1918,15217,3077.50,0,P-GPS,1,0,0,0,0,0,0,1619952469127,0,0,0,0,0,0,27,Litchi_4.18.0-g,,,,null,,0,0,0,-42.00,30.00,-1757.00,-628.00,0.00,-1628.00,6,501.00,0.00,867.70,0.00,0.00,0.00,0,,,100,100,0,2,0,0,0,2,0,,,,null,0.0,0.0,0
55.941084,-4.404964,50.10,0.00,0.00,86.76,50.10,50.10,0.00,86.77,72,2021-05-02 10:47:49.199,2021-05-02 11:47:49.199,18,0,0,15.217,55.940871,-4.406299,0.00,0.00,0.00,4.10,3.20,-175.70,0,1,0,0,0,0,1918,15217,3077.50,0,P-GPS,1,0,0,0,0,0,0,1619952469199,0,0,0,0,0,0,27,Litchi_4.18.0-g,,,,null,,0,0,0,-41.00,32.00,-1757.00,-628.00,0.00,-1628.00,6,501.00,0.00,867.63,0.00,0.00,0.00,0,,,100,100,0,2,0,0,0,2,0,,,,null,0.0,0.0,0
55.941084,-4.404964,50.10,0.00,0.00,86.77,50.10,50.10,0.00,86.77,268,2021-05-02 10:47:49.395,2021-05-02 11:47:49.395,18,0,0,15.217,55.940871,-4.406299,0.00,0.00,0.00,4.00,3.00,-175.70,0,1,0,0,0,0,1918,15217,3077.50,0,P-GPS,1,0,0,0,0,0,0,1619952469395,0,0,0,0,0,0,27,Litchi_4.18.0-g,,,,null,,0,0,0,-40.00,30.00,-1757.00,-628.00,0.00,-1628.00,6,501.00,0.00,867.66,0.00,0.00,0.00,0,,,100,100,0,2,0,0,0,2,0,,,,null,0.0,0.0,0
55.941084,-4.404964,50.10,0.00,0.00,86.77,50.10,50.10,0.00,86.77,358,2021-05-02 10:47:49.485,2021-05-02 11:47:49.485,18,0,0,15.217,55.940871,-4.406299,0.00,0.00,0.00,3.70,3.00,-175.70,0,1,0,0,0,0,1918,15217,3077.50,0,P-GPS,1,0,0,0,0,0,0,1619952469485,0,0,0,0,0,0,27,Litchi_4.18.0-g,CJTMAVIC,163DFAS001K45C,0VECFAK0072T52,0P2AFAL5340E87,,0,0,0,-37.00,30.00,-1757.00,-628.00,0.00,-1628.00,6,501.00,0.00,867.66,0.00,0.00,0.00,0,,,100,100,0,2,0,0,0,2,0,,,,null,0.0,0.0,0
55.941084,-4.404964,50.20,0.00,0.00,86.77,50.20,50.20,0.00,86.77,456,2021-05-02 10:47:49.583,2021-05-02 11:47:49.583,18,0,0,15.217,55.940871,-4.406299,0.00,0.00,0.00,3.70,3.00,-175.70,0,1,0,0,0,0,1918,15217,3077.50,0,P-GPS,1,0,0,0,0,0,0,1619952469583,0,0,0,0,0,0,27,,,,,,,0,0,0,-37.00,30.00,-1757.00,-628.00,0.00,-1628.00,6,502.00,0.00,867.69,0.00,0.00,0.00,0,,,100,100,0,2,0,0,0,2,0,,,,,0.0,0.0,0
55.941084,-4.404964,50.20,0.00,0.00,86.77,50.20,50.20,0.00,86.77,560,2021-05-02 10:47:49.687,2021-05-02 11:47:49.687,18,0,0,15.217,55.940871,-4.406299,0.00,0.00,0.00,3.80,3.30,-175.60,0,1,0,0,0,0,1918,15217,3077.50,0,P-GPS,1,0,0,0,0,0,0,1619952469687,0,0,0,0,0,0,27,,,,,,,0,0,0,-38.00,33.00,-1756.00,-628.00,0.00,-1628.00,6,502.00,0.00,867.69,0.00,0.00,0.00,0,,,100,100,0,2,0,0,0,2,0,,,,,0.0,0.0,0
55.941084,-4.404963,50.20,0.00,0.00,86.77,50.20,50.20,0.00,86.77,673,2021-05-02 10:47:49.801,2021-05-02 11:47:49.800,18,0,0,15.217,55.940871,-4.406299,0.00,0.00,0.00,3.90,3.30,-175.70,0,1,0,0,0,0,1918,15217,3077.50,0,P-GPS,1,0,0,0,0,0,0,1619952469800,0,0,0,0,0,0,27,,,,,,,0,0,0,-39.00,33.00,-1757.00,-628.00,0.00,-1628.00,6,502.00,0.00,867.71,0.00,0.00,0.00,0,,,100,100,0,2,0,0,0,2,0,,,,,0.0,0.0,0
55.941084,-4.404964,50.20,0.00,0.00,86.77,50.20,50.20,0.00,86.77,763,2021-05-02 10:47:49.890,2021-05-02 11:47:49.890,18,0,0,15.217,55.940871,-4.406299,0.00,0.00,0.00,3.80,3.10,-175.70,0,1,0,0,0,0,1918,15217,3077.50,0,P-GPS,1,0,0,0,0,0,0,1619952469890,0,0,0,0,0,0,27,,,,,,,0,0,0,-38.00,31.00,-1757.00,-628.00,0.00,-1628.00,6,502.00,0.00,867.70,0.00,0.00,0.00,0,,,100,100,0,2,0,0,0,2,0,,,,,0.0,0.0,0
55.941084,-4.404964,50.10,0.00,0.00,86.77,50.20,50.20,0.00,86.77,849,2021-05-02 10:47:49.976,2021-05-02 11:47:49.976,18,0,0,15.229,55.940871,-4.406299,0.00,0.00,0.00,3.60,2.70,-175.80,0,1,0,56,100,-7165,1916,15229,3077.50,0,P-GPS,1,0,0,0,0,0,0,1619952469976,0,0,0,0,0,0,27,,,,,,,0,0,0,-36.00,27.00,-1758.00,-628.00,0.00,-1628.00,6,501.00,0.00,867.69,0.00,0.00,0.00,0,,,100,100,0,2,0,0,0,2,0,,,,,0.0,0.0,0
55.941084,-4.404964,50.10,0.00,0.00,86.77,50.20,50.20,0.00,86.77,958,2021-05-02 10:47:50.086,2021-05-02 11:47:50.085,18,0,0,15.229,55.940871,-4.406299,0.00,0.00,0.00,3.50,2.60,-175.70,0,1,0,56,100,-7165,1916,15229,3077.50,0,P-GPS,1,0,0,0,0,0,0,1619952470085,0,0,0,0,0,0,27,,,,,,,0,0,0,-35.00,26.00,-1757.00,-628.00,0.00,-1628.00,6,501.00,0.00,867.68,0.00,0.00,0.00,0,,,100,100,0,2,0,0,0,2,0,,,,,0.0,0.0,0
55.941084,-4.404964,50.10,0.00,0.00,86.77,50.20,50.20,0.00,86.77,1106,2021-05-02 10:47:50.233,2021-05-02 11:47:50.233,18,0,0,15.229,55.940871,-4.406299,0.00,0.00,0.00,3.30,2.50,-175.70,0,1,0,56,100,-7165,1916,15229,3077.50,0,P-GPS,1,0,0,0,0,0,0,1619952470233,0,0,0,0,0,0,27,,,,,,,0,0,0,-33.00,25.00,-1757.00,-628.00,0.00,-1628.00,6,501.00,0.00,867.72,0.00,0.00,0.00,0,,,100,100,0,2,0,0,0,2,0,,,,,0.0,0.0,0
55.941084,-4.404964,50.10,0.00,0.00,86.77,50.20,50.20,0.00,86.77,1147,2021-05-02 10:47:50.275,2021-05-02 11:47:50.275,18,0,0,15.229,55.940871,-4.406299,0.00,0.00,0.00,3.30,2.50,-175.70,0,1,0,56,100,-7165,1916,15229,3077.50,0,P-GPS,1,0,0,0,0,0,0,1619952470274,0,0,0,0,0,0,27,,,,,,,0,0,0,-33.00,25.00,-1757.00,-628.00,0.00,-1628.00,6,501.00,0.00,867.72,0.00,0.00,0.00,0,,,100,100,0,2,0,0,0,2,0,,,,,0.0,0.0,0
55.941084,-4.404964,50.20,0.00,0.00,86.77,50.20,50.20,0.00,86.77,1265,2021-05-02 10:47:50.392,2021-05-02 11:47:50.392,18,0,0,15.229,55.940871,-4.406299,0.00,0.00,0.00,3.40,2.90,-175.80,0,1,0,56,100,-7165,1916,15229,3077.50,0,P-GPS,1,0,0,0,0,0,0,1619952470392,0,0,0,0,0,0,27,,,,,,,0,0,0,-34.00,29.00,-1758.00,-628.00,0.00,-1628.00,6,502.00,0.00,867.68,0.00,0.00,0.00,0,,,100,100,0,2,0,0,0,2,0,,,,,0.0,0.0,0
55.941084,-4.404964,50.20,0.00,0.00,86.77,50.20,50.20,0.00,86.77,1351,2021-05-02 10:47:50.478,2021-05-02 11:47:50.478,18,0,0,15.229,55.940871,-4.406299,0.00,0.00,0.00,3.70,3.20,-175.60,0,1,0,56,100,-7165,1916,15229,3077.50,0,P-GPS,1,0,0,0,0,0,0,1619952470478,0,0,0,0,0,0,27,,,,,,,0,0,0,-37.00,32.00,-1756.00,-628.00,0.00,-1628.00,6,502.00,0.00,867.69,0.00,0.00,0.00,0,,,100,100,0,2,0,0,0,2,0,,,,,0.0,0.0,0
55.941084,-4.404964,50.10,0.00,0.00,86.78,50.20,50.20,0.00,86.78,1460,2021-05-02 10:47:50.587,2021-05-02 11:47:50.587,18,0,0,15.229,55.940871,-4.406299,0.00,0.00,0.00,3.60,3.20,-175.70,0,1,0,56,100,-7165,1916,15229,3077.50,0,P-GPS,1,0,0,0,0,0,0,1619952470587,0,0,0,0,0,0,27,,,,,,,0,0,0,-36.00,32.00,-1757.00,-628.00,0.00,-1628.00,6,501.00,0.00,867.77,0.00,0.00,0.00,0,,,100,100,0,2,0,0,0,2,0,,,,,0.0,0.0,0
55.941084,-4.404963,50.10,0.00,0.00,86.78,50.20,50.20,0.00,86.78,1570,2021-05-02 10:47:50.698,2021-05-02 11:47:50.697,18,0,0,15.229,55.940871,-4.406299,0.00,0.00,0.00,3.40,3.30,-175.60,0,1,0,56,100,-7165,1916,15229,3077.50,0,P-GPS,1,0,0,0,0,0,0,1619952470697,0,0,0,0,0,0,27,,,,,,,0,0,0,-34.00,33.00,-1756.00,-628.00,0.00,-1628.00,6,501.00,0.00,867.80,0.00,0.00,0.00,0,,,100,100,0,2,0,0,0,2,0,,,,,0.0,0.0,0
55.941084,-4.404963,50.10,0.00,0.00,86.80,50.20,50.20,0.00,86.80,1752,2021-05-02 10:47:50.879,2021-05-02 11:47:50.879,18,0,0,15.229,55.940871,-4.406299,0.00,0.00,0.00,3.00,3.70,-175.70,0,1,0,56,100,-7165,1916,15229,3077.50,0,P-GPS,1,0,0,0,0,0,0,1619952470879,0,0,0,0,0,0,27,,,,,,,0,0,0,-30.00,37.00,-1757.00,-628.00,0.00,-1628.00,6,501.00,0.00,867.96,0.00,0.00,0.00,0,,,100,100,0,2,0,0,0,2,0,,,,,0.0,0.0,0
55.941084,-4.404963,50.20,0.00,0.00,86.79,50.20,50.20,0.00,86.80,1848,2021-05-02 10:47:50.975,2021-05-02 11:47:50.975,18,0,0,15.229,55.940871,-4.406299,0.00,0.00,0.00,3.00,3.50,-175.80,0,1,0,55,100,-7222,1914,15229,3077.50,4,P-GPS,1,0,0,0,0,0,0,1619952470975,0,0,0,0,0,0,27,,,,,,,0,0,0,-30.00,35.00,-1758.00,-628.00,0.00,-1628.00,6,502.00,0.00,867.91,0.00,0.00,0.00,0,,,100,100,0,2,0,0,0,2,0,,,,,0.0,0.0,0
55.941084,-4.404963,50.10,0.00,0.00,86.79,50.20,50.20,0.00,86.80,1950,2021-05-02 10:47:51.078,2021-05-02 11:47:51.077,18,0,0,15.229,55.940871,-4.406299,0.00,0.00,0.00,3.10,3.30,-175.90,0,1,0,55,100,-7222,1914,15229,3077.50,4,P-GPS,1,0,0,0,0,0,0,1619952471077,0,0,0,0,0,0,27,,,,,,,0,0,0,-31.00,33.00,-1759.00,-628.00,0.00,-1628.00,6,501.00,0.00,867.93,0.00,0.00,0.00,0,,,100,100,0,2,0,0,0,2,0,,,,,0.0,0.0,0
55.941084,-4.404963,50.10,0.00,0.00,86.79,50.20,50.20,0.00,86.80,2051,2021-05-02 10:47:51.179,2021-05-02 11:47:51.178,18,0,0,15.229,55.940871,-4.406299,0.00,0.00,0.00,2.90,3.40,-175.80,0,1,0,55,100,-7222,1914,15229,3077.50,4,P-GPS,1,0,0,0,0,0,0,1619952471178,3820,3811,3807,3789,0,0,27,,,,,,,0,0,0,-29.00,34.00,-1758.00,-628.00,0.00,-1628.00,6,501.00,0.00,867.86,0.00,0.00,0.00,0,,,100,100,0,2,0,0,0,2,0,,,,,0.0,0.0,0
55.941084,-4.404963,50.10,0.00,0.00,86.79,50.20,50.20,0.00,86.80,2192,2021-05-02 10:47:51.319,2021-05-02 11:47:51.319,18,0,0,15.229,55.940871,-4.406299,0.00,0.00,0.00,3.00,3.30,-175.80,0,1,0,55,100,-7222,1914,15229,3077.50,4,P-GPS,1,0,0,0,0,0,0,1619952471319,3820,3811,3807,3789,0,0,27,,,,,,,0,0,0,-30.00,33.00,-1758.00,-628.00,0.00,-1628.00,6,501.00,0.00,867.87,0.00,0.00,0.00,0,,,100,100,0,2,0,0,0,2,0,,,,,0.0,0.0,0
55.941084,-4.404963,50.10,0.00,0.00,86.79,50.20,50.20,0.00,86.80,2249,2021-05-02 10:47:51.376,2021-05-02 11:47:51.376,18,0,0,15.229,55.940871,-4.406299,0.00,0.00,0.00,3.30,3.30,-175.80,0,1,0,55,100,-7222,1914,15229,3077.50,4,P-GPS,1,0,0,0,0,0,0,1619952471376,3820,3811,3807,3789,0,0,27,,,,,,,0,0,0,-33.00,33.00,-1758.00,-628.00,0.00,-1628.00,6,501.00,0.00,867.93,0.00,0.00,0.00,0,,,100,100,0,2,0,0,0,2,0,,,,,0.0,0.0,0
55.941084,-4.404963,50.10,0.00,0.00,86.79,50.20,50.20,0.00,86.80,2359,2021-05-02 10:47:51.486,2021-05-02 11:47:51.486,18,0,0,15.229,55.940871,-4.406299,0.00,0.00,0.00,3.40,3.30,-175.80,0,1,0,55,100,-7222,1914,15229,3077.50,4,P-GPS,1,0,0,0,0,0,0,1619952471486,3820,3811,3807,3789,0,0,27,,,,,,,0,0,0,-34.00,33.00,-1758.00,-628.00,0.00,-1628.00,6,501.00,0.00,867.93,0.00,0.00,0.00,0,,,100,100,0,2,0,0,0,2,0,,,,,0.0,0.0,0
55.941084,-4.404963,50.10,0.00,0.00,86.79,50.20,50.20,0.00,86.80,2462,2021-05-02 10:47:51.589,2021-05-02 11:47:51.589,18,0,0,15.229,55.940871,-4.406299,0.00,0.00,0.00,3.50,3.30,-175.70,0,1,0,55,100,-7222,1914,15229,3077.50,4,P-GPS,1,0,0,0,0,0,0,1619952471589,3820,3811,3807,3789,0,0,27,,,,,,,0,0,0,-35.00,33.00,-1757.00,-628.00,0.00,-1628.00,6,501.00,0.00,867.86,0.00,0.00,0.00,0,,,100,100,0,2,0,0,0,2,0,,,,,0.0,0.0,0
55.941084,-4.404963,50.10,0.00,0.00,86.79,50.20,50.20,0.00,86.80,2551,2021-05-02 10:47:51.679,2021-05-02 11:47:51.678,18,0,0,15.229,55.940871,-4.406299,0.00,0.00,0.00,3.60,3.30,-175.70,0,1,0,55,100,-7222,1914,15229,3077.50,4,P-GPS,1,0,0,0,0,0,0,1619952471678,3820,3811,3807,3789,0,0,27,,,,,,,0,0,0,-36.00,33.00,-1757.00,-628.00,0.00,-1628.00,6,501.00,0.00,867.86,0.00,0.00,0.00,0,,,100,100,0,2,0,0,0,2,0,,,,,0.0,0.0,0
55.941084,-4.404963,50.10,0.00,0.00,86.78,50.20,50.20,0.00,86.80,2662,2021-05-02 10:47:51.790,2021-05-02 11:47:51.790,18,0,0,15.229,55.940871,-4.406299,0.00,0.00,0.00,3.50,3.20,-175.70,0,1,0,55,100,-7222,1914,15229,3077.50,4,P-GPS,1,0,0,0,0,0,0,1619952471789,3820,3811,3807,3789,0,0,27,,,,,,,0,0,0,-35.00,32.00,-1757.00,-628.00,0.00,-1628.00,6,501.00,0.00,867.85,0.00,0.00,0.00,0,,,100,100,0,2,0,0,0,2,0,,,,,0.0,0.0,0
55.941084,-4.404963,50.10,0.00,0.00,86.78,50.20,50.20,0.00,86.80,2747,2021-05-02 10:47:51.874,2021-05-02 11:47:51.874,18,0,0,15.229,55.940871,-4.406299,0.00,0.00,0.00,3.30,3.20,-175.60,0,1,0,55,100,-7222,1914,15229,3077.50,4,P-GPS,1,1,0,0,0,0,0,1619952471874,3820,3811,3807,3789,0,0,27,,,,,,,0,0,0,-33.00,32.00,-1756.00,-628.00,0.00,-1628.00,6,501.00,0.00,867.85,0.00,0.00,0.00,0,,,100,100,0,2,0,0,0,2,0,,,,,0.0,0.0,0
55.941084,-4.404963,50.10,0.00,0.00,86.79,50.20,50.20,0.00,86.80,2854,2021-05-02 10:47:51.981,2021-05-02 11:47:51.981,18,0,0,15.226,55.940871,-4.406299,0.00,0.00,0.00,3.20,3.20,-175.70,0,1,0,55,100,-7128,1912,15226,3077.50,4,P-GPS,1,1,0,0,0,0,0,1619952471981,3820,3811,3807,3789,0,0,27,,,,,,,0,0,0,-32.00,32.00,-1757.00,-628.00,0.00,-1628.00,6,501.00,0.00,867.87,0.00,0.00,0.00,0,,,100,100,0,2,0,0,0,2,0,,,,,0.0,0.0,0
55.941084,-4.404963,50.10,0.00,0.00,86.79,50.20,50.20,0.00,86.80,2952,2021-05-02 10:47:52.079,2021-05-02 11:47:52.079,18,0,0,15.226,55.940871,-4.406299,0.00,0.00,0.00,3.20,3.30,-175.60,0,1,0,55,100,-7128,1912,15226,3077.50,4,P-GPS,1,1,0,0,0,0,0,1619952472079,3820,3811,3807,3789,0,0,27,,,,,,,0,0,0,-32.00,33.00,-1756.00,-628.00,0.00,-1628.00,6,501.00,0.00,867.88,0.00,0.00,0.00,0,,,100,100,0,2,0,0,0,2,0,,,,,0.0,0.0,0
55.941084,-4.404963,50.10,0.00,0.00,86.79,50.20,50.20,0.00,86.80,3058,2021-05-02 10:47:52.185,2021-05-02 11:47:52.185,17,0,0,15.226,55.940871,-4.406299,0.00,0.00,0.00,3.20,3.20,-175.70,0,1,0,55,100,-7128,1912,15226,3077.50,4,P-GPS,1,1,0,0,0,0,0,1619952472185,3820,3811,3807,3789,0,0,27,,,,,,,0,0,0,-32.00,32.00,-1757.00,-628.00,0.00,-1628.00,6,501.00,0.00,867.93,0.00,0.00,0.00,0,,,100,100,0,2,0,0,0,2,0,,,,,0.0,0.0,0
55.941084,-4.404963,50.10,0.00,0.00,86.79,50.20,50.20,0.00,86.80,3154,2021-05-02 10:47:52.282,2021-05-02 11:47:52.281,17,0,0,15.226,55.940871,-4.406299,0.00,0.00,0.00,3.50,3.10,-175.70,0,1,0,55,100,-7128,1912,15226,3077.50,4,P-GPS,1,1,0,0,0,0,0,1619952472281,3820,3811,3807,3789,0,0,27,,,,,,,0,0,0,-35.00,31.00,-1757.00,-628.00,0.00,-1628.00,6,501.00,0.00,867.94,0.00,0.00,0.00,0,,,100,100,0,2,0,0,0,2,0,,,,,0.0,0.0,0
55.941084,-4.404963,50.10,0.00,0.00,86.79,50.20,50.20,0.00,86.80,3249,2021-05-02 10:47:52.376,2021-05-02 11:47:52.376,18,0,0,15.226,55.940871,-4.406299,0.00,0.00,0.00,3.90,3.60,-175.70,0,1,0,55,100,-7128,1912,15226,3077.50,4,P-GPS,1,1,0,0,0,0,0,1619952472376,3820,3811,3807,3789,0,0,27,,,,,,,0,0,0,-39.00,36.00,-1757.00,-628.00,0.00,-1628.00,6,501.00,0.00,867.93,0.00,0.00,0.00,0,,,100,100,0,2,0,0,0,2,0,,,,,0.0,0.0,0
55.941084,-4.404963,50.10,0.00,0.00,86.79,50.20,50.20,0.00,86.80,3370,2021-05-02 10:47:52.497,2021-05-02 11:47:52.497,18,0,0,15.226,55.940871,-4.406299,0.00,0.00,0.00,4.20,3.80,-175.70,0,1,0,55,100,-7128,1912,15226,3077.50,4,P-GPS,1,1,0,0,0,0,0,1619952472497,3820,3811,3807,3789,0,0,27,,,,,,,0,0,0,-42.00,38.00,-1757.00,-628.00,0.00,-1628.00,6,501.00,0.00,867.92,0.00,0.00,0.00,0,,,100,100,0,2,0,0,0,2,0,,,,,0.0,0.0,0
55.941084,-4.404963,50.10,0.00,0.00,86.79,50.20,50.20,0.00,86.80,3550,2021-05-02 10:47:52.677,2021-05-02 11:47:52.677,18,0,0,15.226,55.940871,-4.406299,0.00,0.00,0.00,4.70,3.40,-175.60,0,1,0,55,100,-7128,1912,15226,3077.50,4,P-GPS,1,1,0,0,0,0,0,1619952472677,3820,3811,3807,3789,0,0,27,,,,,,,0,0,0,-47.00,34.00,-1756.00,-628.00,0.00,-1628.00,6,501.00,0.00,867.85,0.00,0.00,0.00,0,,,100,100,0,2,0,0,0,2,0,,,,,0.0,0.0,0
55.941084,-4.404963,50.10,0.00,0.00,86.79,50.20,50.20,0.00,86.80,3645,2021-05-02 10:47:52.772,2021-05-02 11:47:52.772,18,0,0,15.226,55.940871,-4.406299,0.00,0.00,0.00,4.80,3.20,-175.70,0,1,0,55,100,-7128,1912,15226,3077.50,4,P-GPS,1,1,0,0,0,0,0,1619952472772,3820,3811,3807,3789,0,0,27,,,,,,,0,0,0,-48.00,32.00,-1757.00,-628.00,0.00,-1628.00,6,501.00,0.00,867.86,0.00,0.00,0.00,0,,,100,100,0,2,0,0,0,2,0,,,,,0.0,0.0,0
55.941084,-4.404964,50.20,0.00,0.00,86.78,50.20,50.20,0.00,86.80,3755,2021-05-02 10:47:52.883,2021-05-02 11:47:52.882,18,0,0,15.226,55.940871,-4.406299,0.00,0.00,0.00,5.00,3.20,-175.70,0,1,0,55,100,-7128,1912,15226,3077.50,4,P-GPS,1,1,0,0,0,0,0,1619952472882,3820,3811,3807,3789,0,0,27,,,,,,,0,0,0,-50.00,32.00,-1757.00,-628.00,0.00,-1628.00,6,502.00,0.00,867.84,0.00,0.00,0.00,0,,,100,100,0,2,0,0,0,2,0,,,,,0.0,0.0,0
55.941084,-4.404964,50.20,0.00,0.00,86.77,50.20,50.20,0.00,86.80,3870,2021-05-02 10:47:52.997,2021-05-02 11:47:52.997,18,0,0,15.226,55.940871,-4.406299,0.00,0.00,0.00,5.10,3.00,-175.80,0,1,0,55,100,-7122,1912,15226,3077.50,4,P-GPS,1,1,0,0,0,0,0,1619952472997,3820,3811,3807,3789,0,0,27,,,,,,,0,0,0,-51.00,30.00,-1758.00,-628.00,0.00,-1628.00,6,502.00,0.00,867.72,0.00,0.00,0.00,0,,,100,100,0,2,0,0,0,2,0,,,,,0.0,0.0,0
55.941084,-4.404964,50.20,0.00,0.00,86.77,50.20,50.20,0.00,86.80,3973,2021-05-02 10:47:53.100,2021-05-02 11:47:53.100,18,0,0,15.226,55.940871,-4.406299,0.00,0.00,0.00,5.00,3.00,-175.70,0,1,0,55,100,-7122,1912,15226,3077.50,4,P-GPS,1,1,0,0,0,0,0,1619952473100,3820,3811,3807,3789,0,0,27,,,,,,,0,0,0,-50.00,30.00,-1757.00,-628.00,0.00,-1628.00,6,502.00,0.00,867.70,0.00,0.00,0.00,0,,,100,100,0,2,0,0,0,2,0,,,,,0.0,0.0,0
55.941084,-4.404964,50.20,0.00,0.00,86.78,50.20,50.20,0.00,86.80,4088,2021-05-02 10:47:53.215,2021-05-02 11:47:53.215,18,0,0,15.226,55.940871,-4.406299,0.00,0.00,0.00,5.00,3.10,-175.70,0,1,0,55,100,-7122,1912,15226,3077.50,4,P-GPS,1,1,0,0,0,0,0,1619952473215,3820,3811,3807,3789,0,0,27,,,,,,,0,0,0,-50.00,31.00,-1757.00,-628.00,0.00,-1628.00,6,502.00,0.00,867.78,0.00,0.00,0.00,0,,,100,100,0,2,0,0,0,2,0,,,,,0.0,0.0,0
55.941084,-4.404963,50.20,0.00,0.00,86.78,50.20,50.20,0.00,86.80,4274,2021-05-02 10:47:53.405,2021-05-02 11:47:53.404,18,0,0,15.226,55.940871,-4.406299,0.00,0.00,0.00,5.10,3.40,-175.80,0,1,0,55,100,-7122,1912,15226,3077.50,4,P-GPS,1,1,0,0,0,0,0,1619952473401,3820,3811,3807,3789,0,0,27,,,,,,,0,0,0,-51.00,34.00,-1758.00,-628.00,0.00,-1628.00,6,502.00,0.00,867.79,0.00,0.00,0.00,0,,,100,100,0,2,0,0,0,2,0,,,,,0.0,0.0,0
55.941084,-4.404963,50.20,0.00,0.00,86.78,50.20,50.20,0.00,86.80,4475,2021-05-02 10:47:53.602,2021-05-02 11:47:53.602,18,0,0,15.226,55.940871,-4.406299,0.00,0.00,0.00,5.40,3.00,-175.60,0,1,0,55,100,-7122,1912,15226,3077.50,4,P-GPS,1,1,0,0,0,0,0,1619952473602,3820,3811,3807,3789,0,0,27,,,,,,,0,0,0,-54.00,30.00,-1756.00,-628.00,0.00,-1628.00,6,502.00,0.00,867.81,0.00,0.00,0.00,0,,,100,100,0,2,0,0,0,2,0,,,,,0.0,0.0,0
55.941084,-4.404963,50.20,0.00,0.00,86.78,50.20,50.20,0.00,86.80,4563,2021-05-02 10:47:53.690,2021-05-02 11:47:53.690,18,0,0,15.226,55.940871,-4.406299,0.00,0.00,0.00,5.10,3.00,-175.60,0,1,0,55,100,-7122,1912,15226,3077.50,4,P-GPS,1,1,0,0,0,0,0,1619952473690,3820,3811,3807,3789,0,0,27,,,,,,,0,0,0,-51.00,30.00,-1756.00,-628.00,0.00,-1628.00,6,502.00,0.00,867.82,0.00,0.00,0.00,0,,,100,100,0,2,0,0,0,2,0,,,,,0.0,0.0,0
55.941084,-4.404963,50.20,0.00,0.00,86.78,50.20,50.20,0.00,86.80,4650,2021-05-02 10:47:53.777,2021-05-02 11:47:53.777,18,0,0,15.226,55.940871,-4.406299,0.00,0.00,0.00,4.90,3.10,-175.60,0,1,0,55,100,-7122,1912,15226,3077.50,4,P-GPS,1,1,0,0,0,0,0,1619952473777,3820,3811,3807,3789,0,0,27,,,,,,,0,0,0,-49.00,31.00,-1756.00,-628.00,0.00,-1628.00,6,502.00,0.00,867.80,0.00,0.00,0.00,0,,,100,100,0,2,0,0,0,2,0,,,,,0.0,0.0,0
55.941084,-4.404963,50.20,0.00,0.00,86.78,50.20,50.20,0.00,86.80,4758,2021-05-02 10:47:53.886,2021-05-02 11:47:53.885,18,0,0,15.226,55.940871,-4.406299,0.00,0.00,0.00,4.70,3.10,-175.70,0,1,0,55,100,-7122,1912,15226,3077.50,4,P-GPS,1,1,0,0,0,0,0,1619952473885,3820,3811,3807,3789,0,0,27,,,,,,,0,0,0,-47.00,31.00,-1757.00,-628.00,0.00,-1628.00,6,502.00,0.00,867.82,0.00,0.00,0.00,0,,,100,100,0,2,0,0,0,2,0,,,,,0.0,0.0,0
55.941084,-4.404963,50.20,0.00,0.00,86.79,50.20,50.20,0.00,86.80,4850,2021-05-02 10:47:53.978,2021-05-02 11:47:53.978,18,0,0,15.223,55.940871,-4.406299,0.00,0.00,0.00,4.60,3.20,-175.70,0,1,0,55,100,-7122,1908,15223,3077.50,4,P-GPS,1,1,0,0,0,0,0,1619952473977,3820,3811,3807,3789,0,0,27,,,,,,,0,0,0,-46.00,32.00,-1757.00,-628.00,0.00,-1628.00,6,502.00,0.00,867.93,0.00,0.00,0.00,0,,,100,100,0,2,0,0,0,2,0,,,,,0.0,0.0,0
55.941084,-4.404963,50.20,0.00,0.00,86.80,50.20,50.20,0.00,86.80,4949,2021-05-02 10:47:54.076,2021-05-02 11:47:54.076,18,0,0,15.223,55.940871,-4.406299,0.00,0.00,0.00,4.70,3.10,-175.70,0,1,0,55,100,-7122,1908,15223,3077.50,4,P-GPS,1,1,0,0,0,0,0,1619952474076,3820,3811,3807,3789,0,0,27,,,,,,,0,0,0,-47.00,31.00,-1757.00,-628.00,0.00,-1628.00,6,502.00,0.00,867.96,0.00,0.00,0.00,0,,,100,100,0,2,0,0,0,2,0,,,,,0.0,0.0,0
55.941084,-4.404963,50.20,0.00,0.00,86.79,50.20,50.20,0.00,86.80,5080,2021-05-02 10:47:54.208,2021-05-02 11:47:54.208,18,0,0,15.223,55.940871,-4.406299,0.00,0.00,0.00,4.70,3.10,-175.60,0,1,0,55,100,-7122,1908,15223,3077.50,4,P-GPS,1,1,0,0,0,0,0,1619952474207,3820,3811,3807,3789,0,0,27,,,,,,,0,0,0,-47.00,31.00,-1756.00,-628.00,0.00,-1628.00,6,502.00,0.00,867.92,0.00,0.00,0.00,0,,,100,100,0,2,0,0,0,2,0,,,,,0.0,0.0,0
55.941084,-4.404963,50.20,0.00,0.00,86.80,50.20,50.20,0.00,86.80,5253,2021-05-02 10:47:54.381,2021-05-02 11:47:54.380,18,0,0,15.223,55.940871,-4.406299,0.00,0.00,0.00,4.60,3.20,-175.60,0,1,0,55,100,-7122,1908,15223,3077.50,4,P-GPS,1,1,0,0,0,0,0,1619952474380,3820,3811,3807,3789,0,0,27,,,,,,,0,0,0,-46.00,32.00,-1756.00,-628.00,0.00,-1628.00,6,502.00,0.00,868.04,0.00,0.00,0.00,0,,,100,100,0,2,0,0,0,2,0,,,,,0.0,0.0,0
55.941084,-4.404963,50.20,0.00,0.00,86.81,50.20,50.20,0.00,86.81,5372,2021-05-02 10:47:54.499,2021-05-02 11:47:54.499,18,0,0,15.223,55.940871,-4.406299,0.00,0.00,0.00,4.60,3.20,-175.70,0,1,0,55,100,-7122,1908,15223,3077.50,4,P-GPS,1,1,0,0,0,0,0,1619952474499,3820,3811,3807,3789,0,0,27,,,,,,,0,0,0,-46.00,32.00,-1757.00,-628.00,0.00,-1628.00,6,502.00,0.00,868.08,0.00,0.00,0.00,0,,,100,100,0,2,0,0,0,2,0,,,,,0.0,0.0,0
55.941084,-4.404963,50.20,0.00,0.00,86.82,50.20,50.20,0.00,86.82,5465,2021-05-02 10:47:54.592,2021-05-02 11:47:54.592,18,0,0,15.223,55.940871,-4.406299,0.00,0.00,0.00,4.50,3.10,-175.80,0,1,0,55,100,-7122,1908,15223,3077.50,4,P-GPS,1,1,0,0,0,0,0,1619952474592,3820,3811,3807,3789,0,0,27,,,,,,,0,0,0,-45.00,31.00,-1758.00,-628.00,0.00,-1628.00,6,502.00,0.00,868.16,0.00,0.00,0.00,0,,,100,100,0,2,0,0,0,2,0,,,,,0.0,0.0,0
55.941084,-4.404963,50.20,0.00,0.00,86.82,50.20,50.20,0.00,86.82,5553,2021-05-02 10:47:54.680,2021-05-02 11:47:54.680,18,0,0,15.223,55.940871,-4.406299,0.00,0.00,0.00,4.60,3.20,-175.70,0,1,0,55,100,-7122,1908,15223,3077.50,4,P-GPS,1,1,0,0,0,0,0,1619952474680,3820,3811,3807,3789,0,0,27,,,,,,,0,0,0,-46.00,32.00,-1757.00,-628.00,0.00,-1628.00,6,502.00,0.00,868.20,0.00,0.00,0.00,0,,,100,100,0,2,0,0,0,2,0,,,,,0.0,0.0,0
55.941084,-4.404963,50.20,0.00,0.00,86.82,50.20,50.20,0.00,86.82,5648,2021-05-02 10:47:54.775,2021-05-02 11:47:54.775,18,0,0,15.223,55.940871,-4.406299,0.00,0.00,0.00,4.60,3.10,-175.70,0,1,0,55,100,-7122,1908,15223,3077.50,4,P-GPS,1,1,0,0,0,0,0,1619952474775,3820,3811,3807,3789,0,0,27,,,,,,,0,0,0,-46.00,31.00,-1757.00,-628.00,0.00,-1628.00,6,502.00,0.00,868.23,0.00,0.00,0.00,0,,,100,100,0,2,0,0,0,2,0,,,,,0.0,0.0,0
55.941084,-4.404963,50.20,0.00,0.00,86.83,50.20,50.20,0.00,86.83,5764,2021-05-02 10:47:54.891,2021-05-02 11:47:54.891,18,0,0,15.223,55.940871,-4.406299,0.00,0.00,0.00,4.70,3.20,-175.60,0,1,0,55,100,-7122,1908,15223,3077.50,4,P-GPS,1,1,0,0,0,0,0,1619952474891,3820,3811,3807,3789,0,0,27,,,,,,,0,0,0,-47.00,32.00,-1756.00,-628.00,0.00,-1628.00,6,502.00,0.00,868.27,0.00,0.00,0.00,0,,,100,100,0,2,0,0,0,2,0,,,,,0.0,0.0,0
55.941084,-4.404963,50.20,0.00,0.00,86.83,50.20,50.20,0.00,86.83,5977,2021-05-02 10:47:55.105,2021-05-02 11:47:55.104,18,0,0,15.210,55.940871,-4.406299,0.00,0.00,0.00,4.70,3.20,-175.60,0,1,0,55,100,-7246,1906,15210,3077.50,4,P-GPS,1,1,0,0,0,0,0,1619952475104,3820,3811,3807,3789,0,0,27,,,,,,,0,0,0,-47.00,32.00,-1756.00,-628.00,0.00,-1628.00,6,502.00,0.00,868.29,0.00,0.00,0.00,0,,,100,100,0,2,0,0,0,2,0,,,,,0.0,0.0,0
55.941084,-4.404963,50.20,0.00,0.00,86.83,50.20,50.20,0.00,86.83,6092,2021-05-02 10:47:55.220,2021-05-02 11:47:55.219,18,0,0,15.210,55.940871,-4.406299,0.00,0.00,0.00,4.70,3.20,-175.60,0,1,0,55,100,-7246,1906,15210,3077.50,4,P-GPS,1,1,0,0,0,0,0,1619952475219,3820,3811,3807,3789,0,0,27,,,,,,,0,0,0,-47.00,32.00,-1756.00,-628.00,0.00,-1628.00,6,502.00,0.00,868.33,0.00,0.00,0.00,0,,,100,100,0,2,0,0,0,2,0,,,,,0.0,0.0,0
55.941084,-4.404963,50.20,0.00,0.00,86.85,50.20,50.20,0.00,86.85,6257,2021-05-02 10:47:55.384,2021-05-02 11:47:55.384,18,0,0,15.210,55.940871,-4.406299,0.00,0.00,0.00,4.70,3.40,-175.60,0,1,0,55,100,-7246,1906,15210,3077.50,4,P-GPS,1,1,0,0,0,0,0,1619952475384,3820,3811,3807,3789,0,0,27,,,,,,,0,0,0,-47.00,34.00,-1756.00,-628.00,0.00,-1628.00,6,502.00,0.00,868.45,0.00,0.00,0.00,0,,,100,100,0,2,0,0,0,2,0,,,,,0.0,0.0,0
55.941084,-4.404963,50.20,0.00,0.00,86.85,50.20,50.20,0.00,86.85,6370,2021-05-02 10:47:55.497,2021-05-02 11:47:55.497,18,0,0,15.210,55.940871,-4.406299,0.00,0.00,0.00,4.60,3.40,-175.60,0,1,0,55,100,-7246,1906,15210,3077.50,4,P-GPS,1,1,0,0,0,0,0,1619952475497,3820,3811,3807,3789,0,0,27,,,,,,,0,0,0,-46.00,34.00,-1756.00,-628.00,0.00,-1628.00,6,502.00,0.00,868.51,0.00,0.00,0.00,0,,,100,100,0,2,0,0,0,2,0,,,,,0.0,0.0,0
55.941085,-4.404963,50.20,0.00,0.00,86.86,50.20,50.20,0.00,86.86,6463,2021-05-02 10:47:55.590,2021-05-02 11:47:55.590,18,0,0,15.210,55.940871,-4.406299,0.00,0.00,0.00,4.60,3.60,-175.50,0,1,0,55,100,-7246,1906,15210,3077.50,4,P-GPS,1,0,0,0,0,0,0,1619952475590,3820,3811,3807,3789,0,0,27,,,,,,,0,0,0,-46.00,36.00,-1755.00,-628.00,0.00,-1628.00,6,502.00,0.00,868.56,0.00,0.00,0.00,0,,,100,100,0,2,0,0,0,2,0,,,,,0.0,0.0,0
55.941085,-4.404962,50.20,0.00,0.00,86.86,50.20,50.20,0.00,86.86,6561,2021-05-02 10:47:55.688,2021-05-02 11:47:55.688,18,0,0,15.210,55.940871,-4.406299,0.00,0.00,0.00,4.70,3.60,-175.70,0,1,0,55,100,-7246,1906,15210,3077.50,4,P-GPS,1,0,0,0,0,0,0,1619952475688,3820,3811,3807,3789,0,0,27,,,,,,,0,0,0,-47.00,36.00,-1757.00,-628.00,0.00,-1628.00,6,502.00,0.00,868.62,0.00,0.00,0.00,0,,,100,100,0,2,0,0,0,2,0,,,,,0.0,0.0,0
55.941085,-4.404962,50.20,0.00,0.00,86.86,50.20,50.20,0.00,86.86,6648,2021-05-02 10:47:55.775,2021-05-02 11:47:55.775,18,0,0,15.210,55.940871,-4.406299,0.00,0.00,0.00,4.80,3.70,-175.60,0,1,0,55,100,-7246,1906,15210,3077.50,4,P-GPS,1,0,0,0,0,0,0,1619952475775,3820,3811,3807,3789,0,0,27,,,,,,,0,0,0,-48.00,37.00,-1756.00,-628.00,0.00,-1628.00,6,502.00,0.00,868.64,0.00,0.00,0.00,0,,,100,100,0,2,0,0,0,2,0,,,,,0.0,0.0,0
55.941085,-4.404962,50.20,0.00,0.00,86.87,50.20,50.20,0.00,86.87,6758,2021-05-02 10:47:55.885,2021-05-02 11:47:55.885,18,0,0,15.210,55.940871,-4.406299,0.00,0.00,0.00,4.80,3.60,-175.70,0,1,0,55,100,-7246,1906,15210,3077.50,4,P-GPS,1,0,0,0,0,0,0,1619952475885,3820,3811,3807,3789,0,0,27,,,,,,,0,0,0,-48.00,36.00,-1757.00,-628.00,0.00,-1628.00,6,502.00,0.00,868.68,0.00,0.00,0.00,0,,,100,100,0,2,0,0,0,2,0,,,,,0.0,0.0,0
55.941085,-4.404962,50.10,0.00,0.00,86.87,50.20,50.20,0.00,86.87,6880,2021-05-02 10:47:56.007,2021-05-02 11:47:56.007,18,0,0,15.211,55.940871,-4.406299,0.00,0.00,0.00,4.90,3.70,-175.50,0,1,0,55,100,-7337,1904,15211,3077.50,4,P-GPS,1,0,0,0,0,0,0,1619952476007,3820,3811,3807,3789,0,0,27,,,,,,,0,0,0,-49.00,37.00,-1755.00,-628.00,0.00,-1628.00,6,501.00,0.00,868.65,0.00,0.00,0.00,0,,,100,100,0,2,0,0,0,2,0,,,,,0.0,0.0,0
55.941085,-4.404962,50.10,0.00,0.00,86.87,50.20,50.20,0.00,86.87,7052,2021-05-02 10:47:56.179,2021-05-02 11:47:56.179,18,0,0,15.211,55.940871,-4.406299,0.00,0.00,0.00,4.90,3.70,-175.60,0,1,0,55,100,-7337,1904,15211,3077.50,4,P-GPS,1,0,0,0,0,0,0,1619952476179,3820,3811,3807,3789,0,0,27,,,,,,,0,0,0,-49.00,37.00,-1756.00,-628.00,0.00,-1628.00,6,501.00,0.00,868.72,0.00,0.00,0.00,0,,,100,100,0,2,0,0,0,2,0,,,,,0.0,0.0,0
55.941085,-4.404962,50.10,0.00,0.00,86.87,50.20,50.20,0.00,86.87,7146,2021-05-02 10:47:56.273,2021-05-02 11:47:56.273,18,0,0,15.211,55.940871,-4.406299,0.00,0.00,0.00,4.90,3.70,-175.60,0,1,0,55,100,-7337,1904,15211,3077.50,4,P-GPS,1,0,0,0,0,0,0,1619952476273,3820,3811,3807,3789,0,0,27,,,,,,,0,0,0,-49.00,37.00,-1756.00,-628.00,0.00,-1628.00,6,501.00,0.00,868.72,0.00,0.00,0.00,0,,,100,100,0,2,0,0,0,2,0,,,,,0.0,0.0,0
55.941085,-4.404962,50.10,0.00,0.00,86.87,50.20,50.20,0.00,86.87,7265,2021-05-02 10:47:56.392,2021-05-02 11:47:56.392,18,0,0,15.211,55.940871,-4.406299,0.00,0.00,0.00,4.60,3.60,-175.60,0,1,0,55,100,-7337,1904,15211,3077.50,4,P-GPS,1,0,0,0,0,0,0,1619952476392,3820,3811,3807,3789,0,0,27,,,,,,,0,0,0,-46.00,36.00,-1756.00,-628.00,0.00,-1628.00,6,501.00,0.00,868.73,0.00,0.00,0.00,0,,,100,100,0,2,0,0,0,2,0,,,,,0.0,0.0,0
55.941085,-4.404962,50.10,0.00,0.00,86.88,50.20,50.20,0.00,86.88,7375,2021-05-02 10:47:56.502,2021-05-02 11:47:56.502,18,0,0,15.211,55.940871,-4.406299,0.00,0.00,0.00,4.50,3.70,-175.50,0,1,0,55,100,-7337,1904,15211,3077.50,4,P-GPS,1,0,0,0,0,0,0,1619952476502,3820,3811,3807,3789,0,0,27,,,,,,,0,0,0,-45.00,37.00,-1755.00,-628.00,0.00,-1628.00,6,501.00,0.00,868.77,0.00,0.00,0.00,0,,,100,100,0,2,0,0,0,2,0,,,,,0.0,0.0,0
55.941085,-4.404962,50.10,0.00,0.00,86.87,50.20,50.20,0.00,86.88,7568,2021-05-02 10:47:56.695,2021-05-02 11:47:56.695,18,0,0,15.211,55.940871,-4.406299,0.00,0.00,0.00,4.40,3.90,-175.40,0,1,0,55,100,-7337,1904,15211,3077.50,4,P-GPS,1,0,0,0,0,0,0,1619952476695,3820,3811,3807,3789,0,0,27,,,,,,,0,0,0,-44.00,39.00,-1754.00,-628.00,0.00,-1628.00,6,501.00,0.00,868.74,0.00,0.00,0.00,0,,,100,100,0,2,0,0,0,2,0,,,,,0.0,0.0,0
55.941085,-4.404962,50.10,0.00,0.00,86.87,50.20,50.20,0.00,86.88,7661,2021-05-02 10:47:56.788,2021-05-02 11:47:56.788,18,0,0,15.211,55.940871,-4.406299,0.00,0.00,0.00,4.40,3.90,-175.50,0,1,0,55,100,-7337,1904,15211,3077.50,4,P-GPS,1,0,0,0,0,0,0,1619952476788,3820,3811,3807,3789,0,0,27,,,,,,,0,0,0,-44.00,39.00,-1755.00,-628.00,0.00,-1628.00,6,501.00,0.00,868.74,0.00,0.00,0.00,0,,,100,100,0,2,0,0,0,2,0,,,,,0.0,0.0,0
55.941085,-4.404962,50.10,0.00,0.00,86.88,50.20,50.20,0.00,86.88,7749,2021-05-02 10:47:56.876,2021-05-02 11:47:56.876,18,0,0,15.211,55.940871,-4.406299,0.00,0.00,0.00,4.30,4.00,-175.50,0,1,0,55,100,-7337,1904,15211,3077.50,4,P-GPS,1,0,0,0,0,0,0,1619952476876,3820,3811,3807,3789,0,0,27,,,,,,,0,0,0,-43.00,40.00,-1755.00,-628.00,0.00,-1628.00,6,501.00,0.00,868.76,0.00,0.00,0.00,0,,,100,100,0,2,0,0,0,2,0,,,,,0.0,0.0,0
55.941085,-4.404962,50.10,0.00,0.00,86.87,50.20,50.20,0.00,86.88,7849,2021-05-02 10:47:56.976,2021-05-02 11:47:56.976,18,0,0,15.207,55.940871,-4.406299,0.00,0.00,0.00,4.30,3.90,-175.60,0,1,0,55,100,-7433,1901,15207,3077.50,4,P-GPS,1,0,0,0,0,0,0,1619952476976,3820,3811,3807,3789,0,0,27,,,,,,,0,0,0,-43.00,39.00,-1756.00,-628.00,0.00,-1628.00,6,501.00,0.00,868.71,0.00,0.00,0.00,0,,,100,100,0,2,0,0,0,2,0,,,,,0.0,0.0,0
55.941085,-4.404962,50.10,0.00,0.00,86.87,50.20,50.20,0.00,86.88,7956,2021-05-02 10:47:57.083,2021-05-02 11:47:57.083,18,0,0,15.207,55.940871,-4.406299,0.00,0.00,0.00,4.30,3.80,-175.60,0,1,0,55,100,-7433,1901,15207,3077.50,4,P-GPS,1,0,0,0,0,0,0,1619952477083,3820,3811,3807,3789,0,0,27,,,,,,,0,0,0,-43.00,38.00,-1756.00,-628.00,0.00,-1628.00,6,501.00,0.00,868.72,0.00,0.00,0.00,0,,,100,100,0,2,0,0,0,2,0,,,,,0.0,0.0,0
55.941085,-4.404963,50.10,0.00,0.00,86.86,50.20,50.20,0.00,86.88,8062,2021-05-02 10:47:57.189,2021-05-02 11:47:57.189,18,0,0,15.207,55.940871,-4.406299,0.00,0.00,0.00,4.40,3.80,-175.60,0,1,0,55,100,-7433,1901,15207,3077.50,4,P-GPS,1,0,0,0,0,0,0,1619952477189,3820,3811,3807,3789,0,0,27,,,,,,,0,0,0,-44.00,38.00,-1756.00,-628.00,0.00,-1628.00,6,501.00,0.00,868.64,0.00,0.00,0.00,0,,,100,100,0,2,0,0,0,2,0,,,,,0.0,0.0,0
55.941085,-4.404963,50.10,0.00,0.00,86.86,50.20,50.20,0.00,86.88,8166,2021-05-02 10:47:57.293,2021-05-02 11:47:57.293,18,0,0,15.207,55.940871,-4.406299,0.00,0.00,0.00,4.40,3.70,-175.70,0,1,0,55,100,-7433,1901,15207,3077.50,4,P-GPS,1,0,0,0,0,0,0,1619952477293,3820,3811,3807,3789,0,0,27,,,,,,,0,0,0,-44.00,37.00,-1757.00,-628.00,0.00,-1628.00,6,501.00,0.00,868.63,0.00,0.00,0.00,0,,,100,100,0,2,0,0,0,2,0,,,,,0.0,0.0,0
55.941085,-4.404963,50.10,0.00,0.00,86.86,50.20,50.20,0.00,86.88,8259,2021-05-02 10:47:57.386,2021-05-02 11:47:57.386,18,0,0,15.207,55.940871,-4.406299,0.00,0.00,0.00,4.30,3.80,-175.60,0,1,0,55,100,-7433,1901,15207,3077.50,4,P-GPS,1,0,0,0,0,0,0,1619952477386,3820,3811,3807,3789,0,0,27,,,,,,,0,0,0,-43.00,38.00,-1756.00,-628.00,0.00,-1628.00,6,501.00,0.00,868.61,0.00,0.00,0.00,0,,,100,100,0,2,0,0,0,2,0,,,,,0.0,0.0,0
55.941085,-4.404963,50.10,0.00,0.00,86.86,50.20,50.20,0.00,86.88,8349,2021-05-02 10:47:57.476,2021-05-02 11:47:57.476,18,0,0,15.207,55.940871,-4.406299,0.00,0.00,0.00,4.30,3.70,-175.70,0,1,0,55,100,-7433,1901,15207,3077.50,4,P-GPS,1,0,0,0,0,0,0,1619952477476,3820,3811,3807,3789,0,0,27,,,,,,,0,0,0,-43.00,37.00,-1757.00,-628.00,0.00,-1628.00,6,501.00,0.00,868.60,0.00,0.00,0.00,0,,,100,100,0,2,0,0,0,2,0,,,,,0.0,0.0,0
55.941085,-4.404963,50.10,0.00,0.00,86.86,50.20,50.20,0.00,86.88,8470,2021-05-02 10:47:57.597,2021-05-02 11:47:57.597,18,0,0,15.207,55.940871,-4.406299,0.00,0.00,0.00,4.30,3.80,-175.60,0,1,0,55,100,-7433,1901,15207,3077.50,4,P-GPS,1,0,0,0,0,0,0,1619952477597,3820,3811,3807,3789,0,0,27,,,,,,,0,0,0,-43.00,38.00,-1756.00,-628.00,0.00,-1628.00,6,501.00,0.00,868.63,0.00,0.00,0.00,0,,,100,100,0,2,0,0,0,2,0,,,,,0.0,0.0,0
55.941085,-4.404963,50.10,0.00,0.00,86.86,50.20,50.20,0.00,86.88,8557,2021-05-02 10:47:57.684,2021-05-02 11:47:57.684,18,0,0,15.207,55.940871,-4.406299,0.00,0.00,0.00,4.40,3.70,-175.50,0,1,0,55,100,-7433,1901,15207,3077.50,4,P-GPS,1,0,0,0,0,0,0,1619952477684,3820,3811,3807,3789,0,0,27,,,,,,,0,0,0,-44.00,37.00,-1755.00,-628.00,0.00,-1628.00,6,501.00,0.00,868.61,0.00,0.00,0.00,0,,,100,100,0,2,0,0,0,2,0,,,,,0.0,0.0,0
55.941085,-4.404963,50.10,0.00,0.00,86.85,50.20,50.20,0.00,86.88,8653,2021-05-02 10:47:57.781,2021-05-02 11:47:57.780,18,0,0,15.207,55.940871,-4.406299,0.00,0.00,0.00,4.40,3.60,-175.60,0,1,0,55,100,-7433,1901,15207,3077.50,4,P-GPS,1,0,0,0,0,0,0,1619952477780,3820,3811,3807,3789,0,0,27,,,,,,,0,0,0,-44.00,36.00,-1756.00,-628.00,0.00,-1628.00,6,501.00,0.00,868.51,0.00,0.00,0.00,0,,,100,100,0,2,0,0,0,2,0,,,,,0.0,0.0,0
55.941085,-4.404963,50.10,0.00,0.00,86.85,50.20,50.20,0.00,86.88,8760,2021-05-02 10:47:57.887,2021-05-02 11:47:57.887,18,0,0,15.207,55.940871,-4.406299,0.00,0.00,0.00,4.50,3.60,-175.50,0,1,0,55,100,-7433,1901,15207,3077.50,4,P-GPS,1,0,0,0,0,0,0,1619952477887,3820,3811,3807,3789,0,0,27,,,,,,,0,0,0,-45.00,36.00,-1755.00,-628.00,0.00,-1628.00,6,501.00,0.00,868.48,0.00,0.00,0.00,0,,,100,100,0,2,0,0,0,2,0,,,,,0.0,0.0,0
55.941085,-4.404963,50.10,0.00,0.00,86.84,50.20,50.20,0.00,86.88,8849,2021-05-02 10:47:57.976,2021-05-02 11:47:57.976,18,0,0,15.198,55.940871,-4.406299,0.00,0.00,0.00,4.40,3.50,-175.60,0,1,0,55,100,-7660,1897,15198,3077.50,4,P-GPS,1,0,0,0,0,0,0,1619952477976,3820,3811,3807,3789,0,0,27,,,,,,,0,0,0,-44.00,35.00,-1756.00,-628.00,0.00,-1628.00,6,501.00,0.00,868.42,0.00,0.00,0.00,0,,,100,100,0,2,0,0,0,2,0,,,,,0.0,0.0,0
55.941085,-4.404963,50.10,0.00,0.00,86.84,50.20,50.20,0.00,86.88,8955,2021-05-02 10:47:58.082,2021-05-02 11:47:58.082,18,0,0,15.198,55.940871,-4.406299,0.00,0.00,0.00,4.50,3.40,-175.60,0,1,0,55,100,-7660,1897,15198,3077.50,4,P-GPS,1,0,0,0,0,0,0,1619952478082,3820,3811,3807,3789,0,0,27,,,,,,,0,0,0,-45.00,34.00,-1756.00,-628.00,0.00,-1628.00,6,501.00,0.00,868.38,0.00,0.00,0.00,0,,,100,100,0,2,0,0,0,2,0,,,,,0.0,0.0,0
55.941085,-4.404963,50.10,0.00,0.00,86.84,50.20,50.20,0.00,86.88,9058,2021-05-02 10:47:58.188,2021-05-02 11:47:58.187,18,0,0,15.198,55.940871,-4.406299,0.00,0.00,0.00,4.50,3.40,-175.60,0,1,0,55,100,-7660,1897,15198,3077.50,4,P-GPS,1,0,0,0,0,0,0,1619952478185,3820,3811,3807,3789,0,0,27,,,,,,,0,0,0,-45.00,34.00,-1756.00,-628.00,0.00,-1628.00,6,501.00,0.00,868.40,0.00,0.00,0.00,0,,,100,100,0,2,0,0,0,2,0,,,,,0.0,0.0,0
55.941085,-4.404963,50.10,0.00,0.00,86.84,50.20,50.20,0.00,86.88,9157,2021-05-02 10:47:58.284,2021-05-02 11:47:58.284,18,0,0,15.198,55.940871,-4.406299,0.00,0.00,0.00,4.60,3.30,-175.70,0,1,0,55,100,-7660,1897,15198,3077.50,4,P-GPS,1,0,0,0,0,0,0,1619952478284,3820,3811,3807,3789,0,0,27,,,,,,,0,0,0,-46.00,33.00,-1757.00,-628.00,0.00,-1628.00,6,501.00,0.00,868.37,0.00,0.00,0.00,0,,,100,100,0,2,0,0,0,2,0,,,,,0.0,0.0,0
55.941085,-4.404963,50.10,0.00,0.00,86.83,50.20,50.20,0.00,86.88,9248,2021-05-02 10:47:58.375,2021-05-02 11:47:58.375,18,0,0,15.198,55.940871,-4.406299,0.00,0.00,0.00,4.50,3.50,-175.60,0,1,0,55,100,-7660,1897,15198,3077.50,4,P-GPS,1,0,0,0,0,0,0,1619952478375,3820,3811,3807,3789,0,0,27,,,,,,,0,0,0,-45.00,35.00,-1756.00,-628.00,0.00,-1628.00,6,501.00,0.00,868.26,0.00,0.00,0.00,0,,,100,100,0,2,0,0,0,2,0,,,,,0.0,0.0,0
55.941085,-4.404963,50.10,0.00,0.00,86.82,50.20,50.20,0.00,86.88,9351,2021-05-02 10:47:58.478,2021-05-02 11:47:58.478,18,0,0,15.198,55.940871,-4.406299,0.00,0.00,0.00,4.60,3.30,-175.70,0,1,0,55,100,-7660,1897,15198,3077.50,4,P-GPS,1,0,0,0,0,0,0,1619952478478,3820,3811,3807,3789,0,0,27,,,,,,,0,0,0,-46.00,33.00,-1757.00,-628.00,0.00,-1628.00,6,501.00,0.00,868.23,0.00,0.00,0.00,0,,,100,100,0,2,0,0,0,2,0,,,,,0.0,0.0,0
55.941085,-4.404963,50.10,0.00,0.00,86.82,50.20,50.20,0.00,86.88,9453,2021-05-02 10:47:58.580,2021-05-02 11:47:58.580,18,0,0,15.198,55.940871,-4.406299,0.00,0.00,0.00,4.60,3.30,-175.70,0,1,0,55,100,-7660,1897,15198,3077.50,4,P-GPS,1,0,0,0,0,0,0,1619952478580,3820,3811,3807,3789,0,0,27,,,,,,,0,0,0,-46.00,33.00,-1757.00,-628.00,0.00,-1628.00,6,501.00,0.00,868.21,0.00,0.00,0.00,0,,,100,100,0,2,0,0,0,2,0,,,,,0.0,0.0,0
55.941085,-4.404963,50.10,0.00,0.00,86.82,50.20,50.20,0.00,86.88,9549,2021-05-02 10:47:58.676,2021-05-02 11:47:58.676,18,0,0,15.198,55.940871,-4.406299,0.00,0.00,0.00,4.50,3.40,-175.60,0,1,0,55,100,-7660,1897,15198,3077.50,4,P-GPS,1,0,0,0,0,0,0,1619952478676,3820,3811,3807,3789,0,0,27,,,,,,,0,0,0,-45.00,34.00,-1756.00,-628.00,0.00,-1628.00,6,501.00,0.00,868.17,0.00,0.00,0.00,0,,,100,100,0,2,0,0,0,2,0,,,,,0.0,0.0,0
55.941085,-4.404964,50.10,0.00,0.00,86.81,50.20,50.20,0.00,86.88,9650,2021-05-02 10:47:58.777,2021-05-02 11:47:58.777,18,0,0,15.198,55.940871,-4.406299,0.00,0.00,0.00,4.50,3.30,-175.70,0,1,0,55,100,-7660,1897,15198,3077.50,4,P-GPS,1,0,0,0,0,0,0,1619952478777,3820,3811,3807,3789,0,0,27,,,,,,,0,0,0,-45.00,33.00,-1757.00,-628.00,0.00,-1628.00,6,501.00,0.00,868.15,0.00,0.00,0.00,0,,,100,100,0,2,0,0,0,2,0,,,,,0.0,0.0,0
55.941085,-4.404964,50.10,0.00,0.00,86.81,50.20,50.20,0.00,86.88,9749,2021-05-02 10:47:58.877,2021-05-02 11:47:58.877,18,0,0,15.198,55.940871,-4.406299,0.00,0.00,0.00,4.60,3.30,-175.60,0,1,0,55,100,-7660,1897,15198,3077.50,4,P-GPS,1,0,0,0,0,0,0,1619952478876,3820,3811,3807,3789,0,0,27,,,,,,,0,0,0,-46.00,33.00,-1756.00,-628.00,0.00,-1628.00,6,501.00,0.00,868.11,0.00,0.00,0.00,0,,,100,100,0,2,0,0,0,2,0,,,,,0.0,0.0,0
55.941085,-4.404964,50.10,0.00,0.00,86.81,50.20,50.20,0.00,86.88,9849,2021-05-02 10:47:58.976,2021-05-02 11:47:58.976,18,0,0,15.192,55.940871,-4.406299,0.00,0.00,0.00,4.70,3.30,-175.50,0,1,0,55,100,-7720,1895,15192,3077.50,4,P-GPS,1,0,0,0,0,0,0,1619952478976,3820,3811,3807,3789,0,0,27,,,,,,,0,0,0,-47.00,33.00,-1755.00,-628.00,0.00,-1628.00,6,501.00,0.00,868.08,0.00,0.00,0.00,0,,,100,100,0,2,0,0,0,2,0,,,,,0.0,0.0,0
55.941085,-4.404964,50.10,0.00,0.00,86.81,50.20,50.20,0.00,86.88,9954,2021-05-02 10:47:59.081,2021-05-02 11:47:59.081,18,0,0,15.192,55.940871,-4.406299,0.00,0.00,0.00,4.70,3.30,-175.60,0,1,0,55,100,-7720,1895,15192,3077.50,4,P-GPS,1,0,0,0,0,0,0,1619952479081,3820,3811,3807,3789,0,0,27,,,,,,,0,0,0,-47.00,33.00,-1756.00,-628.00,0.00,-1628.00,6,501.00,0.00,868.05,0.00,0.00,0.00,0,,,100,100,0,2,0,0,0,2,0,,,,,0.0,0.0,0
55.941085,-4.404964,50.10,0.00,0.00,86.80,50.20,50.20,0.00,86.88,10050,2021-05-02 10:47:59.178,2021-05-02 11:47:59.177,18,0,0,15.192,55.940871,-4.406299,0.00,0.00,0.00,4.60,3.20,-175.70,0,1,0,55,100,-7720,1895,15192,3077.50,4,P-GPS,1,0,0,0,0,0,0,1619952479177,3820,3811,3807,3789,0,0,27,,,,,,,0,0,0,-46.00,32.00,-1757.00,-628.00,0.00,-1628.00,6,501.00,0.00,868.04,0.00,0.00,0.00,0,,,100,100,0,2,0,0,0,2,0,,,,,0.0,0.0,0
55.941085,-4.404964,50.10,0.00,0.00,86.80,50.20,50.20,0.00,86.88,10148,2021-05-02 10:47:59.275,2021-05-02 11:47:59.275,18,0,0,15.192,55.940871,-4.406299,0.00,0.00,0.00,4.50,3.20,-175.70,0,1,0,55,100,-7720,1895,15192,3077.50,4,P-GPS,1,0,0,0,0,0,0,1619952479275,3820,3811,3807,3789,0,0,27,,,,,,,0,0,0,-45.00,32.00,-1757.00,-628.00,0.00,-1628.00,6,501.00,0.00,868.01,0.00,0.00,0.00,0,,,100,100,0,2,0,0,0,2,0,,,,,0.0,0.0,0
55.941085,-4.404964,50.10,0.00,0.00,86.81,50.20,50.20,0.00,86.88,10266,2021-05-02 10:47:59.393,2021-05-02 11:47:59.393,18,0,0,15.192,55.940871,-4.406299,0.00,0.00,0.00,4.60,3.30,-175.70,0,1,0,55,100,-7720,1895,15192,3077.50,4,P-GPS,1,0,0,0,0,0,0,1619952479393,3820,3811,3807,3789,0,0,27,,,,,,,0,0,0,-46.00,33.00,-1757.00,-628.00,0.00,-1628.00,6,501.00,0.00,868.09,0.00,0.00,0.00,0,,,100,100,0,2,0,0,0,2,0,,,,,0.0,0.0,0
55.941085,-4.404964,50.10,0.00,0.00,86.81,50.20,50.20,0.00,86.88,10354,2021-05-02 10:47:59.481,2021-05-02 11:47:59.481,18,0,0,15.192,55.940871,-4.406299,0.00,0.00,0.00,4.80,3.10,-175.70,0,1,0,55,100,-7720,1895,15192,3077.50,4,P-GPS,1,0,0,0,0,0,0,1619952479481,3820,3811,3807,3789,0,0,27,,,,,,,0,0,0,-48.00,31.00,-1757.00,-628.00,0.00,-1628.00,6,501.00,0.00,868.07,0.00,0.00,0.00,0,,,100,100,0,2,0,0,0,2,0,,,,,0.0,0.0,0
55.941085,-4.404964,50.10,0.00,0.00,86.81,50.20,50.20,0.00,86.88,10483,2021-05-02 10:47:59.610,2021-05-02 11:47:59.610,18,0,0,15.192,55.940871,-4.406299,0.00,0.00,0.00,4.70,3.10,-175.70,0,1,0,55,100,-7720,1895,15192,3077.50,4,P-GPS,1,0,0,0,0,0,0,1619952479610,3820,3811,3807,3789,0,0,27,,,,,,,0,0,0,-47.00,31.00,-1757.00,-628.00,0.00,-1628.00,6,501.00,0.00,868.11,0.00,0.00,0.00,0,,,100,100,0,2,0,0,0,2,0,,,,,0.0,0.0,0
55.941085,-4.404964,50.10,0.00,0.00,86.82,50.20,50.20,0.00,86.88,10664,2021-05-02 10:47:59.791,2021-05-02 11:47:59.791,18,0,0,15.192,55.940871,-4.406299,0.00,0.00,0.00,4.40,3.40,-175.70,0,1,0,55,100,-7720,1895,15192,3077.50,4,P-GPS,1,0,0,0,0,0,0,1619952479791,3820,3811,3807,3789,0,0,27,,,,,,,0,0,0,-44.00,34.00,-1757.00,-627.00,0.00,-1628.00,6,501.00,0.00,868.15,0.00,0.00,0.00,0,,,100,100,0,2,0,0,0,2,0,,,,,0.0,0.0,0
55.941085,-4.404964,50.10,0.00,0.00,86.82,50.20,50.20,0.00,86.88,10768,2021-05-02 10:47:59.895,2021-05-02 11:47:59.895,18,0,0,15.192,55.940871,-4.406299,0.00,0.00,0.00,4.30,3.50,-175.70,0,1,0,55,100,-7720,1895,15192,3077.50,4,P-GPS,1,0,0,0,0,0,0,1619952479895,3820,3811,3807,3789,0,0,27,,,,,,,0,0,0,-43.00,35.00,-1757.00,-627.00,0.00,-1628.00,6,501.00,0.00,868.16,0.00,0.00,0.00,0,,,100,100,0,2,0,0,0,2,0,,,,,0.0,0.0,0
55.941085,-4.404963,50.10,0.00,0.00,86.83,50.20,50.20,0.00,86.88,10962,2021-05-02 10:48:00.089,2021-05-02 11:48:00.089,18,0,0,15.180,55.940871,-4.406299,0.00,0.00,0.00,4.60,3.30,-175.60,0,1,0,55,100,-7847,1893,15180,3077.50,4,P-GPS,1,0,0,0,0,0,0,1619952480089,3820,3811,3807,3789,0,0,27,,,,,,,0,0,0,-46.00,33.00,-1756.00,-627.00,0.00,-1628.00,6,501.00,0.00,868.26,0.00,0.00,0.00,0,,,100,100,0,2,0,0,0,2,0,,,,,0.0,0.0,0
55.941085,-4.404963,50.10,0.00,0.00,86.82,50.20,50.20,0.00,86.88,11055,2021-05-02 10:48:00.182,2021-05-02 11:48:00.182,18,0,0,15.180,55.940871,-4.406299,0.00,0.00,0.00,4.60,3.10,-175.70,0,1,0,55,100,-7847,1893,15180,3077.50,4,P-GPS,1,0,0,0,0,0,0,1619952480182,3820,3811,3807,3789,0,0,27,,,,,,,0,0,0,-46.00,31.00,-1757.00,-627.00,0.00,-1628.00,6,501.00,0.00,868.23,0.00,0.00,0.00,0,,,100,100,0,2,0,0,0,2,0,,,,,0.0,0.0,0
55.941085,-4.404963,50.10,0.00,0.00,86.82,50.20,50.20,0.00,86.88,11147,2021-05-02 10:48:00.274,2021-05-02 11:48:00.274,18,0,0,15.180,55.940871,-4.406299,0.00,0.00,0.00,4.60,3.10,-175.70,0,1,0,55,100,-7847,1893,15180,3077.50,4,P-GPS,1,0,0,0,0,0,0,1619952480274,3820,3811,3807,3789,0,0,27,,,,,,,0,0,0,-46.00,31.00,-1757.00,-627.00,0.00,-1628.00,6,501.00,0.00,868.23,0.00,0.00,0.00,0,,,100,100,0,2,0,0,0,2,0,,,,,0.0,0.0,0
55.941085,-4.404963,50.10,0.00,0.00,86.83,50.20,50.20,0.00,86.88,11259,2021-05-02 10:48:00.386,2021-05-02 11:48:00.386,18,0,0,15.180,55.940871,-4.406299,0.00,0.00,0.00,4.50,3.20,-175.70,0,1,0,55,100,-7847,1893,15180,3077.50,4,P-GPS,1,0,0,0,0,0,0,1619952480386,3820,3811,3807,3789,0,0,27,,,,,,,0,0,0,-45.00,32.00,-1757.00,-627.00,0.00,-1628.00,6,501.00,0.00,868.34,0.00,0.00,0.00,0,,,100,100,0,2,0,0,0,2,0,,,,,0.0,0.0,0
55.941085,-4.404963,50.10,0.00,0.00,86.84,50.20,50.20,0.00,86.88,11352,2021-05-02 10:48:00.479,2021-05-02 11:48:00.479,18,0,0,15.180,55.940871,-4.406299,0.00,0.00,0.00,4.40,3.30,-175.80,0,1,0,55,100,-7847,1893,15180,3077.50,4,P-GPS,1,0,0,0,0,0,0,1619952480479,3820,3811,3807,3789,0,0,27,,,,,,,0,0,0,-44.00,33.00,-1758.00,-627.00,0.00,-1628.00,6,501.00,0.00,868.37,0.00,0.00,0.00,0,,,100,100,0,2,0,0,0,2,0,,,,,0.0,0.0,0
55.941085,-4.404963,50.10,0.00,0.00,86.85,50.20,50.20,0.00,86.88,11448,2021-05-02 10:48:00.575,2021-05-02 11:48:00.575,18,0,0,15.180,55.940871,-4.406299,0.00,0.00,0.00,4.40,3.50,-175.70,0,1,0,55,100,-7847,1893,15180,3077.50,4,P-GPS,1,0,0,0,0,0,0,1619952480575,3820,3811,3807,3789,0,0,27,,,,,,,0,0,0,-44.00,35.00,-1757.00,-627.00,0.00,-1628.00,6,501.00,0.00,868.46,0.00,0.00,0.00,0,,,100,100,0,2,0,0,0,2,0,,,,,0.0,0.0,0
55.941085,-4.404963,50.10,0.00,0.00,86.85,50.20,50.20,0.00,86.88,11552,2021-05-02 10:48:00.679,2021-05-02 11:48:00.679,18,0,0,15.180,55.940871,-4.406299,0.00,0.00,0.00,4.50,3.60,-175.70,0,1,0,55,100,-7847,1893,15180,3077.50,4,P-GPS,1,0,0,0,0,0,0,1619952480679,3820,3811,3807,3789,0,0,27,,,,,,,0,0,0,-45.00,36.00,-1757.00,-627.00,0.00,-1628.00,6,501.00,0.00,868.50,0.00,0.00,0.00,0,,,100,100,0,2,0,0,0,2,0,,,,,0.0,0.0,0
55.941085,-4.404963,50.20,0.00,0.00,86.84,50.20,50.20,0.00,86.88,11648,2021-05-02 10:48:00.775,2021-05-02 11:48:00.775,18,0,0,15.180,55.940871,-4.406299,0.00,0.00,0.00,4.60,3.60,-175.70,0,1,0,55,100,-7847,1893,15180,3077.50,4,P-GPS,1,0,0,0,0,0,0,1619952480775,3820,3811,3807,3789,0,0,27,,,,,,,0,0,0,-46.00,36.00,-1757.00,-627.00,0.00,-1628.00,6,502.00,0.00,868.44,0.00,0.00,0.00,0,,,100,100,0,2,0,0,0,2,0,,,,,0.0,0.0,0
55.941085,-4.404963,50.20,0.00,0.00,86.85,50.20,50.20,0.00,86.88,11762,2021-05-02 10:48:00.890,2021-05-02 11:48:00.889,18,0,0,15.180,55.940871,-4.406299,0.00,0.00,0.00,4.60,3.70,-175.60,0,1,0,55,100,-7847,1893,15180,3077.50,4,P-GPS,1,0,0,0,0,0,0,1619952480889,3820,3811,3807,3789,0,0,27,,,,,,,0,0,0,-46.00,37.00,-1756.00,-627.00,0.00,-1628.00,6,502.00,0.00,868.46,0.00,0.00,0.00,0,,,100,100,0,2,0,0,0,2,0,,,,,0.0,0.0,0
55.941085,-4.404963,50.20,0.00,0.00,86.85,50.20,50.20,0.00,86.88,11856,2021-05-02 10:48:00.983,2021-05-02 11:48:00.983,18,0,0,15.179,55.940871,-4.406299,0.00,0.00,0.00,4.60,3.60,-175.70,0,1,0,55,100,-7851,1891,15179,3077.50,4,P-GPS,1,0,0,0,0,0,0,1619952480983,3820,3811,3807,3789,0,0,27,,,,,,,0,0,0,-46.00,36.00,-1757.00,-627.00,0.00,-1628.00,6,502.00,0.00,868.53,0.00,0.00,0.00,0,,,100,100,0,2,0,0,0,2,0,,,,,0.0,0.0,0
55.941085,-4.404963,50.20,0.00,0.00,86.86,50.20,50.20,0.00,86.88,11960,2021-05-02 10:48:01.087,2021-05-02 11:48:01.087,18,0,0,15.179,55.940871,-4.406299,0.00,0.00,0.00,4.60,3.50,-175.70,0,1,0,55,100,-7851,1891,15179,3077.50,4,P-GPS,1,0,0,0,0,0,0,1619952481087,3820,3811,3807,3789,0,0,27,,,,,,,0,0,0,-46.00,35.00,-1757.00,-627.00,0.00,-1628.00,6,502.00,0.00,868.56,0.00,0.00,0.00,0,,,100,100,0,2,0,0,0,2,0,,,,,0.0,0.0,0
55.941085,-4.404963,50.20,0.00,0.00,86.86,50.20,50.20,0.00,86.88,12051,2021-05-02 10:48:01.178,2021-05-02 11:48:01.178,18,0,0,15.179,55.940871,-4.406299,0.00,0.00,0.00,4.50,3.50,-175.70,0,1,0,55,100,-7851,1891,15179,3077.50,4,P-GPS,1,0,0,0,0,0,0,1619952481178,3820,3811,3807,3789,0,0,27,,,,,,,0,0,0,-45.00,35.00,-1757.00,-627.00,0.00,-1628.00,6,502.00,0.00,868.60,0.00,0.00,0.00,0,,,100,100,0,2,0,0,0,2,0,,,,,0.0,0.0,0
55.941085,-4.404963,50.20,0.00,0.00,86.86,50.20,50.20,0.00,86.88,12151,2021-05-02 10:48:01.278,2021-05-02 11:48:01.278,18,0,0,15.179,55.940871,-4.406299,0.00,0.00,0.00,4.40,3.60,-175.60,0,1,0,55,100,-7851,1891,15179,3077.50,4,P-GPS,1,0,0,0,0,0,0,1619952481278,3807,3799,3796,3777,0,0,27,,,,,,,0,0,0,-44.00,36.00,-1756.00,-627.00,0.00,-1628.00,6,502.00,0.00,868.63,0.00,0.00,0.00,0,,,100,100,0,2,0,0,0,2,0,,,,,0.0,0.0,0
55.941085,-4.404963,50.20,0.00,0.00,86.86,50.20,50.20,0.00,86.88,12271,2021-05-02 10:48:01.398,2021-05-02 11:48:01.398,18,0,0,15.179,55.940871,-4.406299,0.00,0.00,0.00,4.40,3.60,-175.70,0,1,0,55,100,-7851,1891,15179,3077.50,4,P-GPS,1,0,0,0,0,0,0,1619952481398,3807,3799,3796,3777,0,0,27,,,,,,,0,0,0,-44.00,36.00,-1757.00,-627.00,0.00,-1628.00,6,502.00,0.00,868.58,0.00,0.00,0.00,0,,,100,100,0,2,0,0,0,2,0,,,,,0.0,0.0,0
55.941085,-4.404963,50.20,0.00,0.00,86.86,50.20,50.20,0.00,86.88,12453,2021-05-02 10:48:01.580,2021-05-02 11:48:01.580,18,0,0,15.179,55.940871,-4.406299,0.00,0.00,0.00,4.30,3.70,-175.70,0,1,0,55,100,-7851,1891,15179,3077.50,4,P-GPS,1,0,0,0,0,0,0,1619952481580,3807,3799,3796,3777,0,0,27,,,,,,,0,0,0,-43.00,37.00,-1757.00,-627.00,0.00,-1628.00,6,502.00,0.00,868.62,0.00,0.00,0.00,0,,,100,100,0,2,0,0,0,2,0,,,,,0.0,0.0,0
55.941085,-4.404963,50.20,0.00,0.00,86.86,50.20,50.20,0.00,86.88,12561,2021-05-02 10:48:01.688,2021-05-02 11:48:01.688,18,0,0,15.179,55.940871,-4.406299,0.00,0.00,0.00,4.30,3.70,-175.70,0,1,0,55,100,-7851,1891,15179,3077.50,4,P-GPS,1,0,0,0,0,0,0,1619952481688,3807,3799,3796,3777,0,0,27,,,,,,,0,0,0,-43.00,37.00,-1757.00,-627.00,0.00,-1628.00,6,502.00,0.00,868.65,0.00,0.00,0.00,0,,,100,100,0,2,0,0,0,2,0,,,,,0.0,0.0,0
55.941085,-4.404963,50.20,0.00,0.00,86.86,50.20,50.20,0.00,86.88,12656,2021-05-02 10:48:01.783,2021-05-02 11:48:01.783,18,0,0,15.179,55.940871,-4.406299,0.00,0.00,0.00,4.10,3.80,-175.80,0,1,0,55,100,-7851,1891,15179,3077.50,4,P-GPS,1,0,0,0,0,0,0,1619952481783,3807,3799,3796,3777,0,0,27,,,,,,,0,0,0,-4