latitude,longitude,altitude(m),ultrasonicHeight(m),speed(mps),distance(m),max_altitude(m),max_ascent(m),max_speed(mps),max_distance(m),time(millisecond),datetime(utc),datetime(local),satellites,pressure(Pa),temperature(F),voltage(v),home_latitude,home_longitude,velocityX(mps),velocityY(mps),velocityZ(mps),pitch(deg),roll(deg),yaw(deg),powerlevel,isflying,istakingphoto,remainPowerPercent,remainLifePercent,currentCurrent,currentElectricity,currentVoltage,batteryTemperature,dischargeCount,flightmode,isMotorsOn,isTakingVideo,Rc_elevator,Rc_aileron,Rc_throttle,Rc_rudder,Rc_gyro,timestamp,Battery_Cell1,Battery_Cell2,Battery_Cell3,Battery_Cell4,Battery_Cell5,Battery_Cell6,Dronetype,AppVersion,Planename,FlyControllerSerialNumber,RemoteSerialNumber,BatterySerialNumber,CENTER_BATTERY.productDate,CENTER_BATTERY.serialNo,CENTER_BATTERY.fullCapacity,CENTER_BATTERY.productDateRaw,pitchRaw,rollRaw,yawRaw,gimbalPitchRaw,gimbalRollRaw,gimbalYawRaw,flyState,altitudeRaw,speedRaw,distanceRaw,velocityXRaw,velocityYRaw,velocityZRaw,data_reuse,App_Tip,App_Warning,downlinkSignalQuality,uplinkSignalQuality,transmissionChannel,rcModeSwitch,rcHome,rcPause,rcTransform,rcJoystickMode,appMode,FlyControllerSerialNumber_legacy,RemoteSerialNumber_legacy,BatterySerialNumber_legacy,Battery2SerialNumber,frontAvoidDist,backAvoidDist,isBrakingToAvoid
55.937777,-4.406355,0.50,0.50,0.71,8.27,0.50,0.50,0.71,8.27,0,2021-04-17 12:05:25.986,2021-04-17 13:05:25.986,13,0,0,16.852,55.937778,-4.406356,0.10,0.00,-0.70,-0.20,2.40,118.10,0,1,0,99,100,-2983,3570,16852,2940.50,0,P-GPS,1,0,0,0,312,0,0,1618661125986,4313,4304,4319,4315,0,0,27,Litchi_4.18.0-g,CJTMAVIC,163DFAS001K45C,0VECFAK0072T52,0P2AFAL5340E87,,0,0,0,2.00,24.00,1181.00,0.00,0.00,1192.00,6,5.00,7.07,82.67,1.00,0.00,-7.00,0,,,100,100,0,2,0,0,0,2,2,,,,null,0.0,8.0,0
55.937777,-4.406355,0.60,0.60,0.71,8.16,0.60,0.60,0.71,8.27,100,2021-04-17 12:05:26.086,2021-04-17 13:05:26.086,13,0,0,16.852,55.937778,-4.406356,0.10,0.00,-0.70,-0.30,2.50,118.20,0,1,0,99,100,-2983,3570,16852,2940.50,0,P-GPS,1,0,0,0,307,0,0,1618661126086,4313,4304,4319,4315,0,0,27,,,,,,,0,0,0,3.00,25.00,1182.00,0.00,0.00,1192.00,6,6.00,7.07,81.56,1.00,0.00,-7.00,0,,,100,100,0,2,0,0,0,2,2,,,,,0.0,8.0,0
55.937777,-4.406354,0.70,0.70,0.81,8.14,0.70,0.70,0.81,8.27,199,2021-04-17 12:05:26.185,2021-04-17 13:05:26.185,13,0,0,16.852,55.937778,-4.406356,0.10,0.00,-0.80,-0.50,2.60,118.30,0,1,0,99,100,-2983,3570,16852,2940.50,0,P-GPS,1,0,0,0,297,0,0,1618661126185,4313,4304,4319,4315,0,0,27,,,,,,,0,0,0,5.00,26.00,1183.00,0.00,0.00,1192.00,6,7.00,8.06,81.44,1.00,0.00,-8.00,0,,,100,100,0,2,0,0,0,2,2,,,,,0.0,8.0,0
55.937777,-4.406354,0.70,0.80,0.71,8.14,0.70,0.70,0.81,8.27,300,2021-04-17 12:05:26.286,2021-04-17 13:05:26.286,13,0,0,16.852,55.937778,-4.406356,0.10,0.00,-0.70,-0.60,3.10,118.30,0,1,0,99,100,-2983,3570,16852,2940.50,0,P-GPS,1,0,0,0,295,0,0,1618661126286,4313,4304,4319,4315,0,0,27,,,,,,,0,0,0,6.00,31.00,1183.00,0.00,0.00,1192.00,6,7.00,7.07,81.44,1.00,0.00,-7.00,0,,,100,100,0,2,0,0,0,2,2,,,,,0.0,8.2,0
55.937777,-4.406354,0.80,0.90,0.70,8.16,0.80,0.80,0.81,8.27,418,2021-04-17 12:05:26.404,2021-04-17 13:05:26.404,13,0,0,16.410,55.937778,-4.406356,0.00,0.00,-0.70,-0.40,2.90,118.30,0,1,0,99,100,-6883,3570,16410,2940.50,0,P-GPS,1,0,0,0,295,0,0,1618661126404,4313,4304,4319,4315,0,0,27,,,,,,,0,0,0,4.00,29.00,1183.00,0.00,0.00,1192.00,6,8.00,7.00,81.62,0.00,0.00,-7.00,0,,,100,100,0,2,0,0,0,2,2,,,,,0.0,8.2,0
55.937777,-4.406354,1.00,1.00,0.70,8.16,1.00,1.00,0.81,8.27,614,2021-04-17 12:05:26.600,2021-04-17 13:05:26.600,13,0,0,16.410,55.937778,-4.406356,0.00,0.00,-0.70,-0.40,3.00,118.50,0,1,0,99,100,-6883,3570,16410,2940.50,0,P-GPS,1,0,0,0,298,0,0,1618661126600,4313,4304,4319,4315,0,0,27,,,,,,,0,0,0,4.00,30.00,1185.00,0.00,0.00,1192.00,6,10.00,7.00,81.58,0.00,0.00,-7.00,0,,,100,100,0,2,0,0,0,2,2,,,,,0.0,0.0,0
55.937777,-4.406354,1.00,1.10,0.70,8.16,1.00,1.00,0.81,8.27,709,2021-04-17 12:05:26.696,2021-04-17 13:05:26.695,13,0,0,16.410,55.937778,-4.406356,0.00,0.00,-0.70,-0.10,3.20,118.50,0,1,0,99,100,-6883,3570,16410,2940.50,0,P-GPS,1,0,0,0,316,0,0,1618661126695,4313,4304,4319,4315,0,0,27,,,,,,,0,0,0,1.00,32.00,1185.00,0.00,0.00,1192.00,6,10.00,7.00,81.60,0.00,0.00,-7.00,0,,,100,100,0,2,0,0,0,2,2,,,,,0.0,0.0,0
55.937777,-4.406354,1.10,1.20,0.70,8.12,1.10,1.10,0.81,8.27,804,2021-04-17 12:05:26.791,2021-04-17 13:05:26.790,13,0,0,16.410,55.937778,-4.406356,0.00,0.00,-0.70,-0.30,3.50,118.50,0,1,0,99,100,-6883,3570,16410,2940.50,0,P-GPS,1,0,0,0,332,0,0,1618661126790,4313,4304,4319,4315,0,0,27,,,,,,,0,0,0,3.00,35.00,1185.00,0.00,0.00,1192.00,6,11.00,7.00,81.23,0.00,0.00,-7.00,0,,,100,100,0,2,0,0,0,2,2,,,,,0.0,0.0,0
55.937777,-4.406354,1.20,1.20,0.70,8.07,1.20,1.20,0.81,8.27,926,2021-04-17 12:05:26.912,2021-04-17 13:05:26.912,13,0,0,16.410,55.937778,-4.406356,0.00,0.00,-0.80,-0.30,3.60,118.40,0,1,0,99,100,-6883,3570,16410,2940.50,0,P-GPS,1,0,0,0,339,0,0,1618661126912,4313,4304,4319,4315,0,0,27,,,,,,,0,0,0,3.00,36.00,1184.00,0.00,0.00,1192.00,6,12.00,7.00,80.70,0.00,0.00,-8.00,0,,,100,100,0,2,0,0,0,2,2,,,,,0.0,0.0,0
55.937777,-4.406354,1.40,1.40,0.80,8.11,1.40,1.40,0.81,8.27,1104,2021-04-17 12:05:27.090,2021-04-17 13:05:27.090,13,0,0,16.410,55.937778,-4.406356,0.00,0.00,-0.80,-0.30,3.80,118.40,0,1,0,99,100,-6883,3570,16410,2940.50,0,P-GPS,1,0,0,0,380,0,0,1618661127090,4313,4304,4319,4315,0,0,27,,,,,,,0,0,0,3.00,38.00,1184.00,0.00,0.00,1192.00,6,14.00,8.00,81.06,0.00,0.00,-8.00,0,,,100,100,0,2,0,0,0,2,2,,,,,0.0,0.0,0
55.937777,-4.406354,1.40,1.50,0.90,8.05,1.40,1.40,0.90,8.27,1212,2021-04-17 12:05:27.198,2021-04-17 13:05:27.198,13,0,0,16.410,55.937778,-4.406356,0.00,0.00,-0.90,-0.50,3.80,118.40,0,1,0,99,100,-6883,3570,16410,2940.50,0,P-GPS,1,0,0,0,397,0,0,1618661127198,4313,4304,4319,4315,0,0,27,,,,,,,0,0,0,5.00,38.00,1184.00,0.00,0.00,1192.00,6,14.00,9.00,80.47,0.00,0.00,-9.00,0,,,100,100,0,2,0,0,0,2,2,,,,,0.0,0.0,0
55.937777,-4.406354,1.50,1.60,1.10,8.04,1.50,1.50,1.10,8.27,1318,2021-04-17 12:05:27.304,2021-04-17 13:05:27.304,13,0,0,16.410,55.937778,-4.406356,0.00,0.00,-1.10,-0.60,3.70,118.30,0,1,0,99,100,-6883,3570,16410,2940.50,0,P-GPS,1,0,0,0,400,0,0,1618661127304,4313,4304,4319,4315,0,0,27,,,,,,,0,0,0,6.00,37.00,1183.00,0.00,0.00,1192.00,6,15.00,11.00,80.44,0.00,0.00,-11.00,0,,,100,100,0,2,0,0,0,2,2,,,,,0.0,0.0,0
55.937777,-4.406353,1.80,1.80,1.30,8.11,1.80,1.80,1.30,8.27,1510,2021-04-17 12:05:27.496,2021-04-17 13:05:27.496,13,0,0,16.397,55.937778,-4.406356,0.00,0.00,-1.30,-0.60,4.00,118.40,0,1,0,99,100,-7028,3570,16397,2941.50,0,P-GPS,1,0,0,0,394,0,0,1618661127496,4313,4304,4319,4315,0,0,27,,,,,,,0,0,0,6.00,40.00,1184.00,0.00,0.00,1192.00,6,18.00,13.00,81.11,0.00,0.00,-13.00,0,,,100,100,0,2,0,0,0,2,2,,,,,0.0,0.0,0
55.937777,-4.406354,1.90,2.00,1.30,8.05,1.90,1.90,1.30,8.27,1606,2021-04-17 12:05:27.593,2021-04-17 13:05:27.592,13,0,0,16.397,55.937778,-4.406356,0.00,0.00,-1.30,-0.40,4.30,118.40,0,1,0,99,100,-7028,3570,16397,2941.50,0,P-GPS,1,0,0,0,391,0,0,1618661127592,4313,4304,4319,4315,0,0,27,,,,,,,0,0,0,4.00,43.00,1184.00,0.00,0.00,1192.00,6,19.00,13.00,80.50,0.00,0.00,-13.00,0,,,100,100,0,2,0,0,0,2,2,,,,,0.0,0.0,0
55.937777,-4.406354,2.10,2.10,1.30,8.05,2.10,2.10,1.30,8.27,1716,2021-04-17 12:05:27.703,2021-04-17 13:05:27.702,13,0,0,16.397,55.937778,-4.406356,0.00,0.00,-1.30,-0.30,4.40,118.40,0,1,0,99,100,-7028,3570,16397,2941.50,0,P-GPS,1,0,0,0,390,0,0,1618661127702,4313,4304,4319,4315,0,0,27,,,,,,,0,0,0,3.00,44.00,1184.00,0.00,0.00,1192.00,6,21.00,13.00,80.48,0.00,0.00,-13.00,0,,,100,100,0,2,0,0,0,2,2,,,,,0.0,0.0,0
55.937778,-4.406354,2.20,2.20,1.30,8.01,2.20,2.20,1.30,8.27,1809,2021-04-17 12:05:27.795,2021-04-17 13:05:27.795,13,0,0,16.397,55.937778,-4.406356,0.00,0.00,-1.30,-0.50,4.20,118.40,0,1,0,99,100,-7028,3570,16397,2941.50,0,P-GPS,1,0,0,0,389,0,0,1618661127795,4313,4304,4319,4315,0,0,27,,,,,,,0,0,0,5.00,42.00,1184.00,0.00,0.00,1192.00,6,22.00,13.00,80.07,0.00,0.00,-13.00,0,,,100,100,0,2,0,0,0,2,2,,,,,0.0,0.0,0
55.937778,-4.406354,2.30,2.40,1.30,8.00,2.30,2.30,1.30,8.27,1910,2021-04-17 12:05:27.896,2021-04-17 13:05:27.896,13,0,0,16.397,55.937778,-4.406356,0.00,0.00,-1.30,-0.40,4.00,118.40,0,1,0,99,100,-7028,3570,16397,2941.50,0,P-GPS,1,0,0,0,388,0,0,1618661127896,4313,4304,4319,4315,0,0,27,,,,,,,0,0,0,4.00,40.00,1184.00,0.00,0.00,1192.00,6,23.00,13.00,80.02,0.00,0.00,-13.00,0,,,100,100,0,2,0,0,0,2,2,,,,,0.0,0.0,0
55.937778,-4.406354,2.50,2.50,1.30,8.02,2.50,2.50,1.30,8.27,2005,2021-04-17 12:05:27.991,2021-04-17 13:05:27.991,13,0,0,16.397,55.937778,-4.406356,0.00,0.00,-1.30,-0.50,3.90,118.40,0,1,0,99,100,-7028,3570,16397,2941.50,0,P-GPS,1,0,0,0,386,0,0,1618661127991,4080,4057,4075,4099,0,0,27,,,,,,,0,0,0,5.00,39.00,1184.00,0.00,0.00,1192.00,6,25.00,13.00,80.15,0.00,0.00,-13.00,0,,,100,100,0,2,0,0,0,2,2,,,,,0.0,0.0,0
55.937778,-4.406354,2.60,2.60,1.30,8.01,2.60,2.60,1.30,8.27,2135,2021-04-17 12:05:28.121,2021-04-17 13:05:28.121,13,0,0,16.397,55.937778,-4.406356,0.00,0.00,-1.30,-0.30,3.60,118.40,0,1,0,99,100,-7028,3570,16397,2941.50,0,P-GPS,1,0,0,0,385,0,0,1618661128121,4080,4057,4075,4099,0,0,27,,,,,,,0,0,0,3.00,36.00,1184.00,0.00,0.00,1192.00,6,26.00,13.00,80.12,0.00,0.00,-13.00,0,,,100,100,0,2,0,0,0,2,2,,,,,0.0,0.0,0
55.937777,-4.406354,2.70,2.80,1.30,8.03,2.70,2.70,1.30,8.27,2201,2021-04-17 12:05:28.187,2021-04-17 13:05:28.187,13,0,0,16.397,55.937778,-4.406356,0.00,0.00,-1.30,-0.60,3.50,118.40,0,1,0,99,100,-7028,3570,16397,2941.50,0,P-GPS,1,0,0,0,385,0,0,1618661128187,4080,4057,4075,4099,0,0,27,,,,,,,0,0,0,6.00,35.00,1184.00,0.00,0.00,1192.00,6,27.00,13.00,80.31,0.00,0.00,-13.00,0,,,100,100,0,2,0,0,0,2,2,,,,,0.0,0.0,0
55.937777,-4.406354,2.90,2.90,1.20,8.03,2.90,2.90,1.30,8.27,2306,2021-04-17 12:05:28.292,2021-04-17 13:05:28.292,13,0,0,16.397,55.937778,-4.406356,0.00,0.00,-1.20,-0.70,3.50,118.50,0,1,0,99,100,-7028,3570,16397,2941.50,0,P-GPS,1,0,0,0,374,0,0,1618661128292,4080,4057,4075,4099,0,0,27,,,,,,,0,0,0,7.00,35.00,1185.00,0.00,0.00,1192.00,6,29.00,12.00,80.29,0.00,0.00,-12.00,0,,,100,100,0,2,0,0,0,2,2,,,,,0.0,0.0,0
55.937778,-4.406354,3.00,3.00,1.20,8.02,3.00,3.00,1.30,8.27,2405,2021-04-17 12:05:28.391,2021-04-17 13:05:28.391,13,0,0,16.311,55.937778,-4.406356,0.00,0.00,-1.20,-1.00,3.40,118.50,0,1,0,99,100,-7550,3570,16311,2941.50,0,P-GPS,1,0,0,0,367,0,0,1618661128391,4080,4057,4075,4099,0,0,27,,,,,,,0,0,0,10.00,34.00,1185.00,0.00,0.00,1192.00,6,30.00,12.00,80.20,0.00,0.00,-12.00,0,,,100,100,0,2,0,0,0,2,2,,,,,0.0,0.0,0
55.937778,-4.406354,3.10,3.20,1.10,8.02,3.10,3.10,1.30,8.27,2509,2021-04-17 12:05:28.496,2021-04-17 13:05:28.495,13,0,0,16.311,55.937778,-4.406356,0.00,0.00,-1.10,-1.10,3.30,118.50,0,1,0,99,100,-7550,3570,16311,2941.50,0,P-GPS,1,0,0,0,366,0,0,1618661128495,4080,4057,4075,4099,0,0,27,,,,,,,0,0,0,11.00,33.00,1185.00,0.00,0.00,1192.00,6,31.00,11.00,80.16,0.00,0.00,-11.00,0,,,100,100,0,2,0,0,0,2,2,,,,,0.0,0.0,0
55.937777,-4.406354,3.20,3.30,1.10,8.05,3.20,3.20,1.30,8.27,2612,2021-04-17 12:05:28.598,2021-04-17 13:05:28.598,13,0,0,16.311,55.937778,-4.406356,0.00,0.00,-1.10,-1.30,3.40,118.50,0,1,0,99,100,-7550,3570,16311,2941.50,0,P-GPS,1,0,0,0,365,0,0,1618661128598,4080,4057,4075,4099,0,0,27,,,,,,,0,0,0,13.00,34.00,1185.00,0.00,0.00,1192.00,6,32.00,11.00,80.52,0.00,0.00,-11.00,0,,,100,100,0,2,0,0,0,2,2,,,,,0.0,0.0,0
55.937777,-4.406355,3.30,3.40,1.10,8.05,3.30,3.30,1.30,8.27,2715,2021-04-17 12:05:28.701,2021-04-17 13:05:28.701,13,0,0,16.311,55.937778,-4.406356,0.00,0.00,-1.10,-1.40,3.30,118.40,0,1,0,99,100,-7550,3570,16311,2941.50,0,P-GPS,1,0,0,0,364,0,0,1618661128701,4080,4057,4075,4099,0,0,27,,,,,,,0,0,0,14.00,33.00,1184.00,0.00,0.00,1192.00,6,33.00,11.00,80.51,0.00,0.00,-11.00,0,,,100,100,0,2,0,0,0,2,2,,,,,0.0,0.0,0
55.937777,-4.406355,3.50,3.50,1.10,8.04,3.50,3.50,1.30,8.27,2823,2021-04-17 12:05:28.809,2021-04-17 13:05:28.809,13,0,0,16.311,55.937778,-4.406356,0.00,0.00,-1.10,-1.50,3.10,118.40,0,1,0,99,100,-7550,3570,16311,2941.50,0,P-GPS,1,0,0,0,363,0,0,1618661128809,4080,4057,4075,4099,0,0,27,,,,,,,0,0,0,15.00,31.00,1184.00,0.00,0.00,1192.00,6,35.00,11.00,80.38,0.00,0.00,-11.00,0,,,100,100,0,2,0,0,0,2,2,,,,,0.0,0.0,0
55.937778,-4.406355,3.70,3.70,1.00,7.98,3.70,3.70,1.30,8.27,3001,2021-04-17 12:05:28.987,2021-04-17 13:05:28.987,13,0,0,16.311,55.937778,-4.406356,0.00,0.00,-1.00,-1.90,2.90,118.40,0,1,0,99,100,-7550,3570,16311,2941.50,0,P-GPS,1,0,0,0,364,0,0,1618661128987,4080,4057,4075,4099,0,0,27,,,,,,,0,0,0,19.00,29.00,1184.00,0.00,0.00,1192.00,6,37.00,10.00,79.84,0.00,0.00,-10.00,0,,,100,100,0,2,0,0,0,2,2,,,,,0.0,0.0,0
55.937778,-4.406355,3.80,3.80,1.00,7.98,3.80,3.80,1.30,8.27,3104,2021-04-17 12:05:29.090,2021-04-17 13:05:29.090,13,0,0,16.311,55.937778,-4.406356,0.00,0.00,-1.00,-2.00,3.00,118.40,0,1,0,99,100,-7550,3570,16311,2941.50,0,P-GPS,1,0,0,0,363,0,0,1618661129090,4080,4057,4075,4099,0,0,27,,,,,,,0,0,0,20.00,30.00,1184.00,0.00,0.00,1192.00,6,38.00,10.00,79.82,0.00,0.00,-10.00,0,,,100,100,0,2,0,0,0,2,2,,,,,0.0,0.0,0
55.937777,-4.406355,3.90,3.90,1.00,8.01,3.90,3.90,1.30,8.27,3221,2021-04-17 12:05:29.207,2021-04-17 13:05:29.207,13,0,0,16.311,55.937778,-4.406356,0.00,0.00,-1.00,-1.90,3.20,118.40,0,1,0,99,100,-7550,3570,16311,2941.50,0,P-GPS,1,0,0,0,363,0,0,1618661129207,4080,4057,4075,4099,0,0,27,,,,,,,0,0,0,19.00,32.00,1184.00,0.00,0.00,1192.00,6,39.00,10.00,80.14,0.00,0.00,-10.00,0,,,100,100,0,2,0,0,0,2,2,,,,,0.0,0.0,0
55.937777,-4.406355,4.00,4.00,1.00,8.01,4.00,4.00,1.30,8.27,3316,2021-04-17 12:05:29.302,2021-04-17 13:05:29.302,13,0,0,16.311,55.937778,-4.406356,0.00,0.00,-1.00,-2.00,3.20,118.40,0,1,0,99,100,-7550,3570,16311,2941.50,0,P-GPS,1,0,0,0,365,0,0,1618661129302,4080,4057,4075,4099,0,0,27,,,,,,,0,0,0,20.00,32.00,1184.00,0.00,0.00,1192.00,6,40.00,10.00,80.11,0.00,0.00,-10.00,0,,,100,100,0,2,0,0,0,2,2,,,,,0.0,0.0,0
55.937777,-4.406355,4.10,4.10,1.00,8.03,4.10,4.10,1.30,8.27,3407,2021-04-17 12:05:29.393,2021-04-17 13:05:29.393,13,0,0,16.355,55.937778,-4.406356,0.00,0.00,-1.00,-2.10,3.20,118.40,0,1,0,99,100,-6788,3570,16355,2942.50,0,P-GPS,1,0,0,0,360,0,0,1618661129393,4080,4057,4075,4099,0,0,27,,,,,,,0,0,0,21.00,32.00,1184.00,0.00,0.00,1192.00,6,41.00,10.00,80.25,0.00,0.00,-10.00,0,,,100,100,0,2,0,0,0,2,2,,,,,0.0,0.0,0
55.937777,-4.406355,4.20,4.20,1.00,8.02,4.20,4.20,1.30,8.27,3510,2021-04-17 12:05:29.496,2021-04-17 13:05:29.496,13,0,0,16.355,55.937778,-4.406356,0.00,0.00,-1.00,-2.10,3.10,118.30,0,1,0,99,100,-6788,3570,16355,2942.50,0,P-GPS,1,0,0,0,349,0,0,1618661129496,4080,4057,4075,4099,0,0,27,,,,,,,0,0,0,21.00,31.00,1183.00,0.00,0.00,1192.00,6,42.00,10.00,80.25,0.00,0.00,-10.00,0,,,100,100,0,2,0,0,0,2,2,,,,,0.0,0.0,0
55.937777,-4.406356,4.30,4.30,1.00,8.00,4.30,4.30,1.30,8.27,3605,2021-04-17 12:05:29.591,2021-04-17 13:05:29.591,13,0,0,16.355,55.937778,-4.406356,0.00,0.00,-1.00,-2.30,3.00,118.30,0,1,0,99,100,-6788,3570,16355,2942.50,0,P-GPS,1,0,0,0,341,0,0,1618661129591,4080,4057,4075,4099,0,0,27,,,,,,,0,0,0,23.00,30.00,1183.00,0.00,0.00,1192.00,6,43.00,10.00,79.95,0.00,0.00,-10.00,0,,,100,100,0,2,0,0,0,2,2,,,,,0.0,0.0,0
55.937777,-4.406356,4.40,4.40,1.00,7.99,4.40,4.40,1.30,8.27,3703,2021-04-17 12:05:29.689,2021-04-17 13:05:29.689,13,0,0,16.355,55.937778,-4.406356,0.00,0.00,-1.00,-2.60,2.90,118.30,0,1,0,99,100,-6788,3570,16355,2942.50,0,P-GPS,1,0,0,0,336,0,0,1618661129689,4080,4057,4075,4099,0,0,27,,,,,,,0,0,0,26.00,29.00,1183.00,0.00,0.00,1192.00,6,44.00,10.00,79.94,0.00,0.00,-10.00,0,,,100,100,0,2,0,0,0,2,2,,,,,0.0,0.0,0
55.937777,-4.406356,4.50,4.50,0.90,7.99,4.50,4.50,1.30,8.27,3808,2021-04-17 12:05:29.794,2021-04-17 13:05:29.794,13,0,0,16.355,55.937778,-4.406356,0.00,0.00,-0.90,-2.50,2.90,118.30,0,1,0,99,100,-6788,3570,16355,2942.50,0,P-GPS,1,0,0,0,326,0,0,1618661129794,4080,4057,4075,4099,0,0,27,,,,,,,0,0,0,25.00,29.00,1183.00,0.00,0.00,1192.00,6,45.00,9.00,79.89,0.00,0.00,-9.00,0,,,100,100,0,2,0,0,0,2,2,,,,,0.0,0.0,0
55.937777,-4.406356,4.60,4.60,0.90,7.99,4.60,4.60,1.30,8.27,3904,2021-04-17 12:05:29.890,2021-04-17 13:05:29.890,13,0,0,16.355,55.937778,-4.406356,0.00,0.00,-0.90,-2.10,2.80,118.30,0,1,0,99,100,-6788,3570,16355,2942.50,0,P-GPS,1,0,0,0,326,0,0,1618661129890,4080,4057,4075,4099,0,0,27,,,,,,,0,0,0,21.00,28.00,1183.00,0.00,0.00,1192.00,6,46.00,9.00,79.90,0.00,0.00,-9.00,0,,,100,100,0,2,0,0,0,2,2,,,,,0.0,0.0,0
55.937777,-4.406356,4.70,4.60,0.80,8.02,4.70,4.70,1.30,8.27,4005,2021-04-17 12:05:29.991,2021-04-17 13:05:29.991,13,0,0,16.355,55.937778,-4.406356,0.00,0.00,-0.80,-1.70,2.60,118.30,0,1,0,99,100,-6788,3570,16355,2942.50,0,P-GPS,1,0,0,0,333,0,0,1618661129991,4080,4057,4075,4099,0,0,27,,,,,,,0,0,0,17.00,26.00,1183.00,0.00,0.00,1192.00,6,47.00,8.00,80.20,0.00,0.00,-8.00,0,,,100,100,0,2,0,0,0,2,2,,,,,0.0,0.0,0
55.937777,-4.406356,4.80,4.70,0.80,8.03,4.80,4.80,1.30,8.27,4107,2021-04-17 12:05:30.093,2021-04-17 13:05:30.093,13,0,0,16.355,55.937778,-4.406356,0.00,0.00,-0.80,-1.30,2.60,118.30,0,1,0,99,100,-6788,3570,16355,2942.50,0,P-GPS,1,0,0,0,344,0,0,1618661130093,4080,4057,4075,4099,0,0,27,,,,,,,0,0,0,13.00,26.00,1183.00,0.00,0.00,1192.00,6,48.00,8.00,80.32,0.00,0.00,-8.00,0,,,100,100,0,2,0,0,0,2,2,,,,,0.0,0.0,0
55.937777,-4.406356,4.90,4.80,0.90,8.03,4.90,4.90,1.30,8.27,4212,2021-04-17 12:05:30.198,2021-04-17 13:05:30.198,13,0,0,16.355,55.937778,-4.406356,0.00,0.00,-0.90,-1.30,2.80,118.30,0,1,0,99,100,-6788,3570,16355,2942.50,0,P-GPS,1,0,0,0,343,0,0,1618661130198,4080,4057,4075,4099,0,0,27,,,,,,,0,0,0,13.00,28.00,1183.00,0.00,0.00,1192.00,6,49.00,9.00,80.30,0.00,0.00,-9.00,0,,,100,100,0,2,0,0,0,2,2,,,,,0.0,0.0,0
55.937777,-4.406356,5.00,4.90,0.90,8.03,5.00,5.00,1.30,8.27,4305,2021-04-17 12:05:30.292,2021-04-17 13:05:30.291,13,0,0,16.355,55.937778,-4.406356,0.00,0.00,-0.90,-1.30,3.00,118.20,0,1,0,99,100,-6788,3570,16355,2942.50,0,P-GPS,1,0,0,0,336,0,0,1618661130291,4080,4057,4075,4099,0,0,27,,,,,,,0,0,0,13.00,30.00,1182.00,0.00,0.00,1192.00,6,50.00,9.00,80.34,0.00,0.00,-9.00,0,,,100,100,0,2,0,0,0,2,2,,,,,0.0,0.0,0
55.937777,-4.406356,5.10,5.00,0.90,8.05,5.10,5.10,1.30,8.27,4406,2021-04-17 12:05:30.392,2021-04-17 13:05:30.392,13,0,0,16.355,55.937778,-4.406356,0.00,0.00,-0.90,-1.30,3.10,118.20,0,1,0,99,100,-6788,3570,16355,2942.50,0,P-GPS,1,0,0,0,336,0,0,1618661130392,4080,4057,4075,4099,0,0,27,,,,,,,0,0,0,13.00,31.00,1182.00,0.00,0.00,1192.00,6,51.00,9.00,80.47,0.00,0.00,-9.00,0,,,100,100,0,2,0,0,0,2,2,,,,,0.0,0.0,0
55.937777,-4.406355,5.20,5.10,0.90,8.05,5.20,5.20,1.30,8.27,4505,2021-04-17 12:05:30.491,2021-04-17 13:05:30.491,13,0,0,16.355,55.937778,-4.406356,0.00,0.00,-0.90,-1.00,3.30,118.20,0,1,0,99,100,-6788,3570,16355,2942.50,0,P-GPS,1,0,0,0,323,0,0,1618661130491,4080,4057,4075,4099,0,0,27,,,,,,,0,0,0,10.00,33.00,1182.00,0.00,0.00,1192.00,6,52.00,9.00,80.53,0.00,0.00,-9.00,0,,,100,100,0,2,0,0,0,2,2,,,,,0.0,0.0,0
55.937777,-4.406356,5.30,5.10,0.81,8.04,5.30,5.30,1.30,8.27,4611,2021-04-17 12:05:30.597,2021-04-17 13:05:30.597,13,0,0,16.355,55.937778,-4.406356,0.00,0.10,-0.80,-0.40,3.60,118.30,0,1,0,99,100,-6788,3570,16355,2942.50,0,P-GPS,1,0,0,0,322,0,0,1618661130597,4080,4057,4075,4099,0,0,27,,,,,,,0,0,0,4.00,36.00,1183.00,0.00,0.00,1192.00,6,53.00,8.06,80.40,0.00,1.00,-8.00,0,,,100,100,0,2,0,0,0,2,2,,,,,0.0,0.0,0
55.937777,-4.406355,5.30,5.20,0.81,8.04,5.30,5.30,1.30,8.27,4702,2021-04-17 12:05:30.688,2021-04-17 13:05:30.688,13,0,0,16.355,55.937778,-4.406356,0.00,0.10,-0.80,0.00,3.80,118.40,0,1,0,99,100,-6788,3570,16355,2942.50,0,P-GPS,1,0,0,0,323,0,0,1618661130688,4080,4057,4075,4099,0,0,27,,,,,,,0,0,0,-0.00,38.00,1184.00,0.00,0.00,1192.00,6,53.00,8.06,80.45,0.00,1.00,-8.00,0,,,100,100,0,2,0,0,0,2,2,,,,,0.0,0.0,0
55.937777,-4.406355,5.40,5.30,0.81,8.06,5.40,5.40,1.30,8.27,4800,2021-04-17 12:05:30.786,2021-04-17 13:05:30.786,13,0,0,16.355,55.937778,-4.406356,0.00,0.10,-0.80,0.30,4.00,118.50,0,1,0,99,100,-6788,3570,16355,2942.50,0,P-GPS,1,0,0,0,326,0,0,1618661130786,4080,4057,4075,4099,0,0,27,,,,,,,0,0,0,-3.00,40.00,1185.00,0.00,0.00,1192.00,6,54.00,8.06,80.56,0.00,1.00,-8.00,0,,,100,100,0,2,0,0,0,2,2,,,,,0.0,0.0,0
55.937777,-4.406355,5.50,5.40,0.80,8.06,5.50,5.50,1.30,8.27,4905,2021-04-17 12:05:30.892,2021-04-17 13:05:30.891,13,0,0,16.355,55.937778,-4.406356,0.00,0.00,-0.80,0.20,4.00,118.50,0,1,0,99,100,-6788,3570,16355,2942.50,0,P-GPS,1,0,0,0,333,0,0,1618661130891,4080,4057,4075,4099,0,0,27,,,,,,,0,0,0,-2.00,40.00,1185.00,0.00,0.00,1192.00,6,55.00,8.00,80.58,0.00,0.00,-8.00,0,,,100,100,0,2,0,0,0,2,2,,,,,0.0,0.0,0
55.937777,-4.406355,5.60,5.50,0.80,8.08,5.60,5.60,1.30,8.27,4996,2021-04-17 12:05:30.982,2021-04-17 13:05:30.982,13,0,0,16.355,55.937778,-4.406356,0.00,0.00,-0.80,0.00,4.10,118.50,0,1,0,99,100,-6788,3570,16355,2942.50,0,P-GPS,1,0,0,0,333,0,0,1618661130982,4080,4057,4075,4099,0,0,27,,,,,,,0,0,0,-0.00,41.00,1185.00,0.00,0.00,1192.00,6,56.00,8.00,80.78,0.00,0.00,-8.00,0,,,100,100,0,2,0,0,0,2,2,,,,,0.0,0.0,0
55.937777,-4.406355,5.70,5.50,0.80,8.08,5.70,5.70,1.30,8.27,5096,2021-04-17 12:05:31.082,2021-04-17 13:05:31.082,13,0,0,16.355,55.937778,-4.406356,0.00,0.00,-0.80,-0.10,4.30,118.40,0,1,0,99,100,-6788,3570,16355,2942.50,0,P-GPS,1,0,0,0,334,0,0,1618661131082,4080,4057,4075,4099,0,0,27,,,,,,,0,0,0,1.00,43.00,1184.00,0.00,0.00,1192.00,6,57.00,8.00,80.79,0.00,0.00,-8.00,0,,,100,100,0,2,0,0,0,2,2,,,,,0.0,0.0,0
55.937777,-4.406355,5.80,5.60,0.80,8.04,5.80,5.80,1.30,8.27,5201,2021-04-17 12:05:31.187,2021-04-17 13:05:31.187,13,0,0,16.355,55.937778,-4.406356,0.00,0.00,-0.90,-0.40,4.20,118.40,0,1,0,99,100,-6788,3570,16355,2942.50,0,P-GPS,1,0,0,0,365,0,0,1618661131187,4080,4057,4075,4099,0,0,27,,,,,,,0,0,0,4.00,42.00,1184.00,0.00,0.00,1192.00,6,58.00,8.00,80.40,0.00,0.00,-9.00,0,,,100,100,0,2,0,0,0,2,2,,,,,0.0,0.0,0
55.937777,-4.406355,5.80,5.70,0.90,8.04,5.80,5.80,1.30,8.27,5333,2021-04-17 12:05:31.319,2021-04-17 13:05:31.319,13,0,0,16.355,55.937778,-4.406356,0.00,0.00,-0.90,-0.60,4.00,118.40,0,1,0,99,100,-6788,3570,16355,2942.50,0,P-GPS,1,0,0,0,381,0,0,1618661131319,4080,4057,4075,4099,0,0,27,,,,,,,0,0,0,6.00,40.00,1184.00,0.00,0.00,1192.00,6,58.00,9.00,80.35,0.00,0.00,-9.00,0,,,100,100,0,2,0,0,0,2,2,,,,,0.0,0.0,0
55.937777,-4.406355,5.90,5.80,1.00,8.04,5.90,5.90,1.30,8.27,5408,2021-04-17 12:05:31.395,2021-04-17 13:05:31.394,13,0,0,16.359,55.937778,-4.406356,0.00,0.00,-1.00,-0.70,4.00,118.40,0,1,0,99,100,-6687,3570,16359,2942.50,0,P-GPS,1,0,0,0,382,0,0,1618661131394,4080,4057,4075,4099,0,0,27,,,,,,,0,0,0,7.00,40.00,1184.00,0.00,0.00,1192.00,6,59.00,10.00,80.39,0.00,0.00,-10.00,0,,,100,100,0,2,0,0,0,2,2,,,,,0.0,0.0,0
55.937778,-4.406355,6.20,6.00,1.10,8.00,6.20,6.20,1.30,8.27,5610,2021-04-17 12:05:31.596,2021-04-17 13:05:31.596,13,0,0,16.359,55.937778,-4.406356,0.00,0.00,-1.10,-1.50,4.40,118.40,0,1,0,99,100,-6687,3570,16359,2942.50,0,P-GPS,1,0,0,0,372,0,0,1618661131596,4080,4057,4075,4099,0,0,27,,,,,,,0,0,0,15.00,44.00,1184.00,0.00,0.00,1192.00,6,62.00,11.00,80.03,0.00,0.00,-11.00,0,,,100,100,0,2,0,0,0,2,2,,,,,0.0,0.0,0
55.937778,-4.406355,6.30,6.10,1.10,7.99,6.30,6.30,1.30,8.27,5710,2021-04-17 12:05:31.696,2021-04-17 13:05:31.696,13,0,0,16.359,55.937778,-4.406356,0.00,0.00,-1.10,-1.80,4.60,118.40,0,1,0,99,100,-6687,3570,16359,2942.50,0,P-GPS,1,0,0,0,357,0,0,1618661131696,4080,4057,4075,4099,0,0,27,,,,,,,0,0,0,18.00,46.00,1184.00,0.00,0.00,1192.00,6,63.00,11.00,79.91,0.00,0.00,-11.00,0,,,100,100,0,2,0,0,0,2,2,,,,,0.0,0.0,0
55.937778,-4.406356,6.50,6.30,1.00,8.00,6.50,6.50,1.30,8.27,5904,2021-04-17 12:05:31.890,2021-04-17 13:05:31.890,13,0,0,16.359,55.937778,-4.406356,0.00,0.00,-1.00,-2.00,5.00,118.40,0,1,0,99,100,-6687,3570,16359,2942.50,0,P-GPS,1,0,0,0,345,0,0,1618661131890,4080,4057,4075,4099,0,0,27,,,,,,,0,0,0,20.00,50.00,1184.00,0.00,0.00,1192.00,6,65.00,10.00,79.98,0.00,0.00,-10.00,0,,,100,100,0,2,0,0,0,2,2,,,,,0.0,0.0,0
55.937778,-4.406355,6.60,6.40,1.00,7.98,6.60,6.60,1.30,8.27,5995,2021-04-17 12:05:31.981,2021-04-17 13:05:31.981,13,0,0,16.359,55.937778,-4.406356,0.00,0.00,-1.00,-2.10,4.70,118.30,0,1,0,99,100,-6687,3570,16359,2942.50,0,P-GPS,1,0,0,0,344,0,0,1618661131981,4080,4057,4075,4099,0,0,27,,,,,,,0,0,0,21.00,47.00,1183.00,0.00,0.00,1192.00,6,66.00,10.00,79.81,0.00,0.00,-10.00,0,,,100,100,0,2,0,0,0,2,2,,,,,0.0,0.0,0
55.937778,-4.406355,6.70,6.50,0.90,7.97,6.70,6.70,1.30,8.27,6113,2021-04-17 12:05:32.099,2021-04-17 13:05:32.099,13,0,0,16.359,55.937778,-4.406356,0.00,0.00,-0.90,-2.10,5.20,118.30,0,1,0,99,100,-6687,3570,16359,2942.50,0,P-GPS,1,0,0,0,345,0,0,1618661132099,4080,4057,4075,4099,0,0,27,,,,,,,0,0,0,21.00,52.00,1183.00,0.00,0.00,1192.00,6,67.00,9.00,79.74,0.00,0.00,-9.00,0,,,100,100,0,2,0,0,0,2,2,,,,,0.0,0.0,0
55.937778,-4.406355,6.80,6.60,0.90,7.98,6.80,6.80,1.30,8.27,6209,2021-04-17 12:05:32.195,2021-04-17 13:05:32.195,13,0,0,16.359,55.937778,-4.406356,0.00,0.00,-0.90,-2.00,4.50,118.40,0,1,0,99,100,-6687,3570,16359,2942.50,0,P-GPS,1,0,0,0,363,0,0,1618661132195,4080,4057,4075,4099,0,0,27,,,,,,,0,0,0,20.00,45.00,1184.00,0.00,0.00,1192.00,6,68.00,9.00,79.76,0.00,0.00,-9.00,0,,,100,100,0,2,0,0,0,2,2,,,,,0.0,0.0,0
55.937778,-4.406355,6.90,6.70,0.90,7.97,6.90,6.90,1.30,8.27,6325,2021-04-17 12:05:32.311,2021-04-17 13:05:32.311,13,0,0,16.359,55.937778,-4.406356,0.00,0.00,-0.90,-1.80,4.20,118.50,0,1,0,99,100,-6687,3570,16359,2942.50,0,P-GPS,1,0,0,0,372,0,0,1618661132311,4080,4057,4075,4099,0,0,27,,,,,,,0,0,0,18.00,42.00,1185.00,0.00,0.00,1192.00,6,69.00,9.00,79.70,0.00,0.00,-9.00,0,,,100,100,0,2,0,0,0,2,2,,,,,0.0,0.0,0
55.937778,-4.406356,7.00,6.70,1.00,7.98,7.00,7.00,1.30,8.27,6414,2021-04-17 12:05:32.401,2021-04-17 13:05:32.400,13,0,0,16.303,55.937778,-4.406356,0.00,0.00,-1.00,-1.90,4.20,118.50,0,1,0,99,100,-6837,3570,16303,2942.50,0,P-GPS,1,0,0,0,381,0,0,1618661132400,4080,4057,4075,4099,0,0,27,,,,,,,0,0,0,19.00,42.00,1185.00,0.00,0.00,1192.00,6,70.00,10.00,79.80,0.00,0.00,-10.00,0,,,100,100,0,2,0,0,0,2,2,,,,,0.0,0.0,0
55.937778,-4.406356,7.20,6.90,1.10,7.97,7.20,7.20,1.30,8.27,6595,2021-04-17 12:05:32.581,2021-04-17 13:05:32.581,13,0,0,16.303,55.937778,-4.406356,0.00,0.00,-1.10,-1.90,4.40,118.30,0,1,0,99,100,-6837,3570,16303,2942.50,0,P-GPS,1,0,0,0,370,0,0,1618661132581,4080,4057,4075,4099,0,0,27,,,,,,,0,0,0,19.00,44.00,1183.00,0.00,0.00,1192.00,6,72.00,11.00,79.72,0.00,0.00,-11.00,0,,,100,100,0,2,0,0,0,2,2,,,,,0.0,0.0,0
55.937778,-4.406356,7.30,7.10,1.10,7.97,7.30,7.30,1.30,8.27,6695,2021-04-17 12:05:32.681,2021-04-17 13:05:32.681,13,0,0,16.303,55.937778,-4.406356,0.00,0.00,-1.10,-2.20,4.50,118.40,0,1,0,99,100,-6837,3570,16303,2942.50,0,P-GPS,1,0,0,0,360,0,0,1618661132681,4080,4057,4075,4099,0,0,27,,,,,,,0,0,0,22.00,45.00,1184.00,0.00,0.00,1192.00,6,73.00,11.00,79.69,0.00,0.00,-11.00,0,,,100,100,0,2,0,0,0,2,2,,,,,0.0,0.0,0
55.937778,-4.406356,7.50,7.10,1.10,7.94,7.50,7.50,1.30,8.27,6797,2021-04-17 12:05:32.783,2021-04-17 13:05:32.783,13,0,0,16.303,55.937778,-4.406356,0.00,0.00,-1.10,-1.90,4.70,118.40,0,1,0,99,100,-6837,3570,16303,2942.50,0,P-GPS,1,0,0,0,351,0,0,1618661132783,4080,4057,4075,4099,0,0,27,,,,,,,0,0,0,19.00,47.00,1184.00,0.00,0.00,1192.00,6,75.00,11.00,79.45,0.00,0.00,-11.00,0,,,100,100,0,2,0,0,0,2,2,,,,,0.0,0.0,0
55.937778,-4.406356,7.60,7.20,1.00,7.94,7.60,7.60,1.30,8.27,6897,2021-04-17 12:05:32.883,2021-04-17 13:05:32.883,13,0,0,16.303,55.937778,-4.406356,0.00,0.00,-1.00,-1.80,4.90,118.30,0,1,0,99,100,-6837,3570,16303,2942.50,0,P-GPS,1,0,0,0,350,0,0,1618661132883,4080,4057,4075,4099,0,0,27,,,,,,,0,0,0,18.00,49.00,1183.00,0.00,0.00,1192.00,6,76.00,10.00,79.39,0.00,0.00,-10.00,0,,,100,100,0,2,0,0,0,2,2,,,,,0.0,0.0,0
55.937778,-4.406356,7.70,7.30,1.00,7.96,7.70,7.70,1.30,8.27,7006,2021-04-17 12:05:32.993,2021-04-17 13:05:32.993,13,0,0,16.303,55.937778,-4.406356,0.00,0.00,-1.00,-1.70,5.00,118.30,0,1,0,99,100,-6837,3570,16303,2942.50,0,P-GPS,1,0,0,0,356,0,0,1618661132992,4080,4057,4075,4099,0,0,27,,,,,,,0,0,0,17.00,50.00,1183.00,0.00,0.00,1192.00,6,77.00,10.00,79.60,0.00,0.00,-10.00,0,,,100,100,0,2,0,0,0,2,2,,,,,0.0,0.0,0
55.937778,-4.406356,7.80,7.40,1.00,7.77,7.80,7.80,1.30,8.27,7108,2021-04-17 12:05:33.095,2021-04-17 13:05:33.094,13,0,0,16.303,55.937778,-4.406356,0.00,0.00,-1.00,-1.70,5.00,118.30,0,1,0,99,100,-6837,3570,16303,2942.50,0,P-GPS,1,0,0,0,363,0,0,1618661133094,4080,4057,4075,4099,0,0,27,,,,,,,0,0,0,17.00,50.00,1183.00,0.00,0.00,1192.00,6,78.00,10.00,77.70,0.00,0.00,-10.00,0,,,100,100,0,2,0,0,0,2,2,,,,,0.0,0.0,0
55.937778,-4.406356,7.90,7.50,1.00,7.76,7.90,7.90,1.30,8.27,7220,2021-04-17 12:05:33.206,2021-04-17 13:05:33.206,13,0,0,16.303,55.937778,-4.406356,0.00,0.00,-1.00,-1.70,4.80,118.30,0,1,0,99,100,-6837,3570,16303,2942.50,0,P-GPS,1,0,0,0,363,0,0,1618661133206,4080,4057,4075,4099,0,0,27,,,,,,,0,0,0,17.00,48.00,1183.00,0.00,0.00,1192.00,6,79.00,10.00,77.60,0.00,0.00,-10.00,0,,,100,100,0,2,0,0,0,2,2,,,,,0.0,0.0,0
55.937778,-4.406356,8.00,7.60,1.00,7.75,8.00,8.00,1.30,8.27,7327,2021-04-17 12:05:33.313,2021-04-17 13:05:33.313,13,0,0,16.303,55.937778,-4.406356,0.00,0.00,-1.00,-1.90,5.30,118.30,0,1,0,99,100,-6837,3570,16303,2942.50,0,P-GPS,1,0,0,0,360,0,0,1618661133313,4080,4057,4075,4099,0,0,27,,,,,,,0,0,0,19.00,53.00,1183.00,0.00,0.00,1192.00,6,80.00,10.00,77.55,0.00,0.00,-10.00,0,,,100,100,0,2,0,0,0,2,2,,,,,0.0,0.0,0
55.937778,-4.406356,8.20,7.80,1.00,7.72,8.20,8.20,1.30,8.27,7496,2021-04-17 12:05:33.482,2021-04-17 13:05:33.482,13,0,0,16.308,55.937778,-4.406356,0.00,0.00,-1.00,-1.60,5.30,118.40,0,1,0,99,100,-7241,3570,16308,2943.50,0,P-GPS,1,0,0,0,361,0,0,1618661133482,4080,4057,4075,4099,0,0,27,,,,,,,0,0,0,16.00,53.00,1184.00,0.00,0.00,1192.00,6,82.00,10.00,77.18,0.00,0.00,-10.00,0,,,100,100,0,2,0,0,0,2,2,,,,,0.0,0.0,0
55.937778,-4.406356,8.30,7.90,1.00,7.74,8.30,8.30,1.30,8.27,7608,2021-04-17 12:05:33.595,2021-04-17 13:05:33.594,13,0,0,16.308,55.937778,-4.406356,0.00,0.00,-1.00,-2.00,5.40,118.40,0,1,0,99,100,-7241,3570,16308,2943.50,0,P-GPS,1,0,0,0,362,0,0,1618661133594,4080,4057,4075,4099,0,0,27,,,,,,,0,0,0,20.00,54.00,1184.00,0.00,0.00,1192.00,6,83.00,10.00,77.41,0.00,0.00,-10.00,0,,,100,100,0,2,0,0,0,2,2,,,,,0.0,0.0,0
55.937778,-4.406356,8.40,8.00,1.00,7.74,8.40,8.40,1.30,8.27,7700,2021-04-17 12:05:33.686,2021-04-17 13:05:33.686,13,0,0,16.308,55.937778,-4.406356,0.00,0.00,-1.00,-2.00,5.10,118.40,0,1,0,99,100,-7241,3570,16308,2943.50,0,P-GPS,1,0,0,0,366,0,0,1618661133686,4080,4057,4075,4099,0,0,27,,,,,,,0,0,0,20.00,51.00,1184.00,0.00,0.00,1192.00,6,84.00,10.00,77.38,0.00,0.00,-10.00,0,,,100,100,0,2,0,0,0,2,2,,,,,0.0,0.0,0
55.937778,-4.406356,8.50,8.10,1.10,7.73,8.50,8.50,1.30,8.27,7797,2021-04-17 12:05:33.783,2021-04-17 13:05:33.783,13,0,0,16.308,55.937778,-4.406356,0.00,0.00,-1.10,-1.80,4.80,118.50,0,1,0,99,100,-7241,3570,16308,2943.50,0,P-GPS,1,0,0,0,366,0,0,1618661133783,4080,4057,4075,4099,0,0,27,,,,,,,0,0,0,18.00,48.00,1185.00,0.00,0.00,1192.00,6,85.00,11.00,77.32,0.00,0.00,-11.00,0,,,100,100,0,2,0,0,0,2,2,,,,,0.0,0.0,0
55.937778,-4.406356,8.60,8.10,1.10,7.73,8.60,8.60,1.30,8.27,7914,2021-04-17 12:05:33.900,2021-04-17 13:05:33.900,13,0,0,16.308,55.937778,-4.406356,0.00,0.00,-1.10,-1.90,4.50,118.50,0,1,0,99,100,-7241,3570,16308,2943.50,0,P-GPS,1,0,0,0,366,0,0,1618661133900,4080,4057,4075,4099,0,0,27,,,,,,,0,0,0,19.00,45.00,1185.00,0.00,0.00,1192.00,6,86.00,11.00,77.32,0.00,0.00,-11.00,0,,,100,100,0,2,0,0,0,2,2,,,,,0.0,0.0,0
55.937778,-4.406356,8.70,8.30,1.10,7.70,8.70,8.70,1.30,8.27,8010,2021-04-17 12:05:33.996,2021-04-17 13:05:33.996,13,0,0,16.308,55.937778,-4.406356,0.00,0.00,-1.10,-1.90,3.80,118.30,0,1,0,99,100,-7241,3570,16308,2943.50,0,P-GPS,1,0,0,0,365,0,0,1618661133996,4080,4057,4075,4099,0,0,27,,,,,,,0,0,0,19.00,38.00,1183.00,0.00,0.00,1192.00,6,87.00,11.00,76.99,0.00,0.00,-11.00,0,,,100,100,0,2,0,0,0,2,2,,,,,0.0,0.0,0
55.937778,-4.406357,8.90,8.40,1.10,7.37,8.90,8.90,1.30,8.27,8111,2021-04-17 12:05:34.097,2021-04-17 13:05:34.097,13,0,0,16.308,55.937778,-4.406356,0.00,0.00,-1.10,-1.80,3.70,118.30,0,1,0,99,100,-7241,3570,16308,2943.50,0,P-GPS,1,0,0,0,366,0,0,1618661134097,4080,4057,4075,4099,0,0,27,,,,,,,0,0,0,18.00,37.00,1183.00,0.00,0.00,1192.00,6,89.00,11.00,73.72,0.00,0.00,-11.00,0,,,100,100,0,2,0,0,0,2,2,,,,,0.0,0.0,0
55.937778,-4.406357,9.00,8.40,1.10,7.37,9.00,9.00,1.30,8.27,8211,2021-04-17 12:05:34.197,2021-04-17 13:05:34.197,13,0,0,16.308,55.937778,-4.406356,0.00,0.00,-1.10,-1.70,3.30,118.40,0,1,0,99,100,-7241,3570,16308,2943.50,0,P-GPS,1,0,0,0,365,0,0,1618661134197,4080,4057,4075,4099,0,0,27,,,,,,,0,0,0,17.00,33.00,1184.00,0.00,0.00,1192.00,6,90.00,11.00,73.67,0.00,0.00,-11.00,0,,,100,100,0,2,0,0,0,2,2,,,,,0.0,0.0,0
55.937778,-4.406357,9.10,8.50,1.10,7.36,9.10,9.10,1.30,8.27,8306,2021-04-17 12:05:34.293,2021-04-17 13:05:34.292,13,0,0,16.226,55.937778,-4.406356,0.00,0.00,-1.00,-1.50,3.60,118.40,0,1,0,99,100,-7468,3570,16226,2943.50,0,P-GPS,1,0,0,0,361,0,0,1618661134292,4080,4057,4075,4099,0,0,27,,,,,,,0,0,0,15.00,36.00,1184.00,0.00,0.00,1192.00,6,91.00,11.00,73.65,0.00,0.00,-10.00,0,,,100,100,0,2,0,0,0,2,2,,,,,0.0,0.0,0
55.937778,-4.406357,9.20,8.60,1.00,7.36,9.20,9.20,1.30,8.27,8426,2021-04-17 12:05:34.412,2021-04-17 13:05:34.412,13,0,0,16.226,55.937778,-4.406356,0.00,0.00,-1.00,-1.10,4.40,118.40,0,1,0,99,100,-7468,3570,16226,2943.50,0,P-GPS,1,0,0,0,360,0,0,1618661134412,4080,4057,4075,4099,0,0,27,,,,,,,0,0,0,11.00,44.00,1184.00,0.00,0.00,1192.00,6,92.00,10.00,73.62,0.00,0.00,-10.00,0,,,100,100,0,2,0,0,0,2,2,,,,,0.0,0.0,0
55.937779,-4.406357,9.30,8.70,1.00,7.36,9.30,9.30,1.30,8.27,8510,2021-04-17 12:05:34.497,2021-04-17 13:05:34.497,13,0,0,16.226,55.937778,-4.406356,0.00,0.00,-1.00,-0.70,4.40,118.30,0,1,0,99,100,-7468,3570,16226,2943.50,0,P-GPS,1,0,0,0,360,0,0,1618661134496,4080,4057,4075,4099,0,0,27,,,,,,,0,0,0,7.00,44.00,1183.00,0.00,0.00,1192.00,6,93.00,10.00,73.57,0.00,0.00,-10.00,0,,,100,100,0,2,0,0,0,2,2,,,,,0.0,0.0,0
55.937778,-4.406357,9.40,8.80,1.00,7.37,9.40,9.40,1.30,8.27,8611,2021-04-17 12:05:34.597,2021-04-17 13:05:34.597,13,0,0,16.226,55.937778,-4.406356,0.00,0.00,-1.00,-1.00,4.50,118.40,0,1,0,99,100,-7468,3570,16226,2943.50,0,P-GPS,1,0,0,0,361,0,0,1618661134597,4080,4057,4075,4099,0,0,27,,,,,,,0,0,0,10.00,45.00,1184.00,0.00,0.00,1192.00,6,94.00,10.00,73.67,0.00,0.00,-10.00,0,,,100,100,0,2,0,0,0,2,2,,,,,0.0,0.0,0
55.937779,-4.406357,9.50,8.90,1.00,7.36,9.50,9.50,1.30,8.27,8705,2021-04-17 12:05:34.691,2021-04-17 13:05:34.691,13,0,0,16.226,55.937778,-4.406356,0.00,0.00,-1.00,-0.90,5.00,118.50,0,1,0,99,100,-7468,3570,16226,2943.50,0,P-GPS,1,0,0,0,365,0,0,1618661134691,4080,4057,4075,4099,0,0,27,,,,,,,0,0,0,9.00,50.00,1185.00,0.00,0.00,1192.00,6,95.00,10.00,73.61,0.00,0.00,-10.00,0,,,100,100,0,2,0,0,0,2,2,,,,,0.0,0.0,0
55.937779,-4.406357,9.60,9.00,1.00,7.36,9.60,9.60,1.30,8.27,8813,2021-04-17 12:05:34.800,2021-04-17 13:05:34.799,13,0,0,16.226,55.937778,-4.406356,0.00,0.00,-1.00,-0.90,5.00,118.50,0,1,0,99,100,-7468,3570,16226,2943.50,0,P-GPS,1,0,0,0,388,0,0,1618661134799,4080,4057,4075,4099,0,0,27,,,,,,,0,0,0,9.00,50.00,1185.00,0.00,0.00,1192.00,6,96.00,10.00,73.59,0.00,0.00,-10.00,0,,,100,100,0,2,0,0,0,2,2,,,,,0.0,0.0,0
55.937779,-4.406357,9.70,9.10,1.10,7.35,9.70,9.70,1.30,8.27,8920,2021-04-17 12:05:34.906,2021-04-17 13:05:34.906,13,0,0,16.226,55.937778,-4.406356,0.00,0.00,-1.10,-1.00,4.50,118.50,0,1,0,99,100,-7468,3570,16226,2943.50,0,P-GPS,1,0,0,0,396,0,0,1618661134906,4080,4057,4075,4099,0,0,27,,,,,,,0,0,0,10.00,45.00,1185.00,0.00,0.00,1192.00,6,97.00,11.00,73.53,0.00,0.00,-11.00,0,,,100,100,0,2,0,0,0,2,2,,,,,0.0,0.0,0
55.937779,-4.406357,9.80,9.20,1.20,6.90,9.80,9.80,1.30,8.27,9035,2021-04-17 12:05:35.021,2021-04-17 13:05:35.021,13,0,0,16.226,55.937778,-4.406356,0.00,0.00,-1.20,-1.30,3.90,118.40,0,1,0,99,100,-7468,3570,16226,2943.50,0,P-GPS,1,0,0,0,393,0,0,1618661135021,4080,4057,4075,4099,0,0,27,,,,,,,0,0,0,13.00,39.00,1184.00,0.00,0.00,1192.00,6,98.00,12.00,69.05,0.00,0.00,-12.00,0,,,100,100,0,2,0,0,0,2,2,,,,,0.0,0.0,0
55.937778,-4.406357,10.10,9.50,1.30,6.94,10.10,10.10,1.30,8.27,9214,2021-04-17 12:05:35.201,2021-04-17 13:05:35.200,13,0,0,16.226,55.937778,-4.406356,0.00,0.00,-1.30,-2.10,3.70,118.30,0,1,0,99,100,-7468,3570,16226,2943.50,0,P-GPS,1,0,0,0,411,0,0,1618661135200,4080,4057,4075,4099,0,0,27,,,,,,,0,0,0,21.00,37.00,1183.00,0.00,0.00,1192.00,6,101.00,13.00,69.36,0.00,0.00,-13.00,0,,,100,100,0,2,0,0,0,2,2,,,,,0.0,0.0,0
55.937778,-4.406357,10.20,9.60,1.30,6.93,10.20,10.20,1.30,8.27,9300,2021-04-17 12:05:35.286,2021-04-17 13:05:35.286,13,0,0,16.226,55.937778,-4.406356,0.00,0.00,-1.30,-2.20,4.00,118.30,0,1,0,99,100,-7468,3570,16226,2943.50,0,P-GPS,1,0,0,0,403,0,0,1618661135286,4080,4057,4075,4099,0,0,27,,,,,,,0,0,0,22.00,40.00,1183.00,0.00,0.00,1192.00,6,102.00,13.00,69.29,0.00,0.00,-13.00,0,,,100,100,0,2,0,0,0,2,2,,,,,0.0,0.0,0
55.937778,-4.406357,10.20,9.60,1.30,6.93,10.20,10.20,1.30,8.27,9390,2021-04-17 12:05:35.376,2021-04-17 13:05:35.376,13,0,0,16.223,55.937778,-4.406356,0.00,0.00,-1.40,-2.20,4.00,118.30,0,1,0,99,100,-7257,3570,16223,2943.50,0,P-GPS,1,0,0,0,400,0,0,1618661135376,4080,4057,4075,4099,0,0,27,,,,,,,0,0,0,22.00,40.00,1183.00,0.00,0.00,1192.00,6,102.00,13.00,69.29,0.00,0.00,-14.00,0,,,100,100,0,2,0,0,0,2,2,,,,,0.0,0.0,0
55.937779,-4.406358,10.50,9.90,1.30,6.87,10.50,10.50,1.30,8.27,9509,2021-04-17 12:05:35.495,2021-04-17 13:05:35.495,13,0,0,16.223,55.937778,-4.406356,0.00,0.00,-1.30,-2.20,3.90,118.30,0,1,0,99,100,-7257,3570,16223,2943.50,0,P-GPS,1,0,0,0,401,0,0,1618661135495,4080,4057,4075,4099,0,0,27,,,,,,,0,0,0,22.00,39.00,1183.00,0.00,0.00,1192.00,6,105.00,13.00,68.71,0.00,0.00,-13.00,0,,,100,100,0,2,0,0,0,2,2,,,,,0.0,0.0,0
55.937779,-4.406358,10.60,10.00,1.30,6.85,10.60,10.60,1.30,8.27,9622,2021-04-17 12:05:35.608,2021-04-17 13:05:35.608,13,0,0,16.223,55.937778,-4.406356,0.00,0.00,-1.30,-2.00,3.90,118.30,0,1,0,99,100,-7257,3570,16223,2943.50,0,P-GPS,1,0,0,0,402,0,0,1618661135608,4080,4057,4075,4099,0,0,27,,,,,,,0,0,0,20.00,39.00,1183.00,0.00,0.00,1192.00,6,106.00,13.00,68.49,0.00,0.00,-13.00,0,,,100,100,0,2,0,0,0,2,2,,,,,0.0,0.0,0
55.937779,-4.406358,10.90,10.30,1.30,6.85,10.90,10.90,1.30,8.27,9816,2021-04-17 12:05:35.802,2021-04-17 13:05:35.802,13,0,0,16.223,55.937778,-4.406356,0.00,0.00,-1.30,-2.00,3.90,118.30,0,1,0,99,100,-7257,3570,16223,2943.50,0,P-GPS,1,0,0,0,402,0,0,1618661135802,4080,4057,4075,4099,0,0,27,,,,,,,0,0,0,20.00,39.00,1183.00,0.00,0.00,1192.00,6,109.00,13.00,68.46,0.00,0.00,-13.00,0,,,100,100,0,2,0,0,0,2,2,,,,,0.0,0.0,0
55.937779,-4.406358,11.00,10.40,1.30,6.84,11.00,11.00,1.30,8.27,9910,2021-04-17 12:05:35.896,2021-04-17 13:05:35.896,13,0,0,16.223,55.937778,-4.406356,0.00,0.00,-1.30,-2.30,4.00,118.30,0,1,0,99,100,-7257,3570,16223,2943.50,0,P-GPS,1,0,0,0,399,0,0,1618661135896,4080,4057,4075,4099,0,0,27,,,,,,,0,0,0,23.00,40.00,1183.00,0.00,0.00,1192.00,6,110.00,13.00,68.37,0.00,0.00,-13.00,0,,,100,100,0,2,0,0,0,2,2,,,,,0.0,0.0,0
55.937779,-4.406359,11.20,10.50,1.30,6.84,11.20,11.20,1.30,8.27,9999,2021-04-17 12:05:35.985,2021-04-17 13:05:35.985,13,0,0,16.223,55.937778,-4.406356,0.00,0.00,-1.30,-2.20,4.00,118.30,0,1,0,99,100,-7257,3570,16223,2943.50,0,P-GPS,1,0,0,0,391,0,0,1618661135985,4080,4057,4075,4099,0,0,27,,,,,,,0,0,0,22.00,40.00,1183.00,0.00,0.00,1192.00,6,112.00,13.00,68.35,0.00,0.00,-13.00,0,,,100,100,0,2,0,0,0,2,2,,,,,0.0,0.0,0
55.937779,-4.406359,11.30,10.70,1.30,6.49,11.30,11.30,1.30,8.27,10108,2021-04-17 12:05:36.094,2021-04-17 13:05:36.094,13,0,0,16.223,55.937778,-4.406356,0.00,0.00,-1.30,-2.20,4.00,118.30,0,1,0,99,100,-7257,3570,16223,2943.50,0,P-GPS,1,0,0,0,391,0,0,1618661136094,4080,4057,4075,4099,0,0,27,,,,,,,0,0,0,22.00,40.00,1183.00,0.00,0.00,1192.00,6,113.00,13.00,64.85,0.00,0.00,-13.00,0,,,100,100,0,2,0,0,0,2,2,,,,,0.0,0.0,0
55.937779,-4.406359,11.30,10.70,1.30,6.49,11.30,11.30,1.30,8.27,10195,2021-04-17 12:05:36.181,2021-04-17 13:05:36.181,13,0,0,16.223,55.937778,-4.406356,0.00,0.00,-1.30,-2.20,4.00,118.30,0,1,0,99,100,-7257,3570,16223,2943.50,0,P-GPS,1,0,0,0,392,0,0,1618661136181,4080,4057,4075,4099,0,0,27,,,,,,,0,0,0,22.00,40.00,1183.00,0.00,0.00,1192.00,6,113.00,13.00,64.85,0.00,0.00,-13.00,0,,,100,100,0,2,0,0,0,2,2,,,,,0.0,0.0,0
55.937779,-4.406359,11.60,0.00,1.30,6.48,11.60,11.60,1.30,8.27,10304,2021-04-17 12:05:36.290,2021-04-17 13:05:36.290,13,0,0,16.223,55.937778,-4.406356,0.00,0.00,-1.30,-2.00,3.60,118.20,0,1,0,99,100,-7257,3570,16223,2943.50,0,P-GPS,1,0,0,0,396,0,0,1618661136290,4080,4057,4075,4099,0,0,27,,,,,,,0,0,0,20.00,36.00,1182.00,0.00,0.00,1192.00,6,116.00,13.00,64.76,0.00,0.00,-13.00,0,,,100,100,0,2,0,0,0,2,2,,,,,0.0,0.0,0
55.937779,-4.406359,11.70,0.00,1.30,6.49,11.70,11.70,1.30,8.27,10396,2021-04-17 12:05:36.383,2021-04-17 13:05:36.382,13,0,0,16.216,55.937778,-4.406356,0.00,0.00,-1.30,-1.50,3.60,118.20,0,1,0,99,100,-7142,3570,16216,2944.50,0,P-GPS,1,0,0,0,400,0,0,1618661136382,4080,4057,4075,4099,0,0,27,,,,,,,0,0,0,15.00,36.00,1182.00,0.00,0.00,1192.00,6,117.00,13.00,64.86,0.00,0.00,-13.00,0,,,100,100,0,2,0,0,0,2,2,,,,,0.0,0.0,0
55.937779,-4.406359,11.80,0.00,1.30,6.48,11.80,11.80,1.30,8.27,10510,2021-04-17 12:05:36.497,2021-04-17 13:05:36.497,13,0,0,16.216,55.937778,-4.406356,0.00,0.00,-1.30,-1.00,3.90,118.20,0,1,0,99,100,-7142,3570,16216,2944.50,0,P-GPS,1,0,0,0,402,0,0,1618661136496,4080,4057,4075,4099,0,0,27,,,,,,,0,0,0,10.00,39.00,1182.00,0.00,0.00,1192.00,6,118.00,13.00,64.82,0.00,0.00,-13.00,0,,,100,100,0,2,0,0,0,2,2,,,,,0.0,0.0,0
55.937779,-4.406359,12.00,0.00,1.30,6.48,12.00,12.00,1.30,8.27,10595,2021-04-17 12:05:36.581,2021-04-17 13:05:36.581,13,0,0,16.216,55.937778,-4.406356,0.00,0.00,-1.30,-1.00,4.20,118.20,0,1,0,99,100,-7142,3570,16216,2944.50,0,P-GPS,1,0,0,0,404,0,0,1618661136581,4080,4057,4075,4099,0,0,27,,,,,,,0,0,0,10.00,42.00,1182.00,0.00,0.00,1192.00,6,120.00,13.00,64.84,0.00,0.00,-13.00,0,,,100,100,0,2,0,0,0,2,2,,,,,0.0,0.0,0
55.937779,-4.406359,12.10,0.00,1.30,6.48,12.10,12.10,1.30,8.27,10696,2021-04-17 12:05:36.682,2021-04-17 13:05:36.682,13,0,0,16.216,55.937778,-4.406356,0.00,0.00,-1.30,-1.40,4.20,118.20,0,1,0,99,100,-7142,3570,16216,2944.50,0,P-GPS,1,0,0,0,403,0,0,1618661136682,4080,4057,4075,4099,0,0,27,,,,,,,0,0,0,14.00,42.00,1182.00,0.00,0.00,1192.00,6,121.00,13.00,64.81,0.00,0.00,-13.00,0,,,100,100,0,2,0,0,0,2,2,,,,,0.0,0.0,0
55.937779,-4.406359,12.20,0.00,1.30,6.48,12.20,12.20,1.30,8.27,10794,2021-04-17 12:05:36.780,2021-04-17 13:05:36.780,13,0,0,16.216,55.937778,-4.406356,0.00,0.00,-1.30,-1.50,4.10,118.20,0,1,0,99,100,-7142,3570,16216,2944.50,0,P-GPS,1,0,0,0,404,0,0,1618661136780,4080,4057,4075,4099,0,0,27,,,,,,,0,0,0,15.00,41.00,1182.00,0.00,0.00,1192.00,6,122.00,13.00,64.76,0.00,0.00,-13.00,0,,,100,100,0,2,0,0,0,2,2,,,,,0.0,0.0,0
55.937779,-4.406359,12.40,0.00,1.30,6.47,12.40,12.40,1.30,8.27,10900,2021-04-17 12:05:36.887,2021-04-17 13:05:36.886,13,0,0,16.216,55.937778,-4.406356,0.00,0.00,-1.30,-1.50,3.80,118.30,0,1,0,99,100,-7142,3570,16216,2944.50,0,P-GPS,1,0,0,0,410,0,0,1618661136886,4080,4057,4075,4099,0,0,27,,,,,,,0,0,0,15.00,38.00,1183.00,0.00,0.00,1192.00,6,124.00,13.00,64.72,0.00,0.00,-13.00,0,,,100,100,0,2,0,0,0,2,2,,,,,0.0,0.0,0
55.937779,-4.406359,12.50,0.00,1.40,6.47,12.50,12.50,1.40,8.27,10996,2021-04-17 12:05:36.982,2021-04-17 13:05:36.982,13,0,0,16.216,55.937778,-4.406356,0.00,0.00,-1.40,-1.50,3.70,118.30,0,1,0,99,100,-7142,3570,16216,2944.50,0,P-GPS,1,0,0,0,427,0,0,1618661136982,4080,4057,4075,4099,0,0,27,,,,,,,0,0,0,15.00,37.00,1183.00,0.00,0.00,1192.00,6,125.00,14.00,64.73,0.00,0.00,-14.00,0,,,100,100,0,2,0,0,0,2,2,,,,,0.0,0.0,0
55.937779,-4.406359,12.70,0.00,1.40,6.31,12.70,12.70,1.40,8.27,11110,2021-04-17 12:05:37.096,2021-04-17 13:05:37.096,13,0,0,16.216,55.937778,-4.406356,0.00,0.00,-1.40,-1.40,3.50,118.40,0,1,0,99,100,-7142,3570,16216,2944.50,0,P-GPS,1,0,0,0,438,0,0,1618661137096,4080,4057,4075,4099,0,0,27,,,,,,,0,0,0,14.00,35.00,1184.00,0.00,0.00,1192.00,6,127.00,14.00,63.10,0.00,0.00,-14.00,0,,,100,100,0,2,0,0,0,2,2,,,,,0.0,0.0,0
55.937779,-4.406360,13.00,0.00,1.60,6.27,13.00,13.00,1.60,8.27,11311,2021-04-17 12:05:37.297,2021-04-17 13:05:37.297,13,0,0,16.216,55.937778,-4.406356,0.00,0.00,-1.60,-1.90,3.60,118.40,0,1,0,99,100,-7142,3570,16216,2944.50,0,P-GPS,1,0,0,0,446,0,0,1618661137297,4080,4057,4075,4099,0,0,27,,,,,,,0,0,0,19.00,36.00,1184.00,0.00,0.00,1192.00,6,130.00,16.00,62.69,0.00,0.00,-16.00,0,,,100,100,0,2,0,0,0,2,2,,,,,0.0,0.0,0
55.937779,-4.406360,13.30,0.00,1.70,6.28,13.30,13.30,1.70,8.27,11524,2021-04-17 12:05:37.510,2021-04-17 13:05:37.510,13,0,0,16.273,55.937778,-4.406356,0.00,0.00,-1.80,-2.20,3.70,118.40,0,1,0,99,100,-6782,3570,16273,2944.50,0,P-GPS,1,0,0,0,474,0,0,1618661137510,4080,4057,4075,4099,0,0,27,,,,,,,0,0,0,22.00,37.00,1184.00,0.00,0.00,1192.00,6,133.00,17.00,62.84,0.00,0.00,-18.00,0,,,100,100,0,2,0,0,0,2,2,,,,,0.0,0.0,0
55.937779,-4.406360,13.70,0.00,1.90,6.25,13.70,13.70,1.90,8.27,11711,2021-04-17 12:05:37.698,2021-04-17 13:05:37.697,13,0,0,16.273,55.937778,-4.406356,0.00,0.00,-1.90,-2.90,3.80,118.20,0,1,0,99,100,-6782,3570,16273,2944.50,0,P-GPS,1,0,0,0,477,0,0,1618661137697,4080,4057,4075,4099,0,0,27,,,,,,,0,0,0,29.00,38.00,1182.00,0.00,0.00,1192.00,6,137.00,19.00,62.46,0.00,0.00,-19.00,0,,,100,100,0,2,0,0,0,2,2,,,,,0.0,0.0,0
55.937779,-4.406360,13.90,0.00,1.90,6.25,13.90,13.90,1.90,8.27,11810,2021-04-17 12:05:37.796,2021-04-17 13:05:37.796,13,0,0,16.273,55.937778,-4.406356,0.00,0.00,-1.90,-2.80,4.20,118.30,0,1,0,99,100,-6782,3570,16273,2944.50,0,P-GPS,1,0,0,0,464,0,0,1618661137796,4080,4057,4075,4099,0,0,27,,,,,,,0,0,0,28.00,42.00,1183.00,0.00,0.00,1192.00,6,139.00,19.00,62.50,0.00,0.00,-19.00,0,,,100,100,0,2,0,0,0,2,2,,,,,0.0,0.0,0
55.937779,-4.406360,14.10,0.00,1.90,6.24,14.10,14.10,1.90,8.27,11902,2021-04-17 12:05:37.888,2021-04-17 13:05:37.888,13,0,0,16.273,55.937778,-4.406356,0.00,0.00,-1.90,-2.80,4.10,118.30,0,1,0,99,100,-6782,3570,16273,2944.50,0,P-GPS,1,0,0,0,427,0,0,1618661137888,4050,4026,4041,4062,0,0,27,,,,,,,0,0,0,28.00,41.00,1183.00,0.00,0.00,1192.00,6,141.00,19.00,62.43,0.00,0.00,-19.00,0,,,100,100,0,2,0,0,0,2,2,,,,,0.0,0.0,0
55.937779,-4.406361,14.30,0.00,1.80,6.22,14.30,14.30,1.90,8.27,11998,2021-04-17 12:05:37.984,2021-04-17 13:05:37.984,13,0,0,16.273,55.937778,-4.406356,0.00,0.00,-1.80,-3.00,4.20,118.30,0,1,0,99,100,-6782,3570,16273,2944.50,0,P-GPS,1,0,0,0,385,0,0,1618661137984,4050,4026,4041,4062,0,0,27,,,,,,,0,0,0,30.00,42.00,1183.00,0.00,0.00,1192.00,6,143.00,18.00,62.20,0.00,0.00,-18.00,0,,,100,100,0,2,0,0,0,2,2,,,,,0.0,0.0,0
55.937779,-4.406361,14.40,0.00,1.50,6.10,14.40,14.40,1.90,8.27,12111,2021-04-17 12:05:38.098,2021-04-17 13:05:38.097,13,0,0,16.273,55.937778,-4.406356,0.00,0.00,-1.50,-3.30,4.40,118.20,0,1,0,99,100,-6782,3570,16273,2944.50,0,P-GPS,1,0,0,0,365,0,0,1618661138097,4050,4026,4041,4062,0,0,27,,,,,,,0,0,0,33.00,44.00,1182.00,0.00,0.00,1192.00,6,144.00,15.00,61.04,0.00,0.00,-15.00,0,,,100,100,0,2,0,0,0,2,2,,,,,0.0,0.0,0
55.937780,-4.406361,14.60,0.00,1.30,6.10,14.60,14.60,1.90,8.27,12209,2021-04-17 12:05:38.196,2021-04-17 13:05:38.195,13,0,0,16.273,55.937778,-4.406356,0.00,0.00,-1.30,-3.50,4.10,118.20,0,1,0,99,100,-6782,3570,16273,2944.50,0,P-GPS,1,0,0,0,366,0,0,1618661138195,4050,4026,4041,4062,0,0,27,,,,,,,0,0,0,35.00,41.00,1182.00,0.00,0.00,1192.00,6,146.00,13.00,61.04,0.00,0.00,-13.00,0,,,100,100,0,2,0,0,0,2,2,,,,,0.0,0.0,0
55.937780,-4.406361,14.70,0.00,1.20,6.10,14.70,14.70,1.90,8.27,12306,2021-04-17 12:05:38.293,2021-04-17 13:05:38.292,13,0,0,16.273,55.937778,-4.406356,0.00,0.00,-1.20,-3.10,3.70,118.30,0,1,0,99,100,-6782,3570,16273,2944.50,0,P-GPS,1,0,0,0,386,0,0,1618661138292,4050,4026,4041,4062,0,0,27,,,,,,,0,0,0,31.00,37.00,1183.00,0.00,0.00,1192.00,6,147.00,12.00,60.97,0.00,0.00,-12.00,0,,,100,100,0,2,0,0,0,2,2,,,,,0.0,0.0,0
55.937780,-4.406361,14.80,0.00,1.20,6.10,14.80,14.80,1.90,8.27,12395,2021-04-17 12:05:38.381,2021-04-17 13:05:38.381,13,0,0,16.180,55.937778,-4.406356,0.00,0.00,-1.20,-2.60,3.70,118.30,0,1,0,99,100,-7198,3568,16180,2945.50,0,P-GPS,1,0,0,0,386,0,0,1618661138381,4050,4026,4041,4062,0,0,27,,,,,,,0,0,0,26.00,37.00,1183.00,0.00,0.00,1192.00,6,148.00,12.00,60.97,0.00,0.00,-12.00,0,,,100,100,0,2,0,0,0,2,2,,,,,0.0,0.0,0
55.937780,-4.406361,14.90,0.00,1.20,6.09,14.90,14.90,1.90,8.27,12496,2021-04-17 12:05:38.483,2021-04-17 13:05:38.483,13,0,0,16.180,55.937778,-4.406356,0.00,0.00,-1.20,-2.40,3.90,118.30,0,1,0,99,100,-7198,3568,16180,2945.50,0,P-GPS,1,0,0,0,398,0,0,1618661138482,4050,4026,4041,4062,0,0,27,,,,,,,0,0,0,24.00,39.00,1183.00,0.00,0.00,1192.00,6,149.00,12.00,60.92,0.00,0.00,-12.00,0,,,100,100,0,2,0,0,0,2,2,,,,,0.0,0.0,0
55.937780,-4.406361,15.10,0.00,1.20,6.06,15.10,15.10,1.90,8.27,12598,2021-04-17 12:05:38.585,2021-04-17 13:05:38.584,13,0,0,16.180,55.937778,-4.406356,0.00,0.00,-1.20,-2.40,4.40,118.30,0,1,0,99,100,-7198,3568,16180,2945.50,0,P-GPS,1,0,0,0,438,0,0,1618661138584,4050,4026,4041,4062,0,0,27,,,,,,,0,0,0,24.00,44.00,1183.00,0.00,0.00,1192.00,6,151.00,12.00,60.60,0.00,0.00,-12.00,0,,,100,100,0,2,0,0,0,2,2,,,,,0.0,0.0,0
55.937780,-4.406361,15.20,0.00,1.30,6.05,15.20,15.20,1.90,8.27,12714,2021-04-17 12:05:38.701,2021-04-17 13:05:38.700,13,0,0,16.180,55.937778,-4.406356,0.00,0.00,-1.30,-2.70,4.40,118.30,0,1,0,99,100,-7198,3568,16180,2945.50,0,P-GPS,1,0,0,0,472,0,0,1618661138700,4050,4026,4041,4062,0,0,27,,,,,,,0,0,0,27.00,44.00,1183.00,0.00,0.00,1192.00,6,152.00,13.00,60.53,0.00,0.00,-13.00,0,,,100,100,0,2,0,0,0,2,2,,,,,0.0,0.0,0
55.937780,-4.406361,15.30,0.00,1.50,6.07,15.30,15.30,1.90,8.27,12810,2021-04-17 12:05:38.796,2021-04-17 13:05:38.796,13,0,0,16.180,55.937778,-4.406356,0.00,0.00,-1.50,-2.40,4.30,118.30,0,1,0,99,100,-7198,3568,16180,2945.50,0,P-GPS,1,0,0,0,502,0,0,1618661138796,4050,4026,4041,4062,0,0,27,,,,,,,0,0,0,24.00,43.00,1183.00,0.00,0.00,1192.00,6,153.00,15.00,60.70,0.00,0.00,-15.00,0,,,100,100,0,2,0,0,0,2,2,,,,,0.0,0.0,0
55.937780,-4.406361,15.50,0.00,1.80,6.07,15.50,15.50,1.90,8.27,12919,2021-04-17 12:05:38.905,2021-04-17 13:05:38.905,13,0,0,16.180,55.937778,-4.406356,0.00,0.00,-1.80,-2.10,4.00,118.40,0,1,0,99,100,-7198,3568,16180,2945.50,0,P-GPS,1,0,0,0,503,0,0,1618661138905,4050,4026,4041,4062,0,0,27,,,,,,,0,0,0,21.00,40.00,1184.00,0.00,0.00,1192.00,6,155.00,18.00,60.70,0.00,0.00,-18.00,0,,,100,100,0,2,0,0,0,2,2,,,,,0.0,0.0,0
55.937780,-4.406361,15.70,0.00,2.00,6.07,15.70,15.70,2.00,8.27,13015,2021-04-17 12:05:39.002,2021-04-17 13:05:39.001,13,0,0,16.180,55.937778,-4.406356,0.00,0.00,-2.00,-2.20,3.60,118.20,0,1,0,99,100,-7198,3568,16180,2945.50,0,P-GPS,1,0,0,0,514,0,0,1618661139001,4050,4026,4041,4062,0,0,27,,,,,,,0,0,0,22.00,36.00,1182.00,0.00,0.00,1192.00,6,157.00,20.00,60.70,0.00,0.00,-20.00,0,,,100,100,0,2,0,0,0,2,2,,,,,0.0,0.0,0
55.937780,-4.406361,15.90,0.00,2.20,5.89,15.90,15.90,2.20,8.27,13116,2021-04-17 12:05:39.102,2021-04-17 13:05:39.102,13,0,0,16.180,55.937778,-4.406356,0.00,0.00,-2.20,-2.30,3.50,118.20,0,1,0,99,100,-7198,3568,16180,2945.50,0,P-GPS,1,0,0,0,516,0,0,1618661139102,4050,4026,4041,4062,0,0,27,,,,,,,0,0,0,23.00,35.00,1182.00,0.00,0.00,1192.00,6,159.00,22.00,58.91,0.00,0.00,-22.00,0,,,100,100,0,2,0,0,0,2,2,,,,,0.0,0.0,0
55.937780,-4.406361,16.40,0.00,2.30,5.87,16.40,16.40,2.30,8.27,13312,2021-04-17 12:05:39.299,2021-04-17 13:05:39.298,13,0,0,16.180,55.937778,-4.406356,-0.10,0.00,-2.30,-2.00,3.20,118.30,0,1,0,99,100,-7198,3568,16180,2945.50,0,P-GPS,1,0,0,0,507,0,0,1618661139298,4050,4026,4041,4062,0,0,27,,,,,,,0,0,0,20.00,32.00,1183.00,0.00,0.00,1192.00,6,164.00,23.02,58.73,-1.00,0.00,-23.00,0,,,100,100,0,2,0,0,0,2,2,,,,,0.0,0.0,0
55.937780,-4.406361,16.60,0.00,2.30,5.88,16.60,16.60,2.30,8.27,13408,2021-04-17 12:05:39.394,2021-04-17 13:05:39.394,13,0,0,16.421,55.937778,-4.406356,-0.10,0.00,-2.30,-1.70,2.80,118.30,0,1,0,99,100,-6530,3566,16421,2945.50,0,P-GPS,1,0,0,0,506,0,0,1618661139394,4050,4026,4041,4062,0,0,27,,,,,,,0,0,0,17.00,28.00,1183.00,0.00,0.00,1192.00,6,166.00,23.02,58.81,-1.00,0.00,-23.00,0,,,100,100,0,2,0,0,0,2,2,,,,,0.0,0.0,0
55.937780,-4.406361,16.80,0.00,2.30,5.89,16.80,16.80,2.30,8.27,13497,2021-04-17 12:05:39.484,2021-04-17 13:05:39.483,13,0,0,16.421,55.937778,-4.406356,-0.10,0.00,-2.30,-1.20,2.60,118.40,0,1,0,99,100,-6530,3566,16421,2945.50,0,P-GPS,1,0,0,0,506,0,0,1618661139483,4050,4026,4041,4062,0,0,27,,,,,,,0,0,0,12.00,26.00,1184.00,0.00,0.00,1192.00,6,168.00,23.02,58.87,-1.00,0.00,-23.00,0,,,100,100,0,2,0,0,0,2,2,,,,,0.0,0.0,0
55.937780,-4.406361,17.00,0.00,2.30,5.90,17.00,17.00,2.30,8.27,13596,2021-04-17 12:05:39.582,2021-04-17 13:05:39.582,13,0,0,16.421,55.937778,-4.406356,-0.10,0.00,-2.30,-1.00,2.60,118.40,0,1,0,99,100,-6530,3566,16421,2945.50,0,P-GPS,1,0,0,0,506,0,0,1618661139582,4050,4026,4041,4062,0,0,27,,,,,,,0,0,0,10.00,26.00,1184.00,0.00,0.00,1192.00,6,170.00,23.02,58.97,-1.00,0.00,-23.00,0,,,100,100,0,2,0,0,0,2,2,,,,,0.0,0.0,0
55.937780,-4.406361,17.30,0.00,2.30,5.90,17.30,17.30,2.30,8.27,13704,2021-04-17 12:05:39.690,2021-04-17 13:05:39.690,13,0,0,16.421,55.937778,-4.406356,-0.10,0.00,-2.30,-0.90,2.30,118.40,0,1,0,99,100,-6530,3566,16421,2945.50,0,P-GPS,1,0,0,0,506,0,0,1618661139690,4050,4026,4041,4062,0,0,27,,,,,,,0,0,0,9.00,23.00,1184.00,0.00,0.00,1192.00,6,173.00,23.02,59.01,-1.00,0.00,-23.00,0,,,100,100,0,2,0,0,0,2,2,,,,,0.0,0.0,0
55.937780,-4.406361,17.50,0.00,2.20,5.90,17.50,17.50,2.30,8.27,13805,2021-04-17 12:05:39.791,2021-04-17 13:05:39.791,13,0,0,16.421,55.937778,-4.406356,0.00,0.00,-2.20,-1.00,2.50,118.40,0,1,0,99,100,-6530,3566,16421,2945.50,0,P-GPS,1,0,0,0,506,0,0,1618661139791,4050,4026,4041,4062,0,0,27,,,,,,,0,0,0,10.00,25.00,1184.00,0.00,0.00,1192.00,6,175.00,22.00,59.00,0.00,0.00,-22.00,0,,,100,100,0,2,0,0,0,2,2,,,,,0.0,0.0,0
55.937780,-4.406361,17.70,0.00,2.20,5.90,17.70,17.70,2.30,8.27,13896,2021-04-17 12:05:39.882,2021-04-17 13:05:39.882,13,0,0,16.421,55.937778,-4.406356,0.00,0.00,-2.20,-1.20,2.40,118.40,0,1,0,99,100,-6530,3566,16421,2945.50,0,P-GPS,1,0,0,0,506,0,0,1618661139882,4050,4026,4041,4062,0,0,27,,,,,,,0,0,0,12.00,24.00,1184.00,0.00,0.00,1192.00,6,177.00,22.00,58.98,0.00,0.00,-22.00,0,,,100,100,0,2,0,0,0,2,2,,,,,0.0,0.0,0
55.937780,-4.406361,17.90,0.00,2.20,5.90,17.90,17.90,2.30,8.27,14000,2021-04-17 12:05:39.986,2021-04-17 13:05:39.986,12,0,0,16.421,55.937778,-4.406356,0.00,0.00,-2.20,-1.50,2.00,118.40,0,1,0,99,100,-6530,3566,16421,2945.50,0,P-GPS,1,0,0,0,506,0,0,1618661139986,4050,4026,4041,4062,0,0,27,,,,,,,0,0,0,15.00,20.00,1184.00,0.00,0.00,1192.00,6,179.00,22.00,59.00,0.00,0.00,-22.00,0,,,100,100,0,2,0,0,0,2,2,,,,,0.0,0.0,0
55.937780,-4.406361,18.10,0.00,2.20,5.71,18.10,18.10,2.30,8.27,14107,2021-04-17 12:05:40.093,2021-04-17 13:05:40.093,12,0,0,16.421,55.937778,-4.406356,0.00,0.00,-2.20,-1.60,1.90,118.40,0,1,0,99,100,-6530,3566,16421,2945.50,0,P-GPS,1,0,0,0,499,0,0,1618661140093,4050,4026,4041,4062,0,0,27,,,,,,,0,0,0,16.00,19.00,1184.00,0.00,0.00,1192.00,6,181.00,22.00,57.06,0.00,0.00,-22.00,0,,,100,100,0,2,0,0,0,2,2,,,,,0.0,0.0,0
55.937780,-4.406361,18.30,0.00,2.20,5.69,18.30,18.30,2.30,8.27,14198,2021-04-17 12:05:40.185,2021-04-17 13:05:40.184,13,0,0,16.421,55.937778,-4.406356,0.00,0.00,-2.20,-1.60,2.10,118.40,0,1,0,99,100,-6530,3566,16421,2945.50,0,P-GPS,1,0,0,0,496,0,0,1618661140184,4050,4026,4041,4062,0,0,27,,,,,,,0,0,0,16.00,21.00,1184.00,0.00,0.00,1192.00,6,183.00,22.00,56.90,0.00,0.00,-22.00,0,,,100,100,0,2,0,0,0,2,2,,,,,0.0,0.0,0
55.937780,-4.406361,18.60,0.00,2.10,5.68,18.60,18.60,2.30,8.27,14299,2021-04-17 12:05:40.285,2021-04-17 13:05:40.285,13,0,0,16.421,55.937778,-4.406356,0.00,0.00,-2.10,-1.80,2.50,118.40,0,1,0,99,100,-6530,3566,16421,2945.50,0,P-GPS,1,0,0,0,495,0,0,1618661140285,4050,4026,4041,4062,0,0,27,,,,,,,0,0,0,18.00,25.00,1184.00,0.00,0.00,1192.00,6,186.00,21.00,56.81,0.00,0.00,-21.00,0,,,100,100,0,2,0,0,0,2,2,,,,,0.0,0.0,0
55.937780,-4.406361,18.80,0.00,2.10,5.68,18.80,18.80,2.30,8.27,14405,2021-04-17 12:05:40.391,2021-04-17 13:05:40.391,13,0,0,15.992,55.937778,-4.406356,0.00,0.00,-2.10,-1.90,2.50,118.30,0,1,0,99,100,-8547,3564,15992,2946.50,0,P-GPS,1,0,0,0,498,0,0,1618661140391,4050,4026,4041,4062,0,0,27,,,,,,,0,0,0,19.00,25.00,1183.00,0.00,0.00,1192.00,6,188.00,21.00,56.81,0.00,0.00,-21.00,0,,,100,100,0,2,0,0,0,2,2,,,,,0.0,0.0,0
55.937780,-4.406361,19.00,0.00,2.10,5.67,19.00,19.00,2.30,8.27,14508,2021-04-17 12:05:40.494,2021-04-17 13:05:40.494,13,0,0,15.992,55.937778,-4.406356,0.00,0.00,-2.10,-1.70,2.50,118.30,0,1,0,99,100,-8547,3564,15992,2946.50,0,P-GPS,1,0,0,0,501,0,0,1618661140494,4050,4026,4041,4062,0,0,27,,,,,,,0,0,0,17.00,25.00,1183.00,0.00,0.00,1192.00,6,190.00,21.00,56.72,0.00,0.00,-21.00,0,,,100,100,0,2,0,0,0,2,2,,,,,0.0,0.0,0
55.937780,-4.406361,19.20,0.00,2.20,5.63,19.20,19.20,2.30,8.27,14605,2021-04-17 12:05:40.591,2021-04-17 13:05:40.591,13,0,0,15.992,55.937778,-4.406356,0.00,0.00,-2.20,-1.70,3.00,118.40,0,1,0,99,100,-8547,3564,15992,2946.50,0,P-GPS,1,0,0,0,501,0,0,1618661140591,4050,4026,4041,4062,0,0,27,,,,,,,0,0,0,17.00,30.00,1184.00,0.00,0.00,1192.00,6,192.00,22.00,56.33,0.00,0.00,-22.00,0,,,100,100,0,2,0,0,0,2,2,,,,,0.0,0.0,0
55.937781,-4.406361,19.40,0.00,2.20,5.62,19.40,19.40,2.30,8.27,14719,2021-04-17 12:05:40.705,2021-04-17 13:05:40.705,13,0,0,15.992,55.937778,-4.406356,0.00,0.00,-2.20,-1.70,3.60,118.30,0,1,0,99,100,-8547,3564,15992,2946.50,0,P-GPS,1,0,0,0,503,0,0,1618661140705,4050,4026,4041,4062,0,0,27,,,,,,,0,0,0,17.00,36.00,1183.00,0.00,0.00,1192.00,6,194.00,22.00,56.20,0.00,0.00,-22.00,0,,,100,100,0,2,0,0,0,2,2,,,,,0.0,0.0,0
55.937781,-4.406361,19.80,0.00,2.20,5.61,19.80,19.80,2.30,8.27,14899,2021-04-17 12:05:40.885,2021-04-17 13:05:40.885,13,0,0,15.992,55.937778,-4.406356,0.00,0.00,-2.20,-1.60,4.40,118.30,0,1,0,99,100,-8547,3564,15992,2946.50,0,P-GPS,1,0,0,0,509,0,0,1618661140885,4050,4026,4041,4062,0,0,27,,,,,,,0,0,0,16.00,44.00,1183.00,0.00,0.00,1192.00,6,198.00,22.00,56.14,0.00,0.00,-22.00,0,,,100,100,0,2,0,0,0,2,2,,,,,0.0,0.0,0
55.937781,-4.406361,20.10,0.00,2.20,5.60,20.10,20.10,2.30,8.27,15017,2021-04-17 12:05:41.003,2021-04-17 13:05:41.003,13,0,0,15.992,55.937778,-4.406356,0.00,0.00,-2.20,-1.50,4.50,118.30,0,1,0,99,100,-8547,3564,15992,2946.50,0,P-GPS,1,0,0,0,508,0,0,1618661141003,4050,4026,4041,4062,0,0,27,,,,,,,0,0,0,15.00,45.00,1183.00,0.00,0.00,1192.00,6,201.00,22.00,55.97,0.00,0.00,-22.00,0,,,100,100,0,2,0,0,0,2,2,,,,,0.0,0.0,0
55.937781,-4.406361,20.50,0.00,2.20,5.59,20.50,20.50,2.30,8.27,15205,2021-04-17 12:05:41.192,2021-04-17 13:05:41.191,13,0,0,15.992,55.937778,-4.406356,0.00,0.00,-2.20,-1.70,4.50,118.30,0,1,0,99,100,-8547,3564,15992,2946.50,0,P-GPS,1,0,0,0,490,0,0,1618661141191,4050,4026,4041,4062,0,0,27,,,,,,,0,0,0,17.00,45.00,1183.00,0.00,0.00,1192.00,6,205.00,22.00,55.88,0.00,0.00,-22.00,0,,,100,100,0,2,0,0,0,2,2,,,,,0.0,0.0,0
55.937781,-4.406361,20.80,0.00,2.20,5.58,20.80,20.80,2.30,8.27,15300,2021-04-17 12:05:41.286,2021-04-17 13:05:41.286,13,0,0,15.992,55.937778,-4.406356,0.00,0.00,-2.20,-1.80,4.40,118.30,0,1,0,99,100,-8547,3564,15992,2946.50,0,P-GPS,1,0,0,0,491,0,0,1618661141286,4050,4026,4041,4062,0,0,27,,,,,,,0,0,0,18.00,44.00,1183.00,0.00,0.00,1192.00,6,208.00,22.00,55.79,0.00,0.00,-22.00,0,,,100,100,0,2,0,0,0,2,2,,,,,0.0,0.0,0
55.937781,-4.406361,21.00,0.00,2.10,5.57,21.00,21.00,2.30,8.27,15398,2021-04-17 12:05:41.384,2021-04-17 13:05:41.384,13,0,0,16.093,55.937778,-4.406356,0.00,0.00,-2.10,-1.80,4.50,118.30,0,1,0,99,100,-7560,3561,16093,2946.50,0,P-GPS,1,0,0,0,491,0,0,1618661141384,4050,4026,4041,4062,0,0,27,,,,,,,0,0,0,18.00,45.00,1183.00,0.00,0.00,1192.00,6,210.00,21.00,55.69,0.00,0.00,-21.00,0,,,100,100,0,2,0,0,0,2,2,,,,,0.0,0.0,0
55.937781,-4.406361,21.20,0.00,2.10,5.56,21.20,21.20,2.30,8.27,15517,2021-04-17 12:05:41.503,2021-04-17 13:05:41.503,13,0,0,16.093,55.937778,-4.406356,0.00,0.00,-2.10,-1.70,4.50,118.30,0,1,0,99,100,-7560,3561,16093,2946.50,0,P-GPS,1,0,0,0,495,0,0,1618661141503,4050,4026,4041,4062,0,0,27,,,,,,,0,0,0,17.00,45.00,1183.00,0.00,0.00,1192.00,6,212.00,21.00,55.62,0.00,0.00,-21.00,0,,,100,100,0,2,0,0,0,2,2,,,,,0.0,0.0,0
55.937782,-4.406361,21.40,0.00,2.10,5.54,21.40,21.40,2.30,8.27,15617,2021-04-17 12:05:41.604,2021-04-17 13:05:41.603,13,0,0,16.093,55.937778,-4.406356,0.00,0.00,-2.10,-1.50,4.40,118.30,0,1,0,99,100,-7560,3561,16093,2946.50,0,P-GPS,1,0,0,0,509,0,0,1618661141603,4050,4026,4041,4062,0,0,27,,,,,,,0,0,0,15.00,44.00,1183.00,0.00,0.00,1192.00,6,214.00,21.00,55.45,0.00,0.00,-21.00,0,,,100,100,0,2,0,0,0,2,2,,,,,0.0,0.0,0
55.937782,-4.406361,21.60,0.00,2.10,5.54,21.60,21.60,2.30,8.27,15708,2021-04-17 12:05:41.694,2021-04-17 13:05:41.694,13,0,0,16.093,55.937778,-4.406356,0.00,0.00,-2.10,-1.70,4.10,118.40,0,1,0,99,100,-7560,3561,16093,2946.50,0,P-GPS,1,0,0,0,520,0,0,1618661141694,4050,4026,4041,4062,0,0,27,,,,,,,0,0,0,17.00,41.00,1184.00,0.00,0.00,1192.00,6,216.00,21.00,55.38,0.00,0.00,-21.00,0,,,100,100,0,2,0,0,0,2,2,,,,,0.0,0.0,0
