latitude,longitude,altitude(m),ultrasonicHeight(m),speed(mps),distance(m),max_altitude(m),max_ascent(m),max_speed(mps),max_distance(m),time(millisecond),datetime(utc),datetime(local),satellites,pressure(Pa),temperature(F),voltage(v),home_latitude,home_longitude,velocityX(mps),velocityY(mps),velocityZ(mps),pitch(deg),roll(deg),yaw(deg),powerlevel,isflying,istakingphoto,remainPowerPercent,remainLifePercent,currentCurrent,currentElectricity,currentVoltage,batteryTemperature,dischargeCount,flightmode,isMotorsOn,isTakingVideo,Rc_elevator,Rc_aileron,Rc_throttle,Rc_rudder,Rc_gyro,timestamp,Battery_Cell1,Battery_Cell2,Battery_Cell3,Battery_Cell4,Battery_Cell5,Battery_Cell6,Dronetype,AppVersion,Planename,FlyControllerSerialNumber,RemoteSerialNumber,BatterySerialNumber,CENTER_BATTERY.productDate,CENTER_BATTERY.serialNo,CENTER_BATTERY.fullCapacity,CENTER_BATTERY.productDateRaw,pitchRaw,rollRaw,yawRaw,gimbalPitchRaw,gimbalRollRaw,gimbalYawRaw,flyState,altitudeRaw,speedRaw,distanceRaw,velocityXRaw,velocityYRaw,velocityZRaw,data_reuse,App_Tip,App_Warning,downlinkSignalQuality,uplinkSignalQuality,transmissionChannel,rcModeSwitch,rcHome,rcPause,rcTransform,rcJoystickMode,appMode,FlyControllerSerialNumber_legacy,RemoteSerialNumber_legacy,BatterySerialNumber_legacy,Battery2SerialNumber,frontAvoidDist,backAvoidDist,isBrakingToAvoid
55.937787,-4.406346,0.30,0.40,0.51,0.11,0.30,0.30,0.51,0.11,0,2021-04-17 12:30:49.821,2021-04-17 13:30:49.820,15,0,0,16.853,55.937787,-4.406347,0.10,0.00,-0.50,0.60,2.60,101.70,0,1,0,98,100,-2506,3371,16853,2932.50,1,P-GPS,1,0,0,0,341,0,0,1618662649820,4238,4223,4233,4234,0,0,27,Litchi_4.18.0-g,CJTMAVIC,163DFAS001K45C,0VECFAK0072T52,0P2AFB25340AEP,,0,0,0,-6.00,26.00,1017.00,0.00,0.00,1043.00,6,3.00,5.10,1.09,1.00,0.00,-5.00,0,,,100,100,0,2,0,0,0,2,0,,,,null,0.0,5.3,0
55.937787,-4.406346,0.40,0.40,0.71,0.11,0.40,0.40,0.71,0.11,91,2021-04-17 12:30:49.911,2021-04-17 13:30:49.911,15,0,0,16.385,55.937787,-4.406347,0.10,0.00,-0.70,0.10,2.70,101.60,0,1,0,98,100,-4405,3371,16385,2933.50,1,P-GPS,1,0,0,0,345,0,0,1618662649911,4238,4223,4233,4234,0,0,27,,,,,,,0,0,0,-1.00,27.00,1016.00,0.00,0.00,1043.00,6,4.00,7.07,1.08,1.00,0.00,-7.00,0,,,100,100,0,2,0,0,0,2,0,,,,,0.0,5.3,0
55.937787,-4.406346,0.50,0.50,0.81,0.09,0.50,0.50,0.81,0.11,191,2021-04-17 12:30:50.011,2021-04-17 13:30:50.011,15,0,0,16.385,55.937787,-4.406347,0.10,0.00,-0.80,-0.10,2.90,101.50,0,1,0,98,100,-4405,3371,16385,2933.50,1,P-GPS,1,0,0,0,345,0,0,1618662650011,4238,4223,4233,4234,0,0,27,,,,,,,0,0,0,1.00,29.00,1015.00,0.00,0.00,1043.00,6,5.00,8.06,0.93,1.00,0.00,-8.00,0,,,100,100,0,2,0,0,0,2,0,,,,,0.0,5.3,0
55.937787,-4.406346,0.60,0.60,0.91,0.09,0.60,0.60,0.91,0.11,297,2021-04-17 12:30:50.117,2021-04-17 13:30:50.117,17,0,0,16.385,55.937787,-4.406347,0.10,0.00,-0.90,-0.30,3.00,101.50,0,1,0,98,100,-4405,3371,16385,2933.50,1,P-GPS,1,0,0,0,346,0,0,1618662650117,4238,4223,4233,4234,0,0,27,,,,,,,0,0,0,3.00,30.00,1015.00,0.00,0.00,1043.00,6,6.00,9.06,0.92,1.00,0.00,-9.00,0,,,100,100,0,2,0,0,0,2,0,,,,,0.0,5.3,0
55.937787,-4.406345,0.70,0.70,1.00,0.12,0.70,0.70,1.00,0.12,399,2021-04-17 12:30:50.219,2021-04-17 13:30:50.219,17,0,0,16.385,55.937787,-4.406347,0.00,0.00,-1.00,-0.10,2.90,101.40,0,1,0,98,100,-4405,3371,16385,2933.50,1,P-GPS,1,0,0,0,347,0,0,1618662650219,4238,4223,4233,4234,0,0,27,,,,,,,0,0,0,1.00,29.00,1014.00,0.00,0.00,1043.00,6,7.00,10.00,1.25,0.00,0.00,-10.00,0,,,100,100,0,2,0,0,0,2,0,,,,,0.0,5.3,0
55.937788,-4.406345,0.80,0.80,1.00,0.13,0.80,0.80,1.00,0.13,494,2021-04-17 12:30:50.314,2021-04-17 13:30:50.314,17,0,0,16.385,55.937787,-4.406347,0.00,0.00,-1.00,-0.10,2.80,101.40,0,1,0,98,100,-4405,3371,16385,2933.50,1,P-GPS,1,0,0,0,347,0,0,1618662650314,4238,4223,4233,4234,0,0,27,,,,,,,0,0,0,1.00,28.00,1014.00,0.00,0.00,1043.00,6,8.00,10.00,1.28,0.00,0.00,-10.00,0,,,100,100,0,2,0,0,0,2,0,,,,,0.0,5.3,0
55.937788,-4.406345,0.90,0.90,1.00,0.15,0.90,0.90,1.00,0.15,589,2021-04-17 12:30:50.409,2021-04-17 13:30:50.409,17,0,0,16.385,55.937787,-4.406347,0.00,0.00,-1.00,-0.30,2.90,101.40,0,1,0,98,100,-4405,3371,16385,2933.50,1,P-GPS,1,0,0,0,347,0,0,1618662650409,4238,4223,4233,4234,0,0,27,,,,,,,0,0,0,3.00,29.00,1014.00,0.00,0.00,1043.00,6,9.00,10.00,1.48,0.00,0.00,-10.00,0,,,100,100,0,2,0,0,0,2,0,,,,,0.0,5.3,0
55.937788,-4.406345,1.00,1.00,1.00,0.15,1.00,1.00,1.00,0.15,688,2021-04-17 12:30:50.509,2021-04-17 13:30:50.508,17,0,0,16.385,55.937787,-4.406347,0.00,0.00,-1.00,-0.40,2.90,101.40,0,1,0,98,100,-4405,3371,16385,2933.50,1,P-GPS,1,0,0,0,347,0,0,1618662650508,4238,4223,4233,4234,0,0,27,,,,,,,0,0,0,4.00,29.00,1014.00,0.00,0.00,1043.00,6,10.00,10.00,1.52,0.00,0.00,-10.00,0,,,100,100,0,2,0,0,0,2,0,,,,,0.0,5.3,0
55.937788,-4.406345,1.10,1.10,1.00,0.17,1.10,1.10,1.00,0.17,787,2021-04-17 12:30:50.607,2021-04-17 13:30:50.607,17,0,0,16.385,55.937787,-4.406347,0.00,0.00,-1.00,-0.40,2.70,101.40,0,1,0,98,100,-4405,3371,16385,2933.50,1,P-GPS,1,0,0,0,347,0,0,1618662650607,4238,4223,4233,4234,0,0,27,,,,,,,0,0,0,4.00,27.00,1014.00,0.00,0.00,1043.00,6,11.00,10.00,1.70,0.00,0.00,-10.00,0,,,100,100,0,2,0,0,0,2,0,,,,,0.0,5.3,0
55.937788,-4.406345,1.20,1.20,1.00,0.17,1.20,1.20,1.00,0.17,902,2021-04-17 12:30:50.722,2021-04-17 13:30:50.722,16,0,0,16.385,55.937787,-4.406347,0.00,0.00,-1.00,-0.30,2.60,101.40,0,1,0,98,100,-4405,3371,16385,2933.50,1,P-GPS,1,0,0,0,347,0,0,1618662650722,4238,4223,4233,4234,0,0,27,,,,,,,0,0,0,3.00,26.00,1014.00,0.00,0.00,1043.00,6,12.00,10.00,1.73,0.00,0.00,-10.00,0,,,100,100,0,2,0,0,0,2,0,,,,,0.0,5.3,0
55.937788,-4.406345,1.30,1.30,1.00,0.15,1.30,1.30,1.00,0.17,991,2021-04-17 12:30:50.812,2021-04-17 13:30:50.812,16,0,0,16.385,55.937787,-4.406347,0.00,0.00,-1.00,-0.40,2.50,101.40,0,1,0,98,100,-4405,3371,16385,2933.50,1,P-GPS,1,0,0,0,345,0,0,1618662650811,4238,4223,4233,4234,0,0,27,,,,,,,0,0,0,4.00,25.00,1014.00,0.00,0.00,1043.00,6,13.00,10.00,1.48,0.00,0.00,-10.00,0,,,100,100,0,2,0,0,0,2,0,,,,,0.0,5.3,0
55.937788,-4.406345,1.40,1.40,1.00,0.15,1.40,1.40,1.00,0.17,1086,2021-04-17 12:30:50.906,2021-04-17 13:30:50.906,17,0,0,16.084,55.937787,-4.406347,0.00,0.00,-1.00,-0.40,2.30,101.40,0,1,0,98,100,-7264,3369,16084,2933.50,1,P-GPS,1,0,0,0,345,0,0,1618662650906,4238,4223,4233,4234,0,0,27,,,,,,,0,0,0,4.00,23.00,1014.00,0.00,0.00,1043.00,6,14.00,10.00,1.48,0.00,0.00,-10.00,0,,,100,100,0,2,0,0,0,2,0,,,,,0.0,5.3,0
55.937788,-4.406345,1.50,1.50,0.90,0.18,1.50,1.50,1.00,0.18,1201,2021-04-17 12:30:51.021,2021-04-17 13:30:51.021,17,0,0,16.084,55.937787,-4.406347,0.00,0.00,-0.90,-0.30,2.20,101.40,0,1,0,98,100,-7264,3369,16084,2933.50,1,P-GPS,1,0,0,0,343,0,0,1618662651021,4238,4223,4233,4234,0,0,27,,,,,,,0,0,0,3.00,22.00,1014.00,0.00,0.00,1043.00,6,15.00,9.00,1.76,0.00,0.00,-9.00,0,,,100,100,0,2,0,0,0,2,0,,,,,0.0,5.3,0
55.937788,-4.406345,1.60,1.60,0.90,0.18,1.60,1.60,1.00,0.18,1291,2021-04-17 12:30:51.111,2021-04-17 13:30:51.111,16,0,0,16.084,55.937787,-4.406347,0.00,0.00,-0.90,-0.30,2.10,101.40,0,1,0,98,100,-7264,3369,16084,2933.50,1,P-GPS,1,0,0,0,343,0,0,1618662651111,4238,4223,4233,4234,0,0,27,,,,,,,0,0,0,3.00,21.00,1014.00,0.00,0.00,1043.00,6,16.00,9.00,1.78,0.00,0.00,-9.00,0,,,100,100,0,2,0,0,0,2,0,,,,,0.0,5.3,0
55.937788,-4.406344,1.70,1.70,0.90,0.19,1.70,1.70,1.00,0.19,1388,2021-04-17 12:30:51.208,2021-04-17 13:30:51.208,16,0,0,16.084,55.937787,-4.406347,0.00,0.00,-0.90,-0.30,1.90,101.40,0,1,0,98,100,-7264,3369,16084,2933.50,1,P-GPS,1,0,0,0,343,0,0,1618662651208,4238,4223,4233,4234,0,0,27,,,,,,,0,0,0,3.00,19.00,1014.00,0.00,0.00,1043.00,6,17.00,9.00,1.91,0.00,0.00,-9.00,0,,,100,100,0,2,0,0,0,2,0,,,,,0.0,5.3,0
55.937788,-4.406344,1.80,1.80,0.90,0.20,1.80,1.80,1.00,0.20,1493,2021-04-17 12:30:51.313,2021-04-17 13:30:51.313,16,0,0,16.084,55.937787,-4.406347,0.00,0.00,-0.90,-0.30,1.70,101.40,0,1,0,98,100,-7264,3369,16084,2933.50,1,P-GPS,1,0,0,0,340,0,0,1618662651313,4238,4223,4233,4234,0,0,27,,,,,,,0,0,0,3.00,17.00,1014.00,0.00,0.00,1043.00,6,18.00,9.00,1.96,0.00,0.00,-9.00,0,,,100,100,0,2,0,0,0,2,0,,,,,0.0,5.3,0
55.937788,-4.406344,1.90,1.90,0.90,0.19,1.90,1.90,1.00,0.20,1595,2021-04-17 12:30:51.415,2021-04-17 13:30:51.415,16,0,0,16.084,55.937787,-4.406347,0.00,0.00,-0.90,-0.30,1.70,101.40,0,1,0,98,100,-7264,3369,16084,2933.50,1,P-GPS,1,0,0,0,335,0,0,1618662651415,4238,4223,4233,4234,0,0,27,,,,,,,0,0,0,3.00,17.00,1014.00,0.00,0.00,1043.00,6,19.00,9.00,1.90,0.00,0.00,-9.00,0,,,100,100,0,2,0,0,0,2,0,,,,,0.0,5.3,0
55.937788,-4.406344,2.00,2.00,0.90,0.19,2.00,2.00,1.00,0.20,1692,2021-04-17 12:30:51.512,2021-04-17 13:30:51.512,16,0,0,16.084,55.937787,-4.406347,0.00,0.00,-0.90,-0.10,2.00,101.40,0,1,0,98,100,-7264,3369,16084,2933.50,1,P-GPS,1,0,0,0,333,0,0,1618662651512,4238,4223,4233,4234,0,0,27,,,,,,,0,0,0,1.00,20.00,1014.00,0.00,0.00,1043.00,6,20.00,9.00,1.94,0.00,0.00,-9.00,0,,,100,100,0,2,0,0,0,2,0,,,,,0.0,5.3,0
55.937788,-4.406344,2.10,2.10,0.90,0.19,2.10,2.10,1.00,0.20,1791,2021-04-17 12:30:51.611,2021-04-17 13:30:51.611,16,0,0,16.084,55.937787,-4.406347,0.00,0.00,-0.90,-0.10,2.30,101.40,0,1,0,98,100,-7264,3369,16084,2933.50,1,P-GPS,1,0,0,0,333,0,0,1618662651611,4238,4223,4233,4234,0,0,27,,,,,,,0,0,0,1.00,23.00,1014.00,0.00,0.00,1043.00,6,21.00,9.00,1.85,0.00,0.00,-9.00,0,,,100,100,0,2,0,0,0,2,0,,,,,0.0,5.4,0
55.937788,-4.406344,2.20,2.20,0.90,0.19,2.20,2.20,1.00,0.20,1884,2021-04-17 12:30:51.704,2021-04-17 13:30:51.704,17,0,0,16.084,55.937787,-4.406347,0.00,0.00,-0.90,-0.10,2.40,101.40,0,1,0,98,100,-7264,3369,16084,2933.50,1,P-GPS,1,0,0,0,333,0,0,1618662651704,4238,4223,4233,4234,0,0,27,,,,,,,0,0,0,1.00,24.00,1014.00,0.00,0.00,1043.00,6,22.00,9.00,1.89,0.00,0.00,-9.00,0,,,100,100,0,2,0,0,0,2,0,,,,,0.0,5.4,0
55.937788,-4.406345,2.30,2.30,0.90,0.16,2.30,2.30,1.00,0.20,1986,2021-04-17 12:30:51.806,2021-04-17 13:30:51.806,17,0,0,16.084,55.937787,-4.406347,0.00,0.00,-0.90,0.00,2.30,101.50,0,1,0,98,100,-7264,3369,16084,2933.50,1,P-GPS,1,0,0,0,333,0,0,1618662651806,4238,4223,4233,4234,0,0,27,,,,,,,0,0,0,-0.00,23.00,1015.00,0.00,0.00,1043.00,6,23.00,9.00,1.63,0.00,0.00,-9.00,0,,,100,100,0,2,0,0,0,2,0,,,,,0.0,5.4,0
55.937787,-4.406345,2.40,2.40,0.90,0.16,2.40,2.40,1.00,0.20,2086,2021-04-17 12:30:51.906,2021-04-17 13:30:51.906,18,0,0,16.086,55.937787,-4.406347,0.00,0.00,-0.90,0.00,2.20,101.40,0,1,0,98,100,-7722,3366,16086,2934.50,1,P-GPS,1,0,0,0,333,0,0,1618662651906,4238,4223,4233,4234,0,0,27,,,,,,,0,0,0,-0.00,22.00,1014.00,0.00,0.00,1043.00,6,24.00,9.00,1.64,0.00,0.00,-9.00,0,,,100,100,0,2,0,0,0,2,0,,,,,0.0,5.4,0
55.937788,-4.406344,2.50,2.50,0.90,0.20,2.50,2.50,1.00,0.20,2181,2021-04-17 12:30:52.001,2021-04-17 13:30:52.001,18,0,0,16.086,55.937787,-4.406347,0.00,0.00,-0.90,0.00,2.00,101.40,0,1,0,98,100,-7722,3366,16086,2934.50,1,P-GPS,1,0,0,0,333,0,0,1618662652001,4238,4223,4233,4234,0,0,27,,,,,,,0,0,0,-0.00,20.00,1014.00,0.00,0.00,1043.00,6,25.00,9.00,2.02,0.00,0.00,-9.00,0,,,100,100,0,2,0,0,0,2,0,,,,,0.0,0.0,0
55.937788,-4.406344,2.60,2.60,0.90,0.21,2.60,2.60,1.00,0.21,2291,2021-04-17 12:30:52.111,2021-04-17 13:30:52.111,18,0,0,16.086,55.937787,-4.406347,0.00,0.00,-0.90,-0.10,1.90,101.40,0,1,0,98,100,-7722,3366,16086,2934.50,1,P-GPS,1,0,0,0,333,0,0,1618662652111,4238,4223,4233,4234,0,0,27,,,,,,,0,0,0,1.00,19.00,1014.00,0.00,0.00,1043.00,6,26.00,9.00,2.05,0.00,0.00,-9.00,0,,,100,100,0,2,0,0,0,2,0,,,,,0.0,0.0,0
55.937788,-4.406344,2.70,2.70,0.90,0.19,2.70,2.70,1.00,0.21,2382,2021-04-17 12:30:52.202,2021-04-17 13:30:52.202,18,0,0,16.086,55.937787,-4.406347,0.00,0.00,-0.90,0.00,2.00,101.30,0,1,0,98,100,-7722,3366,16086,2934.50,1,P-GPS,1,0,0,0,333,0,0,1618662652202,4238,4223,4233,4234,0,0,27,,,,,,,0,0,0,-0.00,20.00,1013.00,0.00,0.00,1043.00,6,27.00,9.00,1.87,0.00,0.00,-9.00,0,,,100,100,0,2,0,0,0,2,0,,,,,0.0,0.0,0
55.937788,-4.406344,2.80,2.70,0.90,0.19,2.80,2.80,1.00,0.21,2492,2021-04-17 12:30:52.312,2021-04-17 13:30:52.312,18,0,0,16.086,55.937787,-4.406347,0.00,0.00,-0.90,-0.10,2.10,101.30,0,1,0,98,100,-7722,3366,16086,2934.50,1,P-GPS,1,0,0,0,333,0,0,1618662652312,4238,4223,4233,4234,0,0,27,,,,,,,0,0,0,1.00,21.00,1013.00,0.00,0.00,1043.00,6,28.00,9.00,1.89,0.00,0.00,-9.00,0,,,100,100,0,2,0,0,0,2,0,,,,,0.0,0.0,0
55.937788,-4.406344,2.80,2.70,0.90,0.19,2.80,2.80,1.00,0.21,2580,2021-04-17 12:30:52.400,2021-04-17 13:30:52.400,18,0,0,16.086,55.937787,-4.406347,0.00,0.00,-0.90,-0.10,2.10,101.30,0,1,0,98,100,-7722,3366,16086,2934.50,1,P-GPS,1,0,0,0,333,0,0,1618662652400,4238,4223,4233,4234,0,0,27,,,,,,,0,0,0,1.00,21.00,1013.00,0.00,0.00,1043.00,6,28.00,9.00,1.89,0.00,0.00,-9.00,0,,,100,100,0,2,0,0,0,2,0,,,,,0.0,0.0,0
55.937788,-4.406344,3.00,2.90,0.90,0.21,3.00,3.00,1.00,0.21,2692,2021-04-17 12:30:52.512,2021-04-17 13:30:52.512,18,0,0,16.086,55.937787,-4.406347,0.00,0.00,-0.90,-0.10,2.00,101.40,0,1,0,98,100,-7722,3366,16086,2934.50,1,P-GPS,1,0,0,0,332,0,0,1618662652512,4238,4223,4233,4234,0,0,27,,,,,,,0,0,0,1.00,20.00,1014.00,0.00,0.00,1043.00,6,30.00,9.00,2.09,0.00,0.00,-9.00,0,,,100,100,0,2,0,0,0,2,0,,,,,0.0,0.0,0
55.937788,-4.406344,3.10,3.00,0.90,0.21,3.10,3.10,1.00,0.21,2781,2021-04-17 12:30:52.602,2021-04-17 13:30:52.601,18,0,0,16.086,55.937787,-4.406347,0.00,0.00,-0.90,-0.10,1.70,101.50,0,1,0,98,100,-7722,3366,16086,2934.50,1,P-GPS,1,0,0,0,296,0,0,1618662652601,4238,4223,4233,4234,0,0,27,,,,,,,0,0,0,1.00,17.00,1015.00,0.00,0.00,1043.00,6,31.00,9.00,2.11,0.00,0.00,-9.00,0,,,100,100,0,2,0,0,0,2,0,,,,,0.0,0.0,0
55.937788,-4.406344,3.10,3.10,0.80,0.21,3.10,3.10,1.00,0.21,2882,2021-04-17 12:30:52.702,2021-04-17 13:30:52.702,18,0,0,16.086,55.937787,-4.406347,0.00,0.00,-0.80,-0.30,1.90,101.60,0,1,0,98,100,-7722,3366,16086,2934.50,1,P-GPS,1,0,0,0,125,0,0,1618662652702,4238,4223,4233,4234,0,0,27,,,,,,,0,0,0,3.00,19.00,1016.00,0.00,0.00,1043.00,6,31.00,8.00,2.13,0.00,0.00,-8.00,0,,,100,100,0,2,0,0,0,2,0,,,,,0.0,0.0,0
55.937788,-4.406344,3.20,3.20,0.50,0.22,3.20,3.20,1.00,0.22,2985,2021-04-17 12:30:52.805,2021-04-17 13:30:52.805,18,0,0,16.086,55.937787,-4.406347,0.00,0.00,-0.50,-0.60,2.40,101.60,0,1,0,98,100,-7722,3366,16086,2934.50,1,P-GPS,1,0,0,0,0,0,0,1618662652805,4238,4223,4233,4234,0,0,27,,,,,,,0,0,0,6.00,24.00,1016.00,0.00,0.00,1043.00,6,32.00,5.00,2.15,0.00,0.00,-5.00,0,,,100,100,0,2,0,0,0,2,0,,,,,0.0,0.0,0
55.937788,-4.406344,3.30,3.20,0.20,0.22,3.30,3.30,1.00,0.22,3088,2021-04-17 12:30:52.909,2021-04-17 13:30:52.908,18,0,0,16.084,55.937787,-4.406347,0.00,0.00,-0.20,-0.80,2.80,101.60,0,1,0,98,100,-7163,3364,16084,2934.50,1,P-GPS,1,0,0,0,0,0,0,1618662652908,4238,4223,4233,4234,0,0,27,,,,,,,0,0,0,8.00,28.00,1016.00,0.00,0.00,1043.00,6,33.00,2.00,2.18,0.00,0.00,-2.00,0,,,100,100,0,2,0,0,0,2,0,,,,,0.0,0.0,0
55.937788,-4.406344,3.30,3.20,0.10,0.23,3.30,3.30,1.00,0.23,3181,2021-04-17 12:30:53.001,2021-04-17 13:30:53.001,18,0,0,16.084,55.937787,-4.406347,0.00,0.00,-0.10,-1.00,2.70,101.60,0,1,0,98,100,-7163,3364,16084,2934.50,1,P-GPS,1,0,0,0,0,0,0,1618662653001,4238,4223,4233,4234,0,0,27,,,,,,,0,0,0,10.00,27.00,1016.00,0.00,0.00,1043.00,6,33.00,1.00,2.28,0.00,0.00,-1.00,0,,,100,100,0,2,0,0,0,2,0,,,,,0.0,0.0,0
55.937788,-4.406344,3.30,3.20,0.00,0.23,3.30,3.30,1.00,0.23,3289,2021-04-17 12:30:53.109,2021-04-17 13:30:53.109,18,0,0,16.084,55.937787,-4.406347,0.00,0.00,0.00,-1.20,2.50,101.50,0,1,0,98,100,-7163,3364,16084,2934.50,1,P-GPS,1,0,0,0,0,0,0,1618662653109,4238,4223,4233,4234,0,0,27,,,,,,,0,0,0,12.00,25.00,1015.00,0.00,0.00,1043.00,6,33.00,0.00,2.30,0.00,0.00,0.00,0,,,100,100,0,2,0,0,0,2,0,,,,,0.0,0.0,0
55.937788,-4.406345,3.30,3.20,0.00,0.21,3.30,3.30,1.00,0.23,3382,2021-04-17 12:30:53.202,2021-04-17 13:30:53.202,18,0,0,16.084,55.937787,-4.406347,0.00,0.00,0.00,-1.50,2.00,101.40,0,1,0,98,100,-7163,3364,16084,2934.50,1,P-GPS,1,0,0,0,0,0,0,1618662653202,4238,4223,4233,4234,0,0,27,,,,,,,0,0,0,15.00,20.00,1014.00,0.00,0.00,1043.00,6,33.00,0.00,2.05,0.00,0.00,0.00,0,,,100,100,0,2,0,0,0,2,0,,,,,0.0,0.0,0
55.937788,-4.406345,3.30,3.20,0.00,0.21,3.30,3.30,1.00,0.23,3496,2021-04-17 12:30:53.316,2021-04-17 13:30:53.316,17,0,0,16.084,55.937787,-4.406347,0.00,0.00,0.00,-1.80,1.80,101.40,0,1,0,98,100,-7163,3364,16084,2934.50,1,P-GPS,1,0,0,0,0,0,0,1618662653316,4238,4223,4233,4234,0,0,27,,,,,,,0,0,0,18.00,18.00,1014.00,0.00,0.00,1043.00,6,33.00,0.00,2.05,0.00,0.00,0.00,0,,,100,100,0,2,0,0,0,2,0,,,,,0.0,0.0,0
55.937788,-4.406345,3.30,3.20,0.00,0.20,3.30,3.30,1.00,0.23,3596,2021-04-17 12:30:53.416,2021-04-17 13:30:53.416,17,0,0,16.084,55.937787,-4.406347,0.00,0.00,0.00,-1.90,2.00,101.40,0,1,0,98,100,-7163,3364,16084,2934.50,1,P-GPS,1,0,0,0,0,0,0,1618662653416,4238,4223,4233,4234,0,0,27,,,,,,,0,0,0,19.00,20.00,1014.00,0.00,0.00,1043.00,6,33.00,0.00,2.00,0.00,0.00,0.00,0,,,100,100,0,2,0,0,0,2,0,,,,,0.0,0.0,0
55.937788,-4.406345,3.30,3.20,0.00,0.20,3.30,3.30,1.00,0.23,3683,2021-04-17 12:30:53.503,2021-04-17 13:30:53.503,17,0,0,16.084,55.937787,-4.406347,0.00,0.00,0.00,-2.00,2.30,101.40,0,1,0,98,100,-7163,3364,16084,2934.50,1,P-GPS,1,0,0,0,0,0,0,1618662653503,4238,4223,4233,4234,0,0,27,,,,,,,0,0,0,20.00,23.00,1014.00,0.00,0.00,1043.00,6,33.00,0.00,2.03,0.00,0.00,0.00,0,,,100,100,0,2,0,0,0,2,0,,,,,0.0,0.0,0
55.937789,-4.406345,3.30,3.20,0.00,0.21,3.30,3.30,1.00,0.23,3792,2021-04-17 12:30:53.612,2021-04-17 13:30:53.612,17,0,0,16.084,55.937787,-4.406347,0.00,0.00,0.00,-2.00,2.60,101.40,0,1,0,98,100,-7163,3364,16084,2934.50,1,P-GPS,1,0,0,0,0,0,0,1618662653612,4238,4223,4233,4234,0,0,27,,,,,,,0,0,0,20.00,26.00,1014.00,0.00,0.00,1043.00,6,33.00,0.00,2.06,0.00,0.00,0.00,0,,,100,100,0,2,0,0,0,2,0,,,,,0.0,0.0,0
55.937789,-4.406345,3.30,3.20,0.00,0.21,3.30,3.30,1.00,0.23,3900,2021-04-17 12:30:53.720,2021-04-17 13:30:53.720,17,0,0,16.084,55.937787,-4.406347,0.00,0.00,0.00,-1.80,2.80,101.40,0,1,0,98,100,-7163,3364,16084,2934.50,1,P-GPS,1,0,0,0,0,0,0,1618662653720,4238,4223,4233,4234,0,0,27,,,,,,,0,0,0,18.00,28.00,1014.00,0.00,0.00,1043.00,6,33.00,0.00,2.12,0.00,0.00,0.00,0,,,100,100,0,2,0,0,0,2,0,,,,,0.0,0.0,0
55.937789,-4.406345,3.20,3.20,0.00,0.23,3.30,3.30,1.00,0.23,4004,2021-04-17 12:30:53.824,2021-04-17 13:30:53.824,17,0,0,16.084,55.937787,-4.406347,0.00,0.00,0.00,-1.70,3.00,101.50,0,1,0,98,100,-7163,3364,16084,2934.50,1,P-GPS,1,0,0,0,0,0,0,1618662653824,4238,4223,4233,4234,0,0,27,,,,,,,0,0,0,17.00,30.00,1015.00,0.00,0.00,1043.00,6,32.00,0.00,2.33,0.00,0.00,0.00,0,,,100,100,0,2,0,0,0,2,0,,,,,0.0,0.0,0
55.937789,-4.406345,3.20,3.20,0.00,0.24,3.30,3.30,1.00,0.24,4093,2021-04-17 12:30:53.913,2021-04-17 13:30:53.913,17,0,0,16.345,55.937787,-4.406347,0.00,0.00,0.00,-1.40,3.10,101.50,0,1,0,98,100,-6458,3362,16345,2934.50,1,P-GPS,1,0,0,0,0,0,0,1618662653913,4112,4092,4080,4062,0,0,27,,,,,,,0,0,0,14.00,31.00,1015.00,0.00,0.00,1043.00,6,32.00,0.00,2.42,0.00,0.00,0.00,0,,,100,100,0,2,0,0,0,2,0,,,,,0.0,0.0,0
55.937789,-4.406345,3.20,3.20,0.00,0.24,3.30,3.30,1.00,0.24,4199,2021-04-17 12:30:54.020,2021-04-17 13:30:54.019,17,0,0,16.345,55.937787,-4.406347,0.00,0.00,0.00,-1.30,3.00,101.40,0,1,0,98,100,-6458,3362,16345,2934.50,1,P-GPS,1,0,0,0,0,0,0,1618662654019,4112,4092,4080,4062,0,0,27,,,,,,,0,0,0,13.00,30.00,1014.00,0.00,0.00,1043.00,6,32.00,0.00,2.39,0.00,0.00,0.00,0,,,100,100,0,2,0,0,0,2,0,,,,,0.0,0.0,0
55.937789,-4.406345,3.20,3.20,0.00,0.26,3.30,3.30,1.00,0.26,4421,2021-04-17 12:30:54.241,2021-04-17 13:30:54.241,17,0,0,16.345,55.937787,-4.406347,0.00,0.00,0.00,-1.00,3.00,101.60,0,1,0,98,100,-6458,3362,16345,2934.50,1,P-GPS,1,0,0,0,0,0,0,1618662654241,4112,4092,4080,4062,0,0,27,,,,,,,0,0,0,10.00,30.00,1016.00,0.00,0.00,1043.00,6,32.00,0.00,2.58,0.00,0.00,0.00,0,,,100,100,0,2,0,0,0,2,0,,,,,0.0,0.0,0
55.937789,-4.406345,3.20,3.20,0.00,0.26,3.30,3.30,1.00,0.26,4528,2021-04-17 12:30:54.348,2021-04-17 13:30:54.348,17,0,0,16.345,55.937787,-4.406347,0.00,0.00,0.00,-0.90,3.00,101.60,0,1,0,98,100,-6458,3362,16345,2934.50,1,P-GPS,1,0,0,0,0,0,0,1618662654348,4112,4092,4080,4062,0,0,27,,,,,,,0,0,0,9.00,30.00,1016.00,0.00,0.00,1043.00,6,32.00,0.00,2.64,0.00,0.00,0.00,0,,,100,100,0,2,0,0,0,2,0,,,,,0.0,0.0,0
55.937789,-4.406345,3.20,3.20,0.00,0.27,3.30,3.30,1.00,0.27,4682,2021-04-17 12:30:54.503,2021-04-17 13:30:54.503,17,0,0,16.345,55.937787,-4.406347,0.00,0.00,0.00,-1.10,2.40,101.50,0,1,0,98,100,-6458,3362,16345,2934.50,1,P-GPS,1,0,0,0,0,0,0,1618662654502,4112,4092,4080,4062,0,0,27,,,,,,,0,0,0,11.00,24.00,1015.00,0.00,0.00,1043.00,6,32.00,0.00,2.69,0.00,0.00,0.00,0,,,100,100,0,2,0,0,0,2,0,,,,,0.0,0.0,0
55.937789,-4.406345,3.20,3.20,0.00,0.27,3.30,3.30,1.00,0.27,4785,2021-04-17 12:30:54.605,2021-04-17 13:30:54.605,17,0,0,16.345,55.937787,-4.406347,0.00,0.00,0.00,-1.30,2.50,101.50,0,1,0,98,100,-6458,3362,16345,2934.50,1,P-GPS,1,0,0,0,0,0,0,1618662654605,4112,4092,4080,4062,0,0,27,,,,,,,0,0,0,13.00,25.00,1015.00,0.00,0.00,1043.00,6,32.00,0.00,2.67,0.00,0.00,0.00,0,,,100,100,0,2,0,0,0,2,0,,,,,0.0,0.0,0
55.937789,-4.406345,3.20,3.20,0.00,0.27,3.30,3.30,1.00,0.27,4884,2021-04-17 12:30:54.704,2021-04-17 13:30:54.704,16,0,0,16.345,55.937787,-4.406347,0.00,0.00,0.00,-1.50,2.60,101.40,0,1,0,98,100,-6458,3362,16345,2934.50,1,P-GPS,1,0,0,0,0,0,0,1618662654704,4112,4092,4080,4062,0,0,27,,,,,,,0,0,0,15.00,26.00,1014.00,0.00,0.00,1043.00,6,32.00,0.00,2.72,0.00,0.00,0.00,0,,,100,100,0,2,0,0,0,2,0,,,,,0.0,0.0,0
55.937789,-4.406345,3.20,3.20,0.00,0.27,3.30,3.30,1.00,0.27,4988,2021-04-17 12:30:54.808,2021-04-17 13:30:54.808,16,0,0,16.345,55.937787,-4.406347,0.00,0.00,0.00,-1.40,2.60,101.30,0,1,0,98,100,-6458,3362,16345,2934.50,1,P-GPS,1,0,0,0,0,0,0,1618662654808,4112,4092,4080,4062,0,0,27,,,,,,,0,0,0,14.00,26.00,1013.00,0.00,0.00,1043.00,6,32.00,0.00,2.67,0.00,0.00,0.00,0,,,100,100,0,2,0,0,0,2,0,,,,,0.0,0.0,0
55.937789,-4.406345,3.20,3.20,0.00,0.27,3.30,3.30,1.00,0.27,5096,2021-04-17 12:30:54.917,2021-04-17 13:30:54.916,16,0,0,16.073,55.937787,-4.406347,0.00,0.00,0.00,-1.30,2.80,101.40,0,1,0,98,100,-6901,3361,16073,2935.50,1,P-GPS,1,0,0,0,0,0,0,1618662654916,4112,4092,4080,4062,0,0,27,,,,,,,0,0,0,13.00,28.00,1014.00,0.00,0.00,1043.00,6,32.00,0.00,2.72,0.00,0.00,0.00,0,,,100,100,0,2,0,0,0,2,0,,,,,0.0,0.0,0
55.937789,-4.406345,3.20,3.20,0.00,0.26,3.30,3.30,1.00,0.27,5183,2021-04-17 12:30:55.003,2021-04-17 13:30:55.003,16,0,0,16.073,55.937787,-4.406347,0.00,0.00,0.00,-1.60,3.20,101.50,0,1,0,98,100,-6901,3361,16073,2935.50,1,P-GPS,1,0,0,0,0,0,0,1618662655003,4112,4092,4080,4062,0,0,27,,,,,,,0,0,0,16.00,32.00,1015.00,0.00,0.00,1043.00,6,32.00,0.00,2.63,0.00,0.00,0.00,0,,,100,100,0,2,0,0,0,2,0,,,,,0.0,0.0,0
55.937789,-4.406345,3.20,3.20,0.00,0.27,3.30,3.30,1.00,0.27,5294,2021-04-17 12:30:55.114,2021-04-17 13:30:55.114,16,0,0,16.073,55.937787,-4.406347,0.00,0.00,0.00,-1.50,3.40,101.50,0,1,0,98,100,-6901,3361,16073,2935.50,1,P-GPS,1,0,0,0,0,0,0,1618662655114,4112,4092,4080,4062,0,0,27,,,,,,,0,0,0,15.00,34.00,1015.00,0.00,0.00,1043.00,6,32.00,0.00,2.67,0.00,0.00,0.00,0,,,100,100,0,2,0,0,0,2,0,,,,,0.0,0.0,0
55.937789,-4.406345,3.20,3.20,0.00,0.28,3.30,3.30,1.00,0.28,5400,2021-04-17 12:30:55.220,2021-04-17 13:30:55.220,16,0,0,16.073,55.937787,-4.406347,0.00,0.00,0.00,-1.50,3.30,101.40,0,1,0,98,100,-6901,3361,16073,2935.50,1,P-GPS,1,0,0,0,0,0,0,1618662655220,4112,4092,4080,4062,0,0,27,,,,,,,0,0,0,15.00,33.00,1014.00,0.00,0.00,1043.00,6,32.00,0.00,2.77,0.00,0.00,0.00,0,,,100,100,0,2,0,0,0,2,0,,,,,0.0,0.0,0
55.937789,-4.406345,3.20,3.20,0.00,0.28,3.30,3.30,1.00,0.28,5494,2021-04-17 12:30:55.314,2021-04-17 13:30:55.314,16,0,0,16.073,55.937787,-4.406347,0.00,0.00,0.00,-1.80,3.30,101.30,0,1,0,98,100,-6901,3361,16073,2935.50,1,P-GPS,1,0,0,0,0,0,0,1618662655314,4112,4092,4080,4062,0,0,27,,,,,,,0,0,0,18.00,33.00,1013.00,0.00,0.00,1043.00,6,32.00,0.00,2.81,0.00,0.00,0.00,0,,,100,100,0,2,0,0,0,2,0,,,,,0.0,0.0,0
55.937789,-4.406345,3.20,3.20,0.00,0.27,3.30,3.30,1.00,0.28,5598,2021-04-17 12:30:55.419,2021-04-17 13:30:55.419,16,0,0,16.073,55.937787,-4.406347,0.00,0.00,0.00,-1.90,3.20,101.20,0,1,0,98,100,-6901,3361,16073,2935.50,1,P-GPS,1,0,0,0,0,0,0,1618662655418,4112,4092,4080,4062,0,0,27,,,,,,,0,0,0,19.00,32.00,1012.00,0.00,0.00,1043.00,6,32.00,0.00,2.70,0.00,0.00,0.00,0,,,100,100,0,2,0,0,0,2,0,,,,,0.0,0.0,0
55.937789,-4.406345,3.20,3.20,0.00,0.27,3.30,3.30,1.00,0.28,5698,2021-04-17 12:30:55.518,2021-04-17 13:30:55.518,16,0,0,16.073,55.937787,-4.406347,0.00,0.00,0.00,-1.90,3.40,101.30,0,1,0,98,100,-6901,3361,16073,2935.50,1,P-GPS,1,0,0,0,0,0,0,1618662655518,4112,4092,4080,4062,0,0,27,,,,,,,0,0,0,19.00,34.00,1013.00,0.00,0.00,1043.00,6,32.00,0.00,2.74,0.00,0.00,0.00,0,,,100,100,0,2,0,0,0,2,0,,,,,0.0,0.0,0
55.937790,-4.406345,3.20,3.20,0.00,0.31,3.30,3.30,1.00,0.31,5897,2021-04-17 12:30:55.717,2021-04-17 13:30:55.717,16,0,0,16.073,55.937787,-4.406347,0.00,0.00,0.00,-1.70,3.80,101.30,0,1,0,98,100,-6901,3361,16073,2935.50,1,P-GPS,1,0,0,0,0,0,0,1618662655717,4112,4092,4080,4062,0,0,27,,,,,,,0,0,0,17.00,38.00,1013.00,0.00,0.00,1043.00,6,32.00,0.00,3.06,0.00,0.00,0.00,0,,,100,100,0,2,0,0,0,2,0,,,,,0.0,0.0,0
55.937790,-4.406345,3.20,3.20,0.00,0.31,3.30,3.30,1.00,0.31,5997,2021-04-17 12:30:55.817,2021-04-17 13:30:55.817,16,0,0,16.073,55.937787,-4.406347,0.00,0.00,0.00,-1.60,3.50,101.40,0,1,0,98,100,-6901,3361,16073,2935.50,1,P-GPS,1,0,0,0,0,0,0,1618662655817,4112,4092,4080,4062,0,0,27,,,,,,,0,0,0,16.00,35.00,1014.00,0.00,0.00,1043.00,6,32.00,0.00,3.06,0.00,0.00,0.00,0,,,100,100,0,2,0,0,0,2,0,,,,,0.0,0.0,0
55.937790,-4.406345,3.20,3.20,0.00,0.31,3.30,3.30,1.00,0.31,6084,2021-04-17 12:30:55.904,2021-04-17 13:30:55.904,16,0,0,16.054,55.937787,-4.406347,0.00,0.00,0.00,-1.60,3.60,101.40,0,1,0,97,100,-6939,3359,16054,2935.50,1,P-GPS,1,0,0,0,0,0,0,1618662655904,4112,4092,4080,4062,0,0,27,,,,,,,0,0,0,16.00,36.00,1014.00,0.00,0.00,1043.00,6,32.00,0.00,3.10,0.00,0.00,0.00,0,,,100,100,0,2,0,0,0,2,0,,,,,0.0,0.0,0
55.937790,-4.406345,3.20,3.20,0.00,0.32,3.30,3.30,1.00,0.32,6208,2021-04-17 12:30:56.028,2021-04-17 13:30:56.028,16,0,0,16.054,55.937787,-4.406347,0.00,0.00,0.00,-1.60,3.60,101.40,0,1,0,97,100,-6939,3359,16054,2935.50,1,P-GPS,1,0,0,0,0,0,0,1618662656028,4112,4092,4080,4062,0,0,27,,,,,,,0,0,0,16.00,36.00,1014.00,0.00,0.00,1043.00,6,32.00,0.00,3.17,0.00,0.00,0.00,0,,,100,100,0,2,0,0,0,2,0,,,,,0.0,0.0,0
55.937790,-4.406345,3.20,3.20,0.00,0.32,3.30,3.30,1.00,0.32,6298,2021-04-17 12:30:56.118,2021-04-17 13:30:56.118,16,0,0,16.054,55.937787,-4.406347,0.00,0.00,0.00,-1.60,3.60,101.40,0,1,0,97,100,-6939,3359,16054,2935.50,1,P-GPS,1,0,0,0,0,0,0,1618662656118,4112,4092,4080,4062,0,0,27,,,,,,,0,0,0,16.00,36.00,1014.00,0.00,0.00,1043.00,6,32.00,0.00,3.21,0.00,0.00,0.00,0,,,100,100,0,2,0,0,0,2,0,,,,,0.0,0.0,0
55.937790,-4.406345,3.20,3.20,0.00,0.33,3.30,3.30,1.00,0.33,6486,2021-04-17 12:30:56.306,2021-04-17 13:30:56.306,16,0,0,16.054,55.937787,-4.406347,0.00,0.00,0.00,-1.50,3.60,101.40,0,1,0,97,100,-6939,3359,16054,2935.50,1,P-GPS,1,0,0,0,0,0,0,1618662656306,4112,4092,4080,4062,0,0,27,,,,,,,0,0,0,15.00,36.00,1014.00,0.00,0.00,1043.00,6,32.00,0.00,3.29,0.00,0.00,0.00,0,,,100,100,0,2,0,0,0,2,0,,,,,0.0,0.0,0
55.937790,-4.406345,3.20,3.20,0.00,0.34,3.30,3.30,1.00,0.34,6607,2021-04-17 12:30:56.427,2021-04-17 13:30:56.427,16,0,0,16.054,55.937787,-4.406347,0.00,0.00,0.00,-1.50,3.60,101.40,0,1,0,97,100,-6939,3359,16054,2935.50,1,P-GPS,1,0,0,0,0,0,0,1618662656427,4112,4092,4080,4062,0,0,27,,,,,,,0,0,0,15.00,36.00,1014.00,0.00,0.00,1043.00,6,32.00,0.00,3.35,0.00,0.00,0.00,0,,,100,100,0,2,0,0,0,2,0,,,,,0.0,0.0,0
55.937790,-4.406345,3.20,3.20,0.00,0.34,3.30,3.30,1.00,0.34,6693,2021-04-17 12:30:56.513,2021-04-17 13:30:56.513,16,0,0,16.054,55.937787,-4.406347,0.00,0.00,0.00,-1.50,3.70,101.40,0,1,0,97,100,-6939,3359,16054,2935.50,1,P-GPS,1,0,0,0,0,0,0,1618662656513,4112,4092,4080,4062,0,0,27,,,,,,,0,0,0,15.00,37.00,1014.00,0.00,0.00,1043.00,6,32.00,0.00,3.39,0.00,0.00,0.00,0,,,100,100,0,2,0,0,0,2,0,,,,,0.0,0.0,0
55.937790,-4.406345,3.20,3.20,0.00,0.33,3.30,3.30,1.00,0.34,6781,2021-04-17 12:30:56.602,2021-04-17 13:30:56.601,16,0,0,16.054,55.937787,-4.406347,0.00,0.00,0.00,-1.50,3.70,101.40,0,1,0,97,100,-6939,3359,16054,2935.50,1,P-GPS,1,0,0,0,0,0,0,1618662656601,4112,4092,4080,4062,0,0,27,,,,,,,0,0,0,15.00,37.00,1014.00,0.00,0.00,1043.00,6,32.00,0.00,3.29,0.00,0.00,0.00,0,,,100,100,0,2,0,0,0,2,0,,,,,0.0,0.0,0
55.937790,-4.406345,3.20,3.20,0.00,0.33,3.30,3.30,1.00,0.34,6902,2021-04-17 12:30:56.723,2021-04-17 13:30:56.722,16,0,0,16.054,55.937787,-4.406347,0.00,0.00,0.00,-1.60,3.80,101.40,0,1,0,97,100,-6939,3359,16054,2935.50,1,P-GPS,1,0,0,0,0,0,0,1618662656722,4112,4092,4080,4062,0,0,27,,,,,,,0,0,0,16.00,38.00,1014.00,0.00,0.00,1043.00,6,32.00,0.00,3.31,0.00,0.00,0.00,0,,,100,100,0,2,0,0,0,2,0,,,,,0.0,0.0,0
55.937790,-4.406345,3.20,3.20,0.00,0.33,3.30,3.30,1.00,0.34,6998,2021-04-17 12:30:56.818,2021-04-17 13:30:56.818,16,0,0,16.054,55.937787,-4.406347,0.00,0.00,0.00,-1.70,3.80,101.40,0,1,0,97,100,-6939,3359,16054,2935.50,1,P-GPS,1,0,0,0,0,0,0,1618662656818,4112,4092,4080,4062,0,0,27,,,,,,,0,0,0,17.00,38.00,1014.00,0.00,0.00,1043.00,6,32.00,0.00,3.28,0.00,0.00,0.00,0,,,100,100,0,2,0,0,0,2,0,,,,,0.0,0.0,0
55.937790,-4.406345,3.20,3.20,0.00,0.33,3.30,3.30,1.00,0.34,7083,2021-04-17 12:30:56.903,2021-04-17 13:30:56.903,16,0,0,16.054,55.937787,-4.406347,0.00,0.00,0.00,-1.70,3.50,101.40,0,1,0,97,100,-6926,3359,16054,2935.50,1,P-GPS,1,0,0,0,0,0,0,1618662656903,4112,4092,4080,4062,0,0,27,,,,,,,0,0,0,17.00,35.00,1014.00,0.00,0.00,1043.00,6,32.00,0.00,3.27,0.00,0.00,0.00,0,,,100,100,0,2,0,0,0,2,0,,,,,0.0,0.0,0
55.937790,-4.406345,3.20,3.20,0.00,0.33,3.30,3.30,1.00,0.34,7208,2021-04-17 12:30:57.028,2021-04-17 13:30:57.028,16,0,0,16.054,55.937787,-4.406347,0.00,0.00,0.00,-1.70,3.40,101.50,0,1,0,97,100,-6926,3359,16054,2935.50,1,P-GPS,1,0,0,0,0,0,0,1618662657028,4112,4092,4080,4062,0,0,27,,,,,,,0,0,0,17.00,34.00,1015.00,0.00,0.00,1043.00,6,32.00,0.00,3.32,0.00,0.00,0.00,0,,,100,100,0,2,0,0,0,2,0,,,,,0.0,0.0,0
55.937790,-4.406345,3.20,3.10,0.00,0.33,3.30,3.30,1.00,0.34,7384,2021-04-17 12:30:57.205,2021-04-17 13:30:57.205,16,0,0,16.054,55.937787,-4.406347,0.00,0.00,0.00,-1.70,3.30,101.50,0,1,0,97,100,-6926,3359,16054,2935.50,1,P-GPS,1,0,0,0,0,0,0,1618662657204,4112,4092,4080,4062,0,0,27,,,,,,,0,0,0,17.00,33.00,1015.00,0.00,0.00,1043.00,6,32.00,0.00,3.28,0.00,0.00,0.00,0,,,100,100,0,2,0,0,0,2,0,,,,,0.0,0.0,0
55.937790,-4.406345,3.20,3.10,0.00,0.33,3.30,3.30,1.00,0.34,7498,2021-04-17 12:30:57.318,2021-04-17 13:30:57.318,16,0,0,16.054,55.937787,-4.406347,0.00,0.00,0.00,-1.70,3.30,101.50,0,1,0,97,100,-6926,3359,16054,2935.50,1,P-GPS,1,0,0,0,0,0,0,1618662657318,4112,4092,4080,4062,0,0,27,,,,,,,0,0,0,17.00,33.00,1015.00,0.00,0.00,1043.00,6,32.00,0.00,3.27,0.00,0.00,0.00,0,,,100,100,0,2,0,0,0,2,0,,,,,0.0,0.0,0
55.937790,-4.406345,3.20,3.10,0.00,0.33,3.30,3.30,1.00,0.34,7583,2021-04-17 12:30:57.403,2021-04-17 13:30:57.403,16,0,0,16.054,55.937787,-4.406347,0.00,0.00,0.00,-1.60,3.30,101.40,0,1,0,97,100,-6926,3359,16054,2935.50,1,P-GPS,1,0,0,0,0,0,0,1618662657403,4112,4092,4080,4062,0,0,27,,,,,,,0,0,0,16.00,33.00,1014.00,0.00,0.00,1043.00,6,32.00,0.00,3.27,0.00,0.00,0.00,0,,,100,100,0,2,0,0,0,2,0,,,,,0.0,0.0,0
55.937790,-4.406345,3.20,3.10,0.00,0.32,3.30,3.30,1.00,0.34,7700,2021-04-17 12:30:57.520,2021-04-17 13:30:57.520,16,0,0,16.054,55.937787,-4.406347,0.00,0.00,0.00,-1.50,3.20,101.40,0,1,0,97,100,-6926,3359,16054,2935.50,1,P-GPS,1,0,0,0,0,0,0,1618662657520,4112,4092,4080,4062,0,0,27,,,,,,,0,0,0,15.00,32.00,1014.00,0.00,0.00,1043.00,6,32.00,0.00,3.25,0.00,0.00,0.00,0,,,100,100,0,2,0,0,0,2,0,,,,,0.0,0.0,0
55.937790,-4.406345,3.20,3.10,0.00,0.31,3.30,3.30,1.00,0.34,7886,2021-04-17 12:30:57.706,2021-04-17 13:30:57.706,16,0,0,16.035,55.937787,-4.406347,0.00,0.00,0.00,-1.70,2.60,101.40,0,1,0,97,100,-6926,3355,16035,2936.50,1,P-GPS,1,0,0,0,0,0,0,1618662657706,4112,4092,4080,4062,0,0,27,,,,,,,0,0,0,17.00,26.00,1014.00,0.00,0.00,1043.00,6,32.00,0.00,3.12,0.00,0.00,0.00,0,,,100,100,0,2,0,0,0,2,0,,,,,0.0,0.0,0
55.937790,-4.406344,3.20,3.10,0.00,0.32,3.30,3.30,1.00,0.34,7999,2021-04-17 12:30:57.819,2021-04-17 13:30:57.819,16,0,0,16.035,55.937787,-4.406347,0.00,0.00,0.00,-1.80,2.70,101.40,0,1,0,97,100,-6926,3355,16035,2936.50,1,P-GPS,1,0,0,0,0,0,0,1618662657819,4112,4092,4080,4062,0,0,27,,,,,,,0,0,0,18.00,27.00,1014.00,0.00,0.00,1043.00,6,32.00,0.00,3.21,0.00,0.00,0.00,0,,,100,100,0,2,0,0,0,2,0,,,,,0.0,0.0,0
55.937790,-4.406344,3.20,3.10,0.00,0.32,3.30,3.30,1.00,0.34,8085,2021-04-17 12:30:57.905,2021-04-17 13:30:57.905,16,0,0,16.035,55.937787,-4.406347,0.00,0.00,0.00,-1.60,2.90,101.40,0,1,0,97,100,-6926,3355,16035,2936.50,1,P-GPS,1,0,0,0,0,0,0,1618662657905,4112,4092,4080,4062,0,0,27,,,,,,,0,0,0,16.00,29.00,1014.00,0.00,0.00,1043.00,6,32.00,0.00,3.20,0.00,0.00,0.00,0,,,100,100,0,2,0,0,0,2,0,,,,,0.0,0.0,0
55.937789,-4.406344,3.20,3.10,0.00,0.32,3.30,3.30,1.00,0.34,8185,2021-04-17 12:30:58.005,2021-04-17 13:30:58.005,16,0,0,16.035,55.937787,-4.406347,0.00,0.00,0.00,-1.30,3.00,101.50,0,1,0,97,100,-6926,3355,16035,2936.50,1,P-GPS,1,0,0,0,0,0,0,1618662658005,4112,4092,4080,4062,0,0,27,,,,,,,0,0,0,13.00,30.00,1015.00,0.00,0.00,1043.00,6,32.00,0.00,3.16,0.00,0.00,0.00,0,,,100,100,0,2,0,0,0,2,0,,,,,0.0,0.0,0
55.937789,-4.406344,3.20,3.10,0.00,0.32,3.30,3.30,1.00,0.34,8283,2021-04-17 12:30:58.103,2021-04-17 13:30:58.103,16,0,0,16.035,55.937787,-4.406347,0.00,0.00,0.00,-1.50,2.90,101.40,0,1,0,97,100,-6926,3355,16035,2936.50,1,P-GPS,1,0,0,0,0,0,0,1618662658103,4112,4092,4080,4062,0,0,27,,,,,,,0,0,0,15.00,29.00,1014.00,0.00,0.00,1043.00,6,32.00,0.00,3.17,0.00,0.00,0.00,0,,,100,100,0,2,0,0,0,2,0,,,,,0.0,0.0,0
55.937789,-4.406344,3.20,3.10,0.00,0.32,3.30,3.30,1.00,0.34,8386,2021-04-17 12:30:58.206,2021-04-17 13:30:58.206,16,0,0,16.035,55.937787,-4.406347,0.00,0.00,0.00,-1.50,3.20,101.40,0,1,0,97,100,-6926,3355,16035,2936.50,1,P-GPS,1,0,0,0,0,0,0,1618662658206,4112,4092,4080,4062,0,0,27,,,,,,,0,0,0,15.00,32.00,1014.00,0.00,0.00,1043.00,6,32.00,0.00,3.21,0.00,0.00,0.00,0,,,100,100,0,2,0,0,0,2,0,,,,,0.0,0.0,0
55.937789,-4.406344,3.20,3.10,0.00,0.32,3.30,3.30,1.00,0.34,8499,2021-04-17 12:30:58.319,2021-04-17 13:30:58.319,16,0,0,16.029,55.937787,-4.406347,0.00,0.00,0.00,-1.50,3.30,101.50,0,1,0,97,100,-6988,3353,16029,2936.50,1,P-GPS,1,0,0,0,0,0,0,1618662658319,4112,4092,4080,4062,0,0,27,,,,,,,0,0,0,15.00,33.00,1015.00,0.00,0.00,1043.00,6,32.00,0.00,3.24,0.00,0.00,0.00,0,,,100,100,0,2,0,0,0,2,0,,,,,0.0,0.0,0
55.937789,-4.406344,3.20,3.10,0.00,0.33,3.30,3.30,1.00,0.34,8603,2021-04-17 12:30:58.424,2021-04-17 13:30:58.423,16,0,0,16.029,55.937787,-4.406347,0.00,0.00,0.00,-1.20,3.30,101.50,0,1,0,97,100,-6988,3353,16029,2936.50,1,P-GPS,1,0,0,0,0,0,0,1618662658423,4112,4092,4080,4062,0,0,27,,,,,,,0,0,0,12.00,33.00,1015.00,0.00,0.00,1043.00,6,32.00,0.00,3.26,0.00,0.00,0.00,0,,,100,100,0,2,0,0,0,2,0,,,,,0.0,0.0,0
55.937789,-4.406344,3.20,3.10,0.00,0.33,3.30,3.30,1.00,0.34,8698,2021-04-17 12:30:58.518,2021-04-17 13:30:58.518,16,0,0,16.029,55.937787,-4.406347,0.00,0.00,0.00,-1.00,3.30,101.50,0,1,0,97,100,-6988,3353,16029,2936.50,1,P-GPS,1,0,0,0,0,0,0,1618662658518,4112,4092,4080,4062,0,0,27,,,,,,,0,0,0,10.00,33.00,1015.00,0.00,0.00,1043.00,6,32.00,0.00,3.29,0.00,0.00,0.00,0,,,100,100,0,2,0,0,0,2,0,,,,,0.0,0.0,0
55.937789,-4.406343,3.20,3.10,0.00,0.35,3.30,3.30,1.00,0.35,8782,2021-04-17 12:30:58.603,2021-04-17 13:30:58.602,16,0,0,16.029,55.937787,-4.406347,0.00,0.00,0.00,-1.00,3.00,101.50,0,1,0,97,100,-6988,3353,16029,2936.50,1,P-GPS,1,0,0,0,0,0,0,1618662658602,4112,4092,4080,4062,0,0,27,,,,,,,0,0,0,10.00,30.00,1015.00,0.00,0.00,1043.00,6,32.00,0.00,3.47,0.00,0.00,0.00,0,,,100,100,0,2,0,0,0,2,0,,,,,0.0,0.0,0
55.937789,-4.406343,3.20,3.10,0.00,0.35,3.30,3.30,1.00,0.35,8898,2021-04-17 12:30:58.718,2021-04-17 13:30:58.718,16,0,0,16.029,55.937787,-4.406347,0.00,0.00,0.00,-0.90,2.90,101.40,0,1,0,97,100,-6988,3353,16029,2936.50,1,P-GPS,1,0,0,0,0,0,0,1618662658718,4112,4092,4080,4062,0,0,27,,,,,,,0,0,0,9.00,29.00,1014.00,0.00,0.00,1043.00,6,32.00,0.00,3.52,0.00,0.00,0.00,0,,,100,100,0,2,0,0,0,2,0,,,,,0.0,0.0,0
55.937789,-4.406343,3.20,3.10,0.00,0.34,3.30,3.30,1.00,0.35,9008,2021-04-17 12:30:58.828,2021-04-17 13:30:58.828,16,0,0,16.029,55.937787,-4.406347,0.00,0.00,0.00,-0.80,3.00,101.40,0,1,0,97,100,-6988,3353,16029,2936.50,1,P-GPS,1,0,0,0,0,0,0,1618662658828,4112,4092,4080,4062,0,0,27,,,,,,,0,0,0,8.00,30.00,1014.00,0.00,0.00,1043.00,6,32.00,0.00,3.45,0.00,0.00,0.00,0,,,100,100,0,2,0,0,0,2,0,,,,,0.0,0.0,0
55.937789,-4.406343,3.20,3.10,0.00,0.37,3.30,3.30,1.00,0.37,9201,2021-04-17 12:30:59.021,2021-04-17 13:30:59.021,16,0,0,16.029,55.937787,-4.406347,0.00,0.00,0.00,-0.70,3.10,101.40,0,1,0,97,100,-6988,3353,16029,2936.50,1,P-GPS,1,0,0,0,0,0,0,1618662659021,4112,4092,4080,4062,0,0,27,,,,,,,0,0,0,7.00,31.00,1014.00,0.00,0.00,1043.00,6,32.00,0.00,3.71,0.00,0.00,0.00,0,,,100,100,0,2,0,0,0,2,0,,,,,0.0,0.0,0
55.937789,-4.406342,3.20,3.10,0.00,0.38,3.30,3.30,1.00,0.38,9399,2021-04-17 12:30:59.219,2021-04-17 13:30:59.219,16,0,0,16.029,55.937787,-4.406347,0.00,0.00,0.00,-0.70,2.90,101.50,0,1,0,97,100,-6988,3353,16029,2936.50,1,P-GPS,1,0,0,0,0,0,0,1618662659219,4112,4092,4080,4062,0,0,27,,,,,,,0,0,0,7.00,29.00,1015.00,0.00,0.00,1043.00,6,32.00,0.00,3.78,0.00,0.00,0.00,0,,,100,100,0,2,0,0,0,2,0,,,,,0.0,0.0,0
55.937789,-4.406342,3.10,3.10,0.00,0.38,3.30,3.30,1.00,0.38,9498,2021-04-17 12:30:59.318,2021-04-17 13:30:59.318,16,0,0,16.029,55.937787,-4.406347,0.00,0.00,0.00,-0.80,2.90,101.40,0,1,0,97,100,-6988,3353,16029,2936.50,1,P-GPS,1,0,0,0,0,0,0,1618662659318,4112,4092,4080,4062,0,0,27,,,,,,,0,0,0,8.00,29.00,1014.00,0.00,0.00,1043.00,6,31.00,0.00,3.84,0.00,0.00,0.00,0,,,100,100,0,2,0,0,0,2,0,,,,,0.0,0.0,0
55.937789,-4.406342,3.10,3.10,0.00,0.38,3.30,3.30,1.00,0.38,9592,2021-04-17 12:30:59.412,2021-04-17 13:30:59.412,16,0,0,16.029,55.937787,-4.406347,0.00,0.00,0.00,-0.90,2.90,101.40,0,1,0,97,100,-6988,3353,16029,2936.50,1,P-GPS,1,0,0,0,0,0,0,1618662659412,4112,4092,4080,4062,0,0,27,,,,,,,0,0,0,9.00,29.00,1014.00,0.00,0.00,1043.00,6,31.00,0.00,3.77,0.00,0.00,0.00,0,,,100,100,0,2,0,0,0,2,0,,,,,0.0,0.0,0
55.937789,-4.406342,3.10,3.10,0.00,0.38,3.30,3.30,1.00,0.38,9684,2021-04-17 12:30:59.504,2021-04-17 13:30:59.504,16,0,0,16.029,55.937787,-4.406347,0.00,0.00,0.00,-0.90,3.00,101.40,0,1,0,97,100,-6988,3353,16029,2936.50,1,P-GPS,1,0,0,0,0,0,0,1618662659504,4112,4092,4080,4062,0,0,27,,,,,,,0,0,0,9.00,30.00,1014.00,0.00,0.00,1043.00,6,31.00,0.00,3.83,0.00,0.00,0.00,0,,,100,100,0,2,0,0,0,2,0,,,,,0.0,0.0,0
55.937789,-4.406342,3.10,3.10,0.00,0.39,3.30,3.30,1.00,0.39,9783,2021-04-17 12:30:59.604,2021-04-17 13:30:59.603,16,0,0,16.029,55.937787,-4.406347,0.00,0.00,0.00,-0.90,3.10,101.50,0,1,0,97,100,-6988,3353,16029,2936.50,1,P-GPS,1,0,0,0,0,0,0,1618662659603,4112,4092,4080,4062,0,0,27,,,,,,,0,0,0,9.00,31.00,1015.00,0.00,0.00,1043.00,6,31.00,0.00,3.89,0.00,0.00,0.00,0,,,100,100,0,2,0,0,0,2,0,,,,,0.0,0.0,0
55.937789,-4.406342,3.10,3.10,0.00,0.40,3.30,3.30,1.00,0.40,9897,2021-04-17 12:30:59.717,2021-04-17 13:30:59.717,16,0,0,16.029,55.937787,-4.406347,0.00,0.00,0.00,-1.00,3.20,101.40,0,1,0,97,100,-6988,3353,16029,2936.50,1,P-GPS,1,0,0,0,0,0,0,1618662659717,4112,4092,4080,4062,0,0,27,,,,,,,0,0,0,10.00,32.00,1014.00,0.00,0.00,1043.00,6,31.00,0.00,3.96,0.00,0.00,0.00,0,,,100,100,0,2,0,0,0,2,0,,,,,0.0,0.0,0
55.937789,-4.406342,3.10,3.10,0.00,0.40,3.30,3.30,1.00,0.40,9997,2021-04-17 12:30:59.817,2021-04-17 13:30:59.817,16,0,0,16.029,55.937787,-4.406347,0.00,0.00,0.00,-0.80,3.30,101.40,0,1,0,97,100,-6988,3353,16029,2936.50,1,P-GPS,1,0,0,0,0,0,0,1618662659817,4112,4092,4080,4062,0,0,27,,,,,,,0,0,0,8.00,33.00,1014.00,0.00,0.00,1043.00,6,31.00,0.00,3.95,0.00,0.00,0.00,0,,,100,100,0,2,0,0,0,2,0,,,,,0.0,0.0,0
55.937789,-4.406342,3.10,3.10,0.00,0.40,3.30,3.30,1.00,0.40,10091,2021-04-17 12:30:59.911,2021-04-17 13:30:59.911,16,0,0,16.029,55.937787,-4.406347,0.00,0.00,0.00,-0.70,3.40,101.40,0,1,0,97,100,-6988,3353,16029,2936.50,1,P-GPS,1,0,0,0,0,0,0,1618662659911,4112,4092,4080,4062,0,0,27,,,,,,,0,0,0,7.00,34.00,1014.00,0.00,0.00,1043.00,6,31.00,0.00,4.03,0.00,0.00,0.00,0,,,100,100,0,2,0,0,0,2,0,,,,,0.0,0.0,0
55.937789,-4.406342,3.10,3.10,0.00,0.40,3.30,3.30,1.00,0.40,10192,2021-04-17 12:31:00.013,2021-04-17 13:31:00.012,16,0,0,16.029,55.937787,-4.406347,0.00,0.00,0.00,-0.50,3.50,101.50,0,1,0,97,100,-6988,3353,16029,2936.50,1,P-GPS,1,0,0,0,0,0,0,1618662660012,4112,4092,4080,4062,0,0,27,,,,,,,0,0,0,5.00,35.00,1015.00,0.00,0.00,1043.00,6,31.00,0.00,4.01,0.00,0.00,0.00,0,,,100,100,0,2,0,0,0,2,0,,,,,0.0,0.0,0
55.937789,-4.406342,3.10,3.00,0.00,0.41,3.30,3.30,1.00,0.41,10306,2021-04-17 12:31:00.127,2021-04-17 13:31:00.126,16,0,0,16.029,55.937787,-4.406347,0.00,0.00,0.00,-0.50,3.50,101.40,0,1,0,97,100,-6988,3353,16029,2936.50,1,P-GPS,1,0,0,0,0,0,0,1618662660126,4112,4092,4080,4062,0,0,27,,,,,,,0,0,0,5.00,35.00,1014.00,0.00,0.00,1043.00,6,31.00,0.00,4.07,0.00,0.00,0.00,0,,,100,100,0,2,0,0,0,2,0,,,,,0.0,0.0,0
55.937789,-4.406342,3.10,3.00,0.00,0.41,3.30,3.30,1.00,0.41,10499,2021-04-17 12:31:00.321,2021-04-17 13:31:00.321,16,0,0,16.004,55.937787,-4.406347,0.00,0.00,0.00,-0.40,3.40,101.40,0,1,0,97,100,-7017,3351,16004,2936.50,1,P-GPS,1,0,0,0,0,0,0,1618662660319,4112,4092,4080,4062,0,0,27,,,,,,,0,0,0,4.00,34.00,1014.00,0.00,0.00,1043.00,6,31.00,0.00,4.08,0.00,0.00,0.00,0,,,100,100,0,2,0,0,0,2,0,,,,,0.0,0.0,0
55.937789,-4.406341,3.10,3.00,0.00,0.43,3.30,3.30,1.00,0.43,10700,2021-04-17 12:31:00.520,2021-04-17 13:31:00.520,16,0,0,16.004,55.937787,-4.406347,0.00,0.00,0.00,-0.10,3.60,101.40,0,1,0,97,100,-7017,3351,16004,2936.50,1,P-GPS,1,0,0,0,0,0,0,1618662660520,4112,4092,4080,4062,0,0,27,,,,,,,0,0,0,1.00,36.00,1014.00,0.00,0.00,1043.00,6,31.00,0.00,4.35,0.00,0.00,0.00,0,,,100,100,0,2,0,0,0,2,0,,,,,0.0,0.0,0
55.937789,-4.406341,3.10,3.00,0.00,0.45,3.30,3.30,1.00,0.45,10798,2021-04-17 12:31:00.618,2021-04-17 13:31:00.618,16,0,0,16.004,55.937787,-4.406347,0.00,0.00,0.00,-0.40,3.40,101.40,0,1,0,97,100,-7017,3351,16004,2936.50,1,P-GPS,1,0,0,0,0,0,0,1618662660618,4112,4092,4080,4062,0,0,27,,,,,,,0,0,0,4.00,34.00,1014.00,0.00,0.00,1043.00,6,31.00,0.00,4.45,0.00,0.00,0.00,0,,,100,100,0,2,0,0,0,2,0,,,,,0.0,0.0,0
55.937790,-4.406341,3.10,3.00,0.00,0.46,3.30,3.30,1.00,0.46,10985,2021-04-17 12:31:00.805,2021-04-17 13:31:00.805,16,0,0,16.004,55.937787,-4.406347,0.00,0.00,0.00,-1.00,3.30,101.50,0,1,0,97,100,-7017,3351,16004,2936.50,1,P-GPS,1,0,0,0,0,0,0,1618662660805,4112,4092,4080,4062,0,0,27,,,,,,,0,0,0,10.00,33.00,1015.00,0.00,0.00,1043.00,6,31.00,0.00,4.57,0.00,0.00,0.00,0,,,100,100,0,2,0,0,0,2,0,,,,,0.0,0.0,0
55.937790,-4.406341,3.10,3.00,0.00,0.46,3.30,3.30,1.00,0.46,11098,2021-04-17 12:31:00.918,2021-04-17 13:31:00.918,17,0,0,15.997,55.937787,-4.406347,0.00,0.00,0.00,-0.90,3.40,101.50,0,1,0,97,100,-7012,3349,15997,2937.50,1,P-GPS,1,0,0,0,0,0,0,1618662660918,4112,4092,4080,4062,0,0,27,,,,,,,0,0,0,9.00,34.00,1015.00,0.00,0.00,1043.00,6,31.00,0.00,4.61,0.00,0.00,0.00,0,,,100,100,0,2,0,0,0,2,0,,,,,0.0,0.0,0
55.937789,-4.406341,3.10,3.00,0.00,0.46,3.30,3.30,1.00,0.46,11282,2021-04-17 12:31:01.102,2021-04-17 13:31:01.102,17,0,0,15.997,55.937787,-4.406347,0.00,0.00,0.00,-1.00,3.20,101.40,0,1,0,97,100,-7012,3349,15997,2937.50,1,P-GPS,1,0,0,0,89,0,0,1618662661102,4112,4092,4080,4062,0,0,27,,,,,,,0,0,0,10.00,32.00,1014.00,0.00,0.00,1043.00,6,31.00,0.00,4.56,0.00,0.00,0.00,0,,,100,100,0,2,0,0,0,2,0,,,,,0.0,0.0,0
55.937790,-4.406341,3.10,3.00,0.00,0.46,3.30,3.30,1.00,0.46,11392,2021-04-17 12:31:01.212,2021-04-17 13:31:01.212,17,0,0,15.997,55.937787,-4.406347,0.00,0.00,0.00,-1.20,2.90,101.40,0,1,0,97,100,-7012,3349,15997,2937.50,1,P-GPS,1,0,0,0,87,0,0,1618662661212,4112,4092,4080,4062,0,0,27,,,,,,,0,0,0,12.00,29.00,1014.00,0.00,0.00,1043.00,6,31.00,0.00,4.56,0.00,0.00,0.00,0,,,100,100,0,2,0,0,0,2,0,,,,,0.0,0.0,0
55.937790,-4.406341,3.10,3.00,0.00,0.46,3.30,3.30,1.00,0.46,11487,2021-04-17 12:31:01.308,2021-04-17 13:31:01.307,17,0,0,15.997,55.937787,-4.406347,0.00,0.00,0.00,-1.40,2.90,101.40,0,1,0,97,100,-7012,3349,15997,2937.50,1,P-GPS,1,0,0,0,61,0,0,1618662661307,4112,4092,4080,4062,0,0,27,,,,,,,0,0,0,14.00,29.00,1014.00,0.00,0.00,1043.00,6,31.00,0.00,4.59,0.00,0.00,0.00,0,,,100,100,0,2,0,0,0,2,0,,,,,0.0,0.0,0
55.937790,-4.406341,3.10,3.00,0.00,0.46,3.30,3.30,1.00,0.46,11578,2021-04-17 12:31:01.398,2021-04-17 13:31:01.398,17,0,0,15.997,55.937787,-4.406347,0.00,0.00,0.00,-1.40,2.90,101.40,0,1,0,97,100,-7012,3349,15997,2937.50,1,P-GPS,1,0,0,0,9,0,0,1618662661398,4112,4092,4080,4062,0,0,27,,,,,,,0,0,0,14.00,29.00,1014.00,0.00,0.00,1043.00,6,31.00,0.00,4.59,0.00,0.00,0.00,0,,,100,100,0,2,0,0,0,2,0,,,,,0.0,0.0,0
55.937790,-4.406341,3.10,3.00,0.00,0.45,3.30,3.30,1.00,0.46,11684,2021-04-17 12:31:01.505,2021-04-17 13:31:01.504,18,0,0,15.997,55.937787,-4.406347,0.00,0.00,0.00,-0.90,3.20,101.40,0,1,0,97,100,-7012,3349,15997,2937.50,1,P-GPS,1,0,0,0,0,0,0,1618662661504,4112,4092,4080,4062,0,0,27,,,,,,,0,0,0,9.00,32.00,1014.00,0.00,0.00,1043.00,6,31.00,0.00,4.49,0.00,0.00,0.00,0,,,100,100,0,2,0,0,0,2,0,,,,,0.0,0.0,0
55.937790,-4.406342,3.10,3.00,0.00,0.44,3.30,3.30,1.00,0.46,11783,2021-04-17 12:31:01.603,2021-04-17 13:31:01.603,18,0,0,15.997,55.937787,-4.406347,0.00,0.00,0.00,-0.80,3.40,101.40,0,1,0,97,100,-7012,3349,15997,2937.50,1,P-GPS,1,0,0,0,0,0,0,1618662661603,4112,4092,4080,4062,0,0,27,,,,,,,0,0,0,8.00,34.00,1014.00,0.00,0.00,1043.00,6,31.00,0.00,4.43,0.00,0.00,0.00,0,,,100,100,0,2,0,0,0,2,0,,,,,0.0,0.0,0
55.937790,-4.406342,3.10,3.00,0.00,0.45,3.30,3.30,1.00,0.46,11883,2021-04-17 12:31:01.704,2021-04-17 13:31:01.703,18,0,0,15.997,55.937787,-4.406347,0.00,0.00,0.00,-0.70,3.60,101.40,0,1,0,97,100,-7012,3349,15997,2937.50,1,P-GPS,1,0,0,0,0,0,0,1618662661703,4112,4092,4080,4062,0,0,27,,,,,,,0,0,0,7.00,36.00,1014.00,0.00,0.00,1043.00,6,31.00,0.00,4.47,0.00,0.00,0.00,0,,,100,100,0,2,0,0,0,2,0,,,,,0.0,0.0,0
55.937790,-4.406342,3.00,3.00,0.00,0.45,3.30,3.30,1.00,0.46,11997,2021-04-17 12:31:01.817,2021-04-17 13:31:01.817,18,0,0,15.997,55.937787,-4.406347,0.00,0.00,0.00,-0.70,3.80,101.40,0,1,0,97,100,-7012,3349,15997,2937.50,1,P-GPS,1,0,0,0,121,0,0,1618662661817,4112,4092,4080,4062,0,0,27,,,,,,,0,0,0,7.00,38.00,1014.00,0.00,0.00,1043.00,6,30.00,0.00,4.49,0.00,0.00,0.00,0,,,100,100,0,2,0,0,0,2,0,,,,,0.0,0.0,0
55.937790,-4.406342,3.00,3.00,0.00,0.45,3.30,3.30,1.00,0.46,12083,2021-04-17 12:31:01.903,2021-04-17 13:31:01.903,18,0,0,16.009,55.937787,-4.406347,0.00,0.00,0.00,-0.70,3.90,101.40,0,1,0,97,100,-7052,3347,16009,2937.50,1,P-GPS,1,0,0,0,259,0,0,1618662661903,4112,4092,4080,4062,0,0,27,,,,,,,0,0,0,7.00,39.00,1014.00,0.00,0.00,1043.00,6,30.00,0.00,4.52,0.00,0.00,0.00,0,,,100,100,0,2,0,0,0,2,0,,,,,0.0,0.0,0
55.937790,-4.406342,3.00,3.00,0.20,0.44,3.30,3.30,1.00,0.46,12181,2021-04-17 12:31:02.001,2021-04-17 13:31:02.001,18,0,0,16.009,55.937787,-4.406347,0.00,0.00,-0.20,-0.60,3.50,101.40,0,1,0,97,100,-7052,3347,16009,2937.50,1,P-GPS,1,0,0,0,337,0,0,1618662662001,4112,4092,4080,4062,0,0,27,,,,,,,0,0,0,6.00,35.00,1014.00,0.00,0.00,1043.00,6,30.00,2.00,4.45,0.00,0.00,-2.00,0,,,100,100,0,2,0,0,0,2,0,,,,,0.0,0.0,0
55.937790,-4.406342,3.10,3.00,0.50,0.45,3.30,3.30,1.00,0.46,12294,2021-04-17 12:31:02.114,2021-04-17 13:31:02.114,18,0,0,16.009,55.937787,-4.406347,0.00,0.00,-0.50,-0.80,3.40,101.40,0,1,0,97,100,-7052,3347,16009,2937.50,1,P-GPS,1,0,0,0,343,0,0,1618662662114,4112,4092,4080,4062,0,0,27,,,,,,,0,0,0,8.00,34.00,1014.00,0.00,0.00,1043.00,6,31.00,5.00,4.48,0.00,0.00,-5.00,0,,,100,100,0,2,0,0,0,2,0,,,,,0.0,0.0,0
55.937790,-4.406342,3.10,3.10,0.70,0.46,3.30,3.30,1.00,0.46,12385,2021-04-17 12:31:02.205,2021-04-17 13:31:02.205,18,0,0,16.009,55.937787,-4.406347,0.00,0.00,-0.70,-0.30,4.00,101.40,0,1,0,97,100,-7052,3347,16009,2937.50,1,P-GPS,1,0,0,0,320,0,0,1618662662205,4112,4092,4080,4062,0,0,27,,,,,,,0,0,0,3.00,40.00,1014.00,0.00,0.00,1043.00,6,31.00,7.00,4.65,0.00,0.00,-7.00,0,,,100,100,0,2,0,0,0,2,0,,,,,0.0,0.0,0
55.937790,-4.406342,3.20,3.10,0.70,0.47,3.30,3.30,1.00,0.47,12498,2021-04-17 12:31:02.318,2021-04-17 13:31:02.318,18,0,0,16.009,55.937787,-4.406347,0.00,0.00,-0.70,0.00,4.30,101.40,0,1,0,97,100,-7052,3347,16009,2937.50,1,P-GPS,1,0,0,0,210,0,0,1618662662318,4112,4092,4080,4062,0,0,27,,,,,,,0,0,0,-0.00,43.00,1014.00,0.00,0.00,1043.00,6,32.00,7.00,4.70,0.00,0.00,-7.00,0,,,100,100,0,2,0,0,0,2,0,,,,,0.0,0.0,0
55.937790,-4.406342,3.20,3.20,0.50,0.47,3.30,3.30,1.00,0.47,12592,2021-04-17 12:31:02.412,2021-04-17 13:31:02.412,18,0,0,16.009,55.937787,-4.406347,0.00,0.00,-0.50,0.10,4.30,101.40,0,1,0,97,100,-7052,3347,16009,2937.50,1,P-GPS,1,0,0,0,125,0,0,1618662662412,4112,4092,4080,4062,0,0,27,,,,,,,0,0,0,-1.00,43.00,1014.00,0.00,0.00,1043.00,6,32.00,5.00,4.65,0.00,0.00,-5.00,0,,,100,100,0,2,0,0,0,2,0,,,,,0.0,0.0,0
55.937790,-4.406342,3.30,3.20,0.30,0.47,3.30,3.30,1.00,0.47,12683,2021-04-17 12:31:02.504,2021-04-17 13:31:02.503,18,0,0,16.009,55.937787,-4.406347,0.00,0.00,-0.30,0.00,4.30,101.40,0,1,0,97,100,-7052,3347,16009,2937.50,1,P-GPS,1,0,0,0,34,0,0,1618662662503,4112,4092,4080,4062,0,0,27,,,,,,,0,0,0,-0.00,43.00,1014.00,0.00,0.00,1043.00,6,33.00,3.00,4.68,0.00,0.00,-3.00,0,,,100,100,0,2,0,0,0,2,0,,,,,0.0,0.0,0
55.937790,-4.406342,3.30,3.20,0.10,0.47,3.30,3.30,1.00,0.47,12799,2021-04-17 12:31:02.619,2021-04-17 13:31:02.619,18,0,0,16.009,55.937787,-4.406347,0.00,0.00,-0.10,0.00,4.00,101.40,0,1,0,97,100,-7052,3347,16009,2937.50,1,P-GPS,1,0,0,0,0,0,0,1618662662619,4112,4092,4080,4062,0,0,27,,,,,,,0,0,0,-0.00,40.00,1014.00,0.00,0.00,1043.00,6,33.00,1.00,4.75,0.00,0.00,-1.00,0,,,100,100,0,2,0,0,0,2,0,,,,,0.0,0.0,0
55.937790,-4.406342,3.30,3.20,0.00,0.48,3.30,3.30,1.00,0.48,12912,2021-04-17 12:31:02.732,2021-04-17 13:31:02.732,17,0,0,16.009,55.937787,-4.406347,0.00,0.00,0.00,0.00,3.70,101.40,0,1,0,97,100,-7052,3347,16009,2937.50,1,P-GPS,1,0,0,0,0,0,0,1618662662732,4112,4092,4080,4062,0,0,27,,,,,,,0,0,0,-0.00,37.00,1014.00,0.00,0.00,1043.00,6,33.00,0.00,4.77,0.00,0.00,0.00,0,,,100,100,0,2,0,0,0,2,0,,,,,0.0,0.0,0
55.937790,-4.406342,3.30,3.20,0.00,0.45,3.30,3.30,1.00,0.48,12999,2021-04-17 12:31:02.820,2021-04-17 13:31:02.819,17,0,0,16.009,55.937787,-4.406347,0.00,0.00,0.00,-0.10,3.50,101.40,0,1,0,97,100,-7052,3347,16009,2937.50,1,P-GPS,1,0,0,0,0,0,0,1618662662819,4112,4092,4080,4062,0,0,27,,,,,,,0,0,0,1.00,35.00,1014.00,0.00,0.00,1043.00,6,33.00,0.00,4.53,0.00,0.00,0.00,0,,,100,100,0,2,0,0,0,2,0,,,,,0.0,0.0,0
55.937790,-4.406342,3.30,3.20,0.00,0.45,3.30,3.30,1.00,0.48,13114,2021-04-17 12:31:02.934,2021-04-17 13:31:02.934,17,0,0,16.009,55.937787,-4.406347,0.00,0.00,0.00,-0.10,3.40,101.40,0,1,0,97,100,-7950,3347,16009,2938.50,1,P-GPS,1,0,0,0,0,0,0,1618662662934,4112,4092,4080,4062,0,0,27,,,,,,,0,0,0,1.00,34.00,1014.00,0.00,0.00,1043.00,6,33.00,0.00,4.52,0.00,0.00,0.00,0,,,100,100,0,2,0,0,0,2,0,,,,,0.0,0.0,0
55.937790,-4.406342,3.30,3.20,0.00,0.47,3.30,3.30,1.00,0.48,13207,2021-04-17 12:31:03.027,2021-04-17 13:31:03.027,17,0,0,16.009,55.937787,-4.406347,0.00,0.00,0.00,0.00,3.40,101.40,0,1,0,97,100,-7950,3347,16009,2938.50,1,P-GPS,1,0,0,0,0,0,0,1618662663027,4112,4092,4080,4062,0,0,27,,,,,,,0,0,0,-0.00,34.00,1014.00,0.00,0.00,1043.00,6,33.00,0.00,4.68,0.00,0.00,0.00,0,,,100,100,0,2,0,0,0,2,0,,,,,0.0,0.0,0
55.937790,-4.406342,3.30,3.20,0.00,0.47,3.30,3.30,1.00,0.48,13403,2021-04-17 12:31:03.223,2021-04-17 13:31:03.223,17,0,0,16.009,55.937787,-4.406347,0.00,0.00,0.00,0.00,3.50,101.40,0,1,0,97,100,-7950,3347,16009,2938.50,1,P-GPS,1,0,0,0,0,0,0,1618662663223,4112,4092,4080,4062,0,0,27,,,,,,,0,0,0,-0.00,35.00,1014.00,0.00,0.00,1043.00,6,33.00,0.00,4.67,0.00,0.00,0.00,0,,,100,100,0,2,0,0,0,2,0,,,,,0.0,0.0,0
55.937790,-4.406342,3.30,3.20,0.00,0.47,3.30,3.30,1.00,0.48,13501,2021-04-17 12:31:03.321,2021-04-17 13:31:03.321,17,0,0,16.009,55.937787,-4.406347,0.00,0.00,0.00,-0.10,3.40,101.40,0,1,0,97,100,-7950,3347,16009,2938.50,1,P-GPS,1,0,0,0,0,0,0,1618662663321,4112,4092,4080,4062,0,0,27,,,,,,,0,0,0,1.00,34.00,1014.00,0.00,0.00,1043.00,6,33.00,0.00,4.66,0.00,0.00,0.00,0,,,100,100,0,2,0,0,0,2,0,,,,,0.0,0.0,0
55.937790,-4.406342,3.30,3.20,0.00,0.46,3.30,3.30,1.00,0.48,13602,2021-04-17 12:31:03.422,2021-04-17 13:31:03.422,17,0,0,16.009,55.937787,-4.406347,0.00,0.00,0.00,0.00,3.20,101.40,0,1,0,97,100,-7950,3347,16009,2938.50,1,P-GPS,1,0,0,0,0,0,0,1618662663422,4112,4092,4080,4062,0,0,27,,,,,,,0,0,0,-0.00,32.00,1014.00,0.00,0.00,1043.00,6,33.00,0.00,4.58,0.00,0.00,0.00,0,,,100,100,0,2,0,0,0,2,0,,,,,0.0,0.0,0
55.937790,-4.406342,3.20,3.10,0.00,0.46,3.30,3.30,1.00,0.48,13691,2021-04-17 12:31:03.513,2021-04-17 13:31:03.512,17,0,0,16.009,55.937787,-4.406347,0.00,0.00,0.00,-0.10,3.20,101.30,0,1,0,97,100,-7950,3347,16009,2938.50,1,P-GPS,1,0,0,0,0,0,0,1618662663511,4112,4092,4080,4062,0,0,27,,,,,,,0,0,0,1.00,32.00,1013.00,0.00,0.00,1043.00,6,32.00,0.00,4.56,0.00,0.00,0.00,0,,,100,100,0,2,0,0,0,2,0,,,,,0.0,0.0,0
55.937790,-4.406342,3.20,3.10,0.00,0.45,3.30,3.30,1.00,0.48,13786,2021-04-17 12:31:03.606,2021-04-17 13:31:03.606,17,0,0,16.009,55.937787,-4.406347,0.00,0.00,0.00,-0.20,3.20,101.30,0,1,0,97,100,-7950,3347,16009,2938.50,1,P-GPS,1,0,0,0,0,0,0,1618662663606,4112,4092,4080,4062,0,0,27,,,,,,,0,0,0,2.00,32.00,1013.00,0.00,0.00,1043.00,6,32.00,0.00,4.48,0.00,0.00,0.00,0,,,100,100,0,2,0,0,0,2,0,,,,,0.0,0.0,0
55.937790,-4.406342,3.20,3.10,0.00,0.45,3.30,3.30,1.00,0.48,13898,2021-04-17 12:31:03.719,2021-04-17 13:31:03.718,17,0,0,15.966,55.937787,-4.406347,0.00,0.00,0.00,-0.20,3.20,101.40,0,1,0,97,100,-7950,3343,15966,2938.50,1,P-GPS,1,0,0,0,0,0,0,1618662663718,4112,4092,4080,4062,0,0,27,,,,,,,0,0,0,2.00,32.00,1014.00,0.00,0.00,1043.00,6,32.00,0.00,4.45,0.00,0.00,0.00,0,,,100,100,0,2,0,0,0,2,0,,,,,0.0,0.0,0
55.937790,-4.406342,3.20,3.10,0.00,0.45,3.30,3.30,1.00,0.48,13991,2021-04-17 12:31:03.812,2021-04-17 13:31:03.811,17,0,0,15.966,55.937787,-4.406347,0.00,0.00,0.00,-0.10,3.10,101.40,0,1,0,97,100,-7950,3343,15966,2938.50,1,P-GPS,1,0,0,0,0,0,0,1618662663811,4112,4092,4080,4062,0,0,27,,,,,,,0,0,0,1.00,31.00,1014.00,0.00,0.00,1043.00,6,32.00,0.00,4.48,0.00,0.00,0.00,0,,,100,100,0,2,0,0,0,2,0,,,,,0.0,0.0,0
55.937790,-4.406342,3.20,3.10,0.00,0.45,3.30,3.30,1.00,0.48,14098,2021-04-17 12:31:03.918,2021-04-17 13:31:03.918,17,0,0,15.966,55.937787,-4.406347,0.00,0.00,0.00,0.10,3.00,101.40,0,1,0,97,100,-7950,3343,15966,2938.50,1,P-GPS,1,0,0,0,0,0,0,1618662663918,4007,3975,3979,3981,0,0,27,,,,,,,0,0,0,-1.00,30.00,1014.00,0.00,0.00,1043.00,6,32.00,0.00,4.45,0.00,0.00,0.00,0,,,100,100,0,2,0,0,0,2,0,,,,,0.0,0.0,0
55.937790,-4.406342,3.20,3.10,0.00,0.46,3.30,3.30,1.00,0.48,14197,2021-04-17 12:31:04.017,2021-04-17 13:31:04.017,17,0,0,15.966,55.937787,-4.406347,0.00,0.00,0.00,0.10,2.90,101.40,0,1,0,97,100,-7950,3343,15966,2938.50,1,P-GPS,1,0,0,0,0,0,0,1618662664017,4007,3975,3979,3981,0,0,27,,,,,,,0,0,0,-1.00,29.00,1014.00,0.00,0.00,1043.00,6,32.00,0.00,4.57,0.00,0.00,0.00,0,,,100,100,0,2,0,0,0,2,0,,,,,0.0,0.0,0
55.937790,-4.406342,3.20,3.10,0.00,0.45,3.30,3.30,1.00,0.48,14293,2021-04-17 12:31:04.113,2021-04-17 13:31:04.113,17,0,0,15.966,55.937787,-4.406347,0.00,0.00,0.00,0.10,2.80,101.40,0,1,0,97,100,-7950,3343,15966,2938.50,1,P-GPS,1,0,0,0,0,0,0,1618662664113,4007,3975,3979,3981,0,0,27,,,,,,,0,0,0,-1.00,28.00,1014.00,0.00,0.00,1043.00,6,32.00,0.00,4.55,0.00,0.00,0.00,0,,,100,100,0,2,0,0,0,2,0,,,,,0.0,0.0,0
55.937790,-4.406342,3.20,3.20,0.00,0.46,3.30,3.30,1.00,0.48,14392,2021-04-17 12:31:04.213,2021-04-17 13:31:04.212,17,0,0,15.966,55.937787,-4.406347,0.00,0.00,0.00,0.10,2.70,101.30,0,1,0,97,100,-7950,3343,15966,2938.50,1,P-GPS,1,0,0,0,0,0,0,1618662664212,4007,3975,3979,3981,0,0,27,,,,,,,0,0,0,-1.00,27.00,1013.00,0.00,0.00,1043.00,6,32.00,0.00,4.58,0.00,0.00,0.00,0,,,100,100,0,2,0,0,0,2,0,,,,,0.0,0.0,0
55.937790,-4.406342,3.20,3.10,0.00,0.46,3.30,3.30,1.00,0.48,14492,2021-04-17 12:31:04.312,2021-04-17 13:31:04.312,17,0,0,15.966,55.937787,-4.406347,0.00,0.00,0.00,-0.40,2.50,101.40,0,1,0,97,100,-7950,3343,15966,2938.50,1,P-GPS,1,0,0,0,0,0,0,1618662664312,4007,3975,3979,3981,0,0,27,,,,,,,0,0,0,4.00,25.00,1014.00,0.00,0.00,1043.00,6,32.00,0.00,4.57,0.00,0.00,0.00,0,,,100,100,0,2,0,0,0,2,0,,,,,0.0,0.0,0
55.937790,-4.406342,3.20,3.10,0.00,0.46,3.30,3.30,1.00,0.48,14594,2021-04-17 12:31:04.414,2021-04-17 13:31:04.414,17,0,0,15.966,55.937787,-4.406347,0.00,0.00,0.00,-0.50,2.90,101.40,0,1,0,97,100,-7950,3343,15966,2938.50,1,P-GPS,1,0,0,0,0,0,0,1618662664414,4007,3975,3979,3981,0,0,27,,,,,,,0,0,0,5.00,29.00,1014.00,0.00,0.00,1043.00,6,32.00,0.00,4.60,0.00,0.00,0.00,0,,,100,100,0,2,0,0,0,2,0,,,,,0.0,0.0,0
55.937790,-4.406342,3.20,3.10,0.00,0.46,3.30,3.30,1.00,0.48,14689,2021-04-17 12:31:04.509,2021-04-17 13:31:04.509,17,0,0,15.966,55.937787,-4.406347,0.00,0.00,0.00,-0.30,3.50,101.40,0,1,0,97,100,-7950,3343,15966,2938.50,1,P-GPS,1,0,0,0,0,0,0,1618662664509,4007,3975,3979,3981,0,0,27,,,,,,,0,0,0,3.00,35.00,1014.00,0.00,0.00,1043.00,6,32.00,0.00,4.63,0.00,0.00,0.00,0,,,100,100,0,2,0,0,0,2,0,,,,,0.0,0.0,0
55.937790,-4.406342,3.20,3.10,0.00,0.47,3.30,3.30,1.00,0.48,14790,2021-04-17 12:31:04.610,2021-04-17 13:31:04.610,17,0,0,15.966,55.937787,-4.406347,0.00,0.00,0.00,-0.20,3.70,101.40,0,1,0,97,100,-7950,3343,15966,2938.50,1,P-GPS,1,0,0,0,0,0,0,1618662664610,4007,3975,3979,3981,0,0,27,,,,,,,0,0,0,2.00,37.00,1014.00,0.00,0.00,1043.00,6,32.00,0.00,4.70,0.00,0.00,0.00,0,,,100,100,0,2,0,0,0,2,0,,,,,0.0,0.0,0
55.937790,-4.406342,3.20,3.10,0.00,0.47,3.30,3.30,1.00,0.48,14907,2021-04-17 12:31:04.728,2021-04-17 13:31:04.727,17,0,0,15.966,55.937787,-4.406347,0.00,0.00,0.00,-0.30,3.60,101.40,0,1,0,97,100,-6954,3343,15966,2938.50,1,P-GPS,1,0,0,0,0,0,0,1618662664727,4007,3975,3979,3981,0,0,27,,,,,,,0,0,0,3.00,36.00,1014.00,0.00,0.00,1043.00,6,32.00,0.00,4.72,0.00,0.00,0.00,0,,,100,100,0,2,0,0,0,2,0,,,,,0.0,0.0,0
55.937790,-4.406342,3.20,3.10,0.00,0.48,3.30,3.30,1.00,0.48,15005,2021-04-17 12:31:04.825,2021-04-17 13:31:04.825,17,0,0,15.966,55.937787,-4.406347,0.00,0.00,0.00,-0.30,3.60,101.40,0,1,0,97,100,-6954,3343,15966,2938.50,1,P-GPS,1,0,0,0,0,0,0,1618662664825,4007,3975,3979,3981,0,0,27,,,,,,,0,0,0,3.00,36.00,1014.00,0.00,0.00,1043.00,6,32.00,0.00,4.78,0.00,0.00,0.00,0,,,100,100,0,2,0,0,0,2,0,,,,,0.0,0.0,0
55.937790,-4.406342,3.20,3.10,0.00,0.48,3.30,3.30,1.00,0.48,15103,2021-04-17 12:31:04.923,2021-04-17 13:31:04.923,17,0,0,15.966,55.937787,-4.406347,0.00,0.00,0.00,-0.30,3.50,101.40,0,1,0,97,100,-6954,3343,15966,2938.50,1,P-GPS,1,0,0,0,0,0,0,1618662664923,4007,3975,3979,3981,0,0,27,,,,,,,0,0,0,3.00,35.00,1014.00,0.00,0.00,1043.00,6,32.00,0.00,4.80,0.00,0.00,0.00,0,,,100,100,0,2,0,0,0,2,0,,,,,0.0,0.0,0
55.937790,-4.406342,3.20,3.10,0.00,0.48,3.30,3.30,1.00,0.48,15200,2021-04-17 12:31:05.020,2021-04-17 13:31:05.020,17,0,0,15.966,55.937787,-4.406347,0.00,0.00,0.00,-0.50,3.70,101.50,0,1,0,97,100,-6954,3343,15966,2938.50,1,P-GPS,1,0,0,0,0,0,0,1618662665020,4007,3975,3979,3981,0,0,27,,,,,,,0,0,0,5.00,37.00,1015.00,0.00,0.00,1043.00,6,32.00,0.00,4.78,0.00,0.00,0.00,0,,,100,100,0,2,0,0,0,2,0,,,,,0.0,0.0,0
55.937790,-4.406342,3.20,3.10,0.00,0.48,3.30,3.30,1.00,0.48,15304,2021-04-17 12:31:05.124,2021-04-17 13:31:05.124,16,0,0,15.966,55.937787,-4.406347,0.00,0.00,0.00,-0.80,3.70,101.50,0,1,0,97,100,-6954,3343,15966,2938.50,1,P-GPS,1,0,0,0,0,0,0,1618662665124,4007,3975,3979,3981,0,0,27,,,,,,,0,0,0,8.00,37.00,1015.00,0.00,0.00,1043.00,6,32.00,0.00,4.78,0.00,0.00,0.00,0,,,100,100,0,2,0,0,0,2,0,,,,,0.0,0.0,0
55.937790,-4.406342,3.20,3.20,0.00,0.48,3.30,3.30,1.00,0.48,15395,2021-04-17 12:31:05.215,2021-04-17 13:31:05.215,16,0,0,15.966,55.937787,-4.406347,0.00,0.00,0.00,-1.00,3.70,101.50,0,1,0,97,100,-6954,3343,15966,2938.50,1,P-GPS,1,0,0,0,0,0,0,1618662665215,4007,3975,3979,3981,0,0,27,,,,,,,0,0,0,10.00,37.00,1015.00,0.00,0.00,1043.00,6,32.00,0.00,4.78,0.00,0.00,0.00,0,,,100,100,0,2,0,0,0,2,0,,,,,0.0,0.0,0
55.937790,-4.406342,3.20,3.20,0.00,0.48,3.30,3.30,1.00,0.48,15497,2021-04-17 12:31:05.317,2021-04-17 13:31:05.317,16,0,0,15.966,55.937787,-4.406347,0.00,0.00,0.00,-1.30,3.50,101.50,0,1,0,97,100,-6954,3343,15966,2938.50,1,P-GPS,1,0,0,0,0,0,0,1618662665317,4007,3975,3979,3981,0,0,27,,,,,,,0,0,0,13.00,35.00,1015.00,0.00,0.00,1043.00,6,32.00,0.00,4.76,0.00,0.00,0.00,0,,,100,100,0,2,0,0,0,2,0,,,,,0.0,0.0,0
55.937790,-4.406342,3.20,3.20,0.00,0.47,3.30,3.30,1.00,0.48,15584,2021-04-17 12:31:05.404,2021-04-17 13:31:05.404,16,0,0,15.941,55.937787,-4.406347,0.00,0.00,0.00,-1.70,3.20,101.40,0,1,0,97,100,-7090,3339,15941,2939.50,1,P-GPS,1,0,0,0,0,0,0,1618662665404,4007,3975,3979,3981,0,0,27,,,,,,,0,0,0,17.00,32.00,1014.00,0.00,0.00,1043.00,6,32.00,0.00,4.70,0.00,0.00,0.00,0,,,100,100,0,2,0,0,0,2,0,,,,,0.0,0.0,0
