latitude,longitude,altitude(m),ultrasonicHeight(m),speed(mps),distance(m),max_altitude(m),max_ascent(m),max_speed(mps),max_distance(m),time(millisecond),datetime(utc),datetime(local),satellites,pressure(Pa),temperature(F),voltage(v),home_latitude,home_longitude,velocityX(mps),velocityY(mps),velocityZ(mps),pitch(deg),roll(deg),yaw(deg),powerlevel,isflying,istakingphoto,remainPowerPercent,remainLifePercent,currentCurrent,currentElectricity,currentVoltage,batteryTemperature,dischargeCount,flightmode,isMotorsOn,isTakingVideo,Rc_elevator,Rc_aileron,Rc_throttle,Rc_rudder,Rc_gyro,timestamp,Battery_Cell1,Battery_Cell2,Battery_Cell3,Battery_Cell4,Battery_Cell5,Battery_Cell6,Dronetype,AppVersion,Planename,FlyControllerSerialNumber,RemoteSerialNumber,BatterySerialNumber,CENTER_BATTERY.productDate,CENTER_BATTERY.serialNo,CENTER_BATTERY.fullCapacity,CENTER_BATTERY.productDateRaw,pitchRaw,rollRaw,yawRaw,gimbalPitchRaw,gimbalRollRaw,gimbalYawRaw,flyState,altitudeRaw,speedRaw,distanceRaw,velocityXRaw,velocityYRaw,velocityZRaw,data_reuse,App_Tip,App_Warning,downlinkSignalQuality,uplinkSignalQuality,transmissionChannel,rcModeSwitch,rcHome,rcPause,rcTransform,rcJoystickMode,appMode,FlyControllerSerialNumber_legacy,RemoteSerialNumber_legacy,BatterySerialNumber_legacy,Battery2SerialNumber,frontAvoidDist,backAvoidDist,isBrakingToAvoid
55.935590,-4.404097,0.50,0.60,0.51,0.29,0.50,0.50,0.51,0.29,0,2021-04-11 15:22:15.417,2021-04-11 16:22:15.417,13,0,0,16.553,55.935588,-4.404099,0.00,0.10,-0.50,-1.00,-2.10,-43.60,0,1,0,99,100,-4560,3564,16553,2880.50,0,TakeOff,1,0,0,0,0,0,0,1618154535417,4316,4310,4322,4311,0,0,27,Litchi_4.18.0-g,CJTMAVIC,163DFAS001K45C,0VECFAK0072T52,0P2AFAL5340E87,,0,0,0,10.00,-21.00,-436.00,0.00,0.00,-436.00,11,5.00,5.10,2.95,0.00,1.00,-5.00,0,,,100,100,0,2,0,0,0,2,0,,,,null,0.0,5.6,0
55.935590,-4.404097,0.50,0.60,0.51,0.29,0.50,0.50,0.51,0.29,111,2021-04-11 15:22:15.528,2021-04-11 16:22:15.528,13,0,0,16.553,55.935588,-4.404099,0.00,0.10,-0.50,-1.20,-2.40,-43.60,0,1,0,99,100,-4560,3564,16553,2880.50,0,TakeOff,1,0,0,0,0,0,0,1618154535528,4316,4310,4322,4311,0,0,27,,,,,,,0,0,0,12.00,-24.00,-436.00,0.00,0.00,-436.00,11,5.00,5.10,2.90,0.00,1.00,-5.00,0,,,100,100,0,2,0,0,0,2,0,,,,,0.0,4.5,0
55.935590,-4.404097,0.60,0.70,0.51,0.31,0.60,0.60,0.51,0.31,198,2021-04-11 15:22:15.615,2021-04-11 16:22:15.615,13,0,0,16.553,55.935588,-4.404099,0.00,0.10,-0.50,-1.40,-2.50,-43.60,0,1,0,99,100,-4560,3564,16553,2880.50,0,TakeOff,1,0,0,0,0,0,0,1618154535615,4316,4310,4322,4311,0,0,27,,,,,,,0,0,0,14.00,-25.00,-436.00,0.00,0.00,-436.00,11,6.00,5.10,3.07,0.00,1.00,-5.00,0,,,100,100,0,2,0,0,0,2,0,,,,,0.0,4.5,0
55.935590,-4.404097,0.60,0.70,0.51,0.31,0.60,0.60,0.51,0.31,301,2021-04-11 15:22:15.718,2021-04-11 16:22:15.718,13,0,0,16.553,55.935588,-4.404099,0.00,0.10,-0.50,-1.50,-2.50,-43.60,0,1,0,99,100,-4560,3564,16553,2880.50,0,TakeOff,1,0,0,0,0,0,0,1618154535718,4316,4310,4322,4311,0,0,27,,,,,,,0,0,0,15.00,-25.00,-436.00,0.00,0.00,-436.00,11,6.00,5.10,3.06,0.00,1.00,-5.00,0,,,100,100,0,2,0,0,0,2,0,,,,,0.0,5.7,0
55.935590,-4.404097,0.70,0.80,0.50,0.32,0.70,0.70,0.51,0.32,400,2021-04-11 15:22:15.817,2021-04-11 16:22:15.817,13,0,0,16.277,55.935588,-4.404099,0.00,0.00,-0.50,-1.50,-2.50,-43.60,0,1,0,99,100,-6933,3562,16277,2880.50,0,TakeOff,1,0,0,0,0,0,0,1618154535817,4316,4310,4322,4311,0,0,27,,,,,,,0,0,0,15.00,-25.00,-436.00,0.00,0.00,-436.00,11,7.00,5.00,3.20,0.00,0.00,-5.00,0,,,100,100,0,2,0,0,0,2,0,,,,,0.0,5.7,0
55.935590,-4.404097,0.70,0.80,0.50,0.30,0.70,0.70,0.51,0.32,498,2021-04-11 15:22:15.916,2021-04-11 16:22:15.915,13,0,0,16.277,55.935588,-4.404099,0.00,0.00,-0.50,-1.50,-2.40,-43.60,0,1,0,99,100,-6933,3562,16277,2880.50,0,TakeOff,1,0,0,0,0,0,0,1618154535915,4316,4310,4322,4311,0,0,27,,,,,,,0,0,0,15.00,-24.00,-436.00,0.00,0.00,-436.00,11,7.00,5.00,3.05,0.00,0.00,-5.00,0,,,100,100,0,2,0,0,0,2,0,,,,,0.0,5.7,0
55.935590,-4.404097,0.80,0.90,0.50,0.31,0.80,0.80,0.51,0.32,610,2021-04-11 15:22:16.027,2021-04-11 16:22:16.027,13,0,0,16.277,55.935588,-4.404099,0.00,0.00,-0.50,-1.60,-2.10,-43.60,0,1,0,99,100,-6933,3562,16277,2880.50,0,TakeOff,1,0,0,0,0,0,0,1618154536027,4316,4310,4322,4311,0,0,27,,,,,,,0,0,0,16.00,-21.00,-436.00,0.00,0.00,-436.00,11,8.00,5.00,3.12,0.00,0.00,-5.00,0,,,100,100,0,2,0,0,0,2,0,,,,,0.0,5.7,0
55.935590,-4.404097,0.80,0.90,0.50,0.31,0.80,0.80,0.51,0.32,718,2021-04-11 15:22:16.135,2021-04-11 16:22:16.135,13,0,0,16.277,55.935588,-4.404099,0.00,0.00,-0.50,-1.60,-1.90,-43.60,0,1,0,99,100,-6933,3562,16277,2880.50,0,TakeOff,1,0,0,0,0,0,0,1618154536135,4316,4310,4322,4311,0,0,27,,,,,,,0,0,0,16.00,-19.00,-436.00,0.00,0.00,-436.00,11,8.00,5.00,3.14,0.00,0.00,-5.00,0,,,100,100,0,2,0,0,0,2,0,,,,,0.0,5.7,0
55.935590,-4.404097,0.90,1.10,0.50,0.33,0.90,0.90,0.51,0.33,989,2021-04-11 15:22:16.406,2021-04-11 16:22:16.406,13,0,0,16.277,55.935588,-4.404099,0.00,0.00,-0.50,-1.50,-1.70,-43.70,0,1,0,99,100,-6933,3562,16277,2880.50,0,TakeOff,1,0,0,0,16,-69,0,1618154536406,4316,4310,4322,4311,0,0,27,,,,,,,0,0,0,15.00,-17.00,-437.00,0.00,0.00,-436.00,11,9.00,5.00,3.31,0.00,0.00,-5.00,0,,,100,100,0,2,0,0,0,2,0,,,,,0.0,5.7,0
55.935590,-4.404096,1.00,1.10,0.50,0.34,1.00,1.00,0.51,0.34,1000,2021-04-11 15:22:16.417,2021-04-11 16:22:16.417,13,0,0,16.277,55.935588,-4.404099,0.00,0.00,-0.50,-1.50,-1.80,-44.30,0,1,0,99,100,-6933,3562,16277,2880.50,0,P-GPS,1,0,0,0,0,0,0,1618154536417,4316,4310,4322,4311,0,0,27,,,,,,,0,0,0,15.00,-18.00,-443.00,0.00,0.00,-437.00,6,10.00,5.00,3.37,0.00,0.00,-5.00,0,,,100,100,0,2,0,0,0,2,0,,,,,0.0,5.7,0
55.935590,-4.404097,1.00,1.20,0.30,0.36,1.00,1.00,0.51,0.36,1104,2021-04-11 15:22:16.522,2021-04-11 16:22:16.521,13,0,0,16.277,55.935588,-4.404099,0.00,0.00,-0.30,-1.50,-2.10,-44.30,0,1,0,99,100,-6933,3562,16277,2880.50,0,P-GPS,1,0,0,0,0,0,0,1618154536521,4316,4310,4322,4311,0,0,27,,,,,,,0,0,0,15.00,-21.00,-443.00,0.00,0.00,-439.00,6,10.00,3.00,3.55,0.00,0.00,-3.00,0,,,100,100,0,2,0,0,0,2,0,,,,,0.0,5.7,0
55.935590,-4.404097,1.10,1.20,0.20,0.36,1.10,1.10,0.51,0.36,1199,2021-04-11 15:22:16.616,2021-04-11 16:22:16.616,13,0,0,16.277,55.935588,-4.404099,0.00,0.00,-0.20,-1.50,-1.90,-44.30,0,1,0,99,100,-6933,3562,16277,2880.50,0,P-GPS,1,0,0,0,0,0,0,1618154536616,4316,4310,4322,4311,0,0,27,,,,,,,0,0,0,15.00,-19.00,-443.00,0.00,0.00,-440.00,6,11.00,2.00,3.63,0.00,0.00,-2.00,0,,,100,100,0,2,0,0,0,2,0,,,,,0.0,5.7,0
55.935591,-4.404097,1.10,1.20,0.10,0.38,1.10,1.10,0.51,0.38,1302,2021-04-11 15:22:16.719,2021-04-11 16:22:16.719,13,0,0,16.277,55.935588,-4.404099,0.00,0.00,-0.10,-1.40,-1.70,-44.40,0,1,0,99,100,-6933,3562,16277,2880.50,0,P-GPS,1,0,0,0,0,0,0,1618154536719,4316,4310,4322,4311,0,0,27,,,,,,,0,0,0,14.00,-17.00,-444.00,0.00,0.00,-440.00,6,11.00,1.00,3.84,0.00,0.00,-1.00,0,,,100,100,0,2,0,0,0,2,0,,,,,0.0,5.7,0
55.935591,-4.404097,1.10,1.20,0.00,0.39,1.10,1.10,0.51,0.39,1400,2021-04-11 15:22:16.817,2021-04-11 16:22:16.817,13,0,0,16.304,55.935588,-4.404099,0.00,0.00,0.00,-1.30,-1.90,-44.40,0,1,0,99,100,-6451,3560,16304,2881.50,0,P-GPS,1,0,0,0,0,0,0,1618154536817,4316,4310,4322,4311,0,0,27,,,,,,,0,0,0,13.00,-19.00,-444.00,0.00,0.00,-441.00,6,11.00,0.00,3.93,0.00,0.00,0.00,0,,,100,100,0,2,0,0,0,2,0,,,,,0.0,6.2,0
55.935591,-4.404096,1.10,1.20,0.00,0.40,1.10,1.10,0.51,0.40,1499,2021-04-11 15:22:16.916,2021-04-11 16:22:16.916,13,0,0,16.304,55.935588,-4.404099,0.00,0.00,0.00,-1.10,-2.10,-44.40,0,1,0,99,100,-6451,3560,16304,2881.50,0,P-GPS,1,0,0,0,0,0,0,1618154536916,4316,4310,4322,4311,0,0,27,,,,,,,0,0,0,11.00,-21.00,-444.00,0.00,0.00,-441.00,6,11.00,0.00,3.98,0.00,0.00,0.00,0,,,100,100,0,2,0,0,0,2,0,,,,,0.0,6.2,0
55.935591,-4.404096,1.10,1.20,0.00,0.41,1.10,1.10,0.51,0.41,1614,2021-04-11 15:22:17.031,2021-04-11 16:22:17.031,13,0,0,16.304,55.935588,-4.404099,0.00,0.00,0.00,-0.90,-2.10,-44.40,0,1,0,99,100,-6451,3560,16304,2881.50,0,P-GPS,1,0,0,0,0,0,0,1618154537031,4316,4310,4322,4311,0,0,27,,,,,,,0,0,0,9.00,-21.00,-444.00,0.00,0.00,-441.00,6,11.00,0.00,4.07,0.00,0.00,0.00,0,,,100,100,0,2,0,0,0,2,0,,,,,0.0,6.1,0
55.935591,-4.404097,1.10,1.20,0.00,0.42,1.10,1.10,0.51,0.42,1717,2021-04-11 15:22:17.134,2021-04-11 16:22:17.134,13,0,0,16.304,55.935588,-4.404099,0.00,0.00,0.00,-1.00,-2.20,-44.40,0,1,0,99,100,-6451,3560,16304,2881.50,0,P-GPS,1,0,0,0,0,0,0,1618154537134,4316,4310,4322,4311,0,0,27,,,,,,,0,0,0,10.00,-22.00,-444.00,0.00,0.00,-441.00,6,11.00,0.00,4.21,0.00,0.00,0.00,0,,,100,100,0,2,0,0,0,2,0,,,,,0.0,6.1,0
55.935591,-4.404097,1.10,1.20,0.00,0.43,1.10,1.10,0.51,0.43,1811,2021-04-11 15:22:17.228,2021-04-11 16:22:17.228,13,0,0,16.304,55.935588,-4.404099,0.00,0.00,0.00,-1.10,-2.40,-44.40,0,1,0,99,100,-6451,3560,16304,2881.50,0,P-GPS,1,0,0,0,0,0,0,1618154537228,4316,4310,4322,4311,0,0,27,,,,,,,0,0,0,11.00,-24.00,-444.00,0.00,0.00,-441.00,6,11.00,0.00,4.30,0.00,0.00,0.00,0,,,100,100,0,2,0,0,0,2,0,,,,,0.0,6.0,0
55.935591,-4.404096,1.10,1.20,0.00,0.44,1.10,1.10,0.51,0.44,1897,2021-04-11 15:22:17.314,2021-04-11 16:22:17.314,13,0,0,16.304,55.935588,-4.404099,0.00,0.00,0.00,-1.20,-2.30,-44.40,0,1,0,99,100,-6451,3560,16304,2881.50,0,P-GPS,1,0,0,0,0,0,0,1618154537314,4316,4310,4322,4311,0,0,27,,,,,,,0,0,0,12.00,-23.00,-444.00,0.00,0.00,-441.00,6,11.00,0.00,4.44,0.00,0.00,0.00,0,,,100,100,0,2,0,0,0,2,0,,,,,0.0,6.0,0
55.935591,-4.404096,1.10,1.20,0.00,0.45,1.10,1.10,0.51,0.45,2023,2021-04-11 15:22:17.440,2021-04-11 16:22:17.440,13,0,0,16.304,55.935588,-4.404099,0.00,0.00,0.00,-1.30,-2.20,-44.30,0,1,0,99,100,-6451,3560,16304,2881.50,0,P-GPS,1,0,0,0,0,0,0,1618154537440,4316,4310,4322,4311,0,0,27,,,,,,,0,0,0,13.00,-22.00,-443.00,0.00,0.00,-441.00,6,11.00,0.00,4.53,0.00,0.00,0.00,0,,,100,100,0,2,0,0,0,2,0,,,,,0.0,6.0,0
55.935591,-4.404096,1.10,1.20,0.00,0.47,1.10,1.10,0.51,0.47,2116,2021-04-11 15:22:17.533,2021-04-11 16:22:17.533,13,0,0,16.304,55.935588,-4.404099,0.00,0.00,0.00,-1.20,-2.20,-44.30,0,1,0,99,100,-6451,3560,16304,2881.50,0,P-GPS,1,0,0,0,0,0,0,1618154537533,4316,4310,4322,4311,0,0,27,,,,,,,0,0,0,12.00,-22.00,-443.00,0.00,0.00,-441.00,6,11.00,0.00,4.65,0.00,0.00,0.00,0,,,100,100,0,2,0,0,0,2,0,,,,,0.0,6.0,0
55.935591,-4.404096,1.10,1.20,0.00,0.47,1.10,1.10,0.51,0.47,2217,2021-04-11 15:22:17.635,2021-04-11 16:22:17.634,13,0,0,16.304,55.935588,-4.404099,0.00,0.00,0.00,-1.30,-2.20,-44.30,0,1,0,99,100,-6451,3560,16304,2881.50,0,P-GPS,1,0,0,0,0,0,0,1618154537634,4316,4310,4322,4311,0,0,27,,,,,,,0,0,0,13.00,-22.00,-443.00,0.00,0.00,-441.00,6,11.00,0.00,4.73,0.00,0.00,0.00,0,,,100,100,0,2,0,0,0,2,0,,,,,0.0,6.0,0
55.935592,-4.404096,1.10,1.20,0.00,0.48,1.10,1.10,0.51,0.48,2417,2021-04-11 15:22:17.834,2021-04-11 16:22:17.834,13,0,0,16.274,55.935588,-4.404099,0.00,0.00,0.00,-1.20,-2.10,-44.40,0,1,0,99,100,-6477,3558,16274,2881.50,0,P-GPS,1,0,0,0,0,0,0,1618154537834,4316,4310,4322,4311,0,0,27,,,,,,,0,0,0,12.00,-21.00,-444.00,0.00,0.00,-441.00,6,11.00,0.00,4.78,0.00,0.00,0.00,0,,,100,100,0,2,0,0,0,2,0,,,,,0.0,6.0,0
55.935592,-4.404096,1.10,1.20,0.00,0.49,1.10,1.10,0.51,0.49,2514,2021-04-11 15:22:17.931,2021-04-11 16:22:17.931,13,0,0,16.274,55.935588,-4.404099,0.00,0.00,0.00,-1.20,-2.10,-44.40,0,1,0,99,100,-6477,3558,16274,2881.50,0,P-GPS,1,0,0,0,0,0,0,1618154537931,4316,4310,4322,4311,0,0,27,,,,,,,0,0,0,12.00,-21.00,-444.00,0.00,0.00,-441.00,6,11.00,0.00,4.90,0.00,0.00,0.00,0,,,100,100,0,2,0,0,0,2,0,,,,,0.0,6.0,0
55.935592,-4.404097,1.10,1.20,0.00,0.50,1.10,1.10,0.51,0.50,2615,2021-04-11 15:22:18.032,2021-04-11 16:22:18.032,13,0,0,16.274,55.935588,-4.404099,0.00,0.00,0.00,-1.10,-2.10,-44.40,0,1,0,99,100,-6477,3558,16274,2881.50,0,P-GPS,1,0,0,0,0,0,0,1618154538032,4316,4310,4322,4311,0,0,27,,,,,,,0,0,0,11.00,-21.00,-444.00,0.00,0.00,-441.00,6,11.00,0.00,4.96,0.00,0.00,0.00,0,,,100,100,0,2,0,0,0,2,0,,,,,0.0,6.0,0
55.935592,-4.404097,1.10,1.20,0.00,0.50,1.10,1.10,0.51,0.50,2718,2021-04-11 15:22:18.135,2021-04-11 16:22:18.135,13,0,0,16.274,55.935588,-4.404099,0.00,0.00,0.00,-1.00,-1.80,-44.30,0,1,0,99,100,-6477,3558,16274,2881.50,0,P-GPS,1,0,0,0,0,0,0,1618154538135,4316,4310,4322,4311,0,0,27,,,,,,,0,0,0,10.00,-18.00,-443.00,0.00,0.00,-441.00,6,11.00,0.00,4.97,0.00,0.00,0.00,0,,,100,100,0,2,0,0,0,2,0,,,,,0.0,6.0,0
55.935592,-4.404097,1.10,1.20,0.00,0.49,1.10,1.10,0.51,0.50,2910,2021-04-11 15:22:18.327,2021-04-11 16:22:18.327,13,0,0,16.274,55.935588,-4.404099,0.00,0.00,0.00,-1.30,-2.20,-44.50,0,1,0,99,100,-6477,3558,16274,2881.50,0,P-GPS,1,0,0,0,0,0,0,1618154538327,4316,4310,4322,4311,0,0,27,,,,,,,0,0,0,13.00,-22.00,-445.00,0.00,0.00,-441.00,6,11.00,0.00,4.86,0.00,0.00,0.00,0,,,100,100,0,2,0,0,0,2,0,,,,,0.0,5.6,0
55.935592,-4.404097,1.10,1.20,0.00,0.49,1.10,1.10,0.51,0.50,3089,2021-04-11 15:22:18.506,2021-04-11 16:22:18.506,13,0,0,16.274,55.935588,-4.404099,0.00,0.00,0.00,-1.50,-2.00,-44.50,0,1,0,99,100,-6477,3558,16274,2881.50,0,P-GPS,1,0,0,0,0,0,0,1618154538506,4316,4310,4322,4311,0,0,27,,,,,,,0,0,0,15.00,-20.00,-445.00,0.00,0.00,-441.00,6,11.00,0.00,4.89,0.00,0.00,0.00,0,,,100,100,0,2,0,0,0,2,0,,,,,0.0,5.6,0
55.935592,-4.404097,1.10,1.20,0.00,0.49,1.10,1.10,0.51,0.50,3115,2021-04-11 15:22:18.532,2021-04-11 16:22:18.532,13,0,0,16.274,55.935588,-4.404099,0.00,0.00,0.00,-1.70,-1.60,-44.50,0,1,0,99,100,-6477,3558,16274,2881.50,0,P-GPS,1,0,0,0,141,0,0,1618154538532,4316,4310,4322,4311,0,0,27,,,,,,,0,0,0,17.00,-16.00,-445.00,0.00,0.00,-441.00,6,11.00,0.00,4.93,0.00,0.00,0.00,0,,,100,100,0,2,0,0,0,2,0,,,,,0.0,5.6,0
55.935592,-4.404097,1.10,1.20,0.10,0.49,1.10,1.10,0.51,0.50,3299,2021-04-11 15:22:18.716,2021-04-11 16:22:18.716,13,0,0,16.274,55.935588,-4.404099,0.00,0.00,-0.10,-1.30,-1.80,-44.70,0,1,0,99,100,-6477,3558,16274,2881.50,0,P-GPS,1,0,0,0,336,0,0,1618154538716,4316,4310,4322,4311,0,0,27,,,,,,,0,0,0,13.00,-18.00,-447.00,0.00,0.00,-441.00,6,11.00,1.00,4.90,0.00,0.00,-1.00,0,,,100,100,0,2,0,0,0,2,0,,,,,0.0,5.6,0
55.935592,-4.404097,1.10,1.20,0.40,0.49,1.10,1.10,0.51,0.50,3402,2021-04-11 15:22:18.819,2021-04-11 16:22:18.819,13,0,0,16.274,55.935588,-4.404099,0.00,0.00,-0.40,-1.40,-1.60,-44.60,0,1,0,99,100,-6477,3558,16274,2881.50,0,P-GPS,1,0,0,0,395,0,0,1618154538819,4316,4310,4322,4311,0,0,27,,,,,,,0,0,0,14.00,-16.00,-446.00,0.00,0.00,-441.00,6,11.00,4.00,4.94,0.00,0.00,-4.00,0,,,100,100,0,2,0,0,0,2,0,,,,,0.0,5.6,0
55.935592,-4.404097,1.20,1.30,0.70,0.48,1.20,1.20,0.70,0.50,3495,2021-04-11 15:22:18.912,2021-04-11 16:22:18.912,13,0,0,16.274,55.935588,-4.404099,0.00,0.00,-0.70,-2.00,-1.40,-44.50,0,1,0,99,100,-6477,3558,16274,2881.50,0,P-GPS,1,0,0,0,388,0,0,1618154538912,4316,4310,4322,4311,0,0,27,,,,,,,0,0,0,20.00,-14.00,-445.00,0.00,0.00,-441.00,6,12.00,7.00,4.84,0.00,0.00,-7.00,0,,,100,100,0,2,0,0,0,2,0,,,,,0.0,5.6,0
55.935592,-4.404097,1.30,1.40,1.00,0.49,1.30,1.30,1.00,0.50,3602,2021-04-11 15:22:19.019,2021-04-11 16:22:19.019,13,0,0,16.274,55.935588,-4.404099,0.00,0.00,-1.00,-2.00,-1.50,-44.50,0,1,0,99,100,-6477,3558,16274,2881.50,0,P-GPS,1,0,0,0,376,0,0,1618154539019,4316,4310,4322,4311,0,0,27,,,,,,,0,0,0,20.00,-15.00,-445.00,0.00,0.00,-441.00,6,13.00,10.00,4.88,0.00,0.00,-10.00,0,,,100,100,0,2,0,0,0,2,0,,,,,0.0,5.6,0
55.935592,-4.404097,1.40,1.50,1.10,0.50,1.40,1.40,1.10,0.50,3714,2021-04-11 15:22:19.131,2021-04-11 16:22:19.131,13,0,0,16.274,55.935588,-4.404099,0.00,0.00,-1.10,-1.80,-1.80,-44.40,0,1,0,99,100,-6477,3558,16274,2881.50,0,P-GPS,1,0,0,0,373,0,0,1618154539131,4316,4310,4322,4311,0,0,27,,,,,,,0,0,0,18.00,-18.00,-444.00,0.00,0.00,-441.00,6,14.00,11.00,5.01,0.00,0.00,-11.00,0,,,100,100,0,2,0,0,0,2,0,,,,,0.0,5.6,0
55.935592,-4.404097,1.50,1.60,1.10,0.51,1.50,1.50,1.10,0.51,3815,2021-04-11 15:22:19.232,2021-04-11 16:22:19.232,13,0,0,16.274,55.935588,-4.404099,0.00,0.00,-1.10,-1.40,-2.20,-44.30,0,1,0,99,100,-6477,3558,16274,2881.50,0,P-GPS,1,0,0,0,368,0,0,1618154539232,4316,4310,4322,4311,0,0,27,,,,,,,0,0,0,14.00,-22.00,-443.00,0.00,0.00,-441.00,6,15.00,11.00,5.07,0.00,0.00,-11.00,0,,,100,100,0,2,0,0,0,2,0,,,,,0.0,5.6,0
55.935592,-4.404097,1.60,1.70,1.20,0.50,1.60,1.60,1.20,0.51,3913,2021-04-11 15:22:19.330,2021-04-11 16:22:19.330,13,0,0,16.274,55.935588,-4.404099,0.00,0.00,-1.20,-1.20,-2.30,-44.30,0,1,0,99,100,-6477,3558,16274,2881.50,0,P-GPS,1,0,0,0,300,0,0,1618154539330,4316,4310,4322,4311,0,0,27,,,,,,,0,0,0,12.00,-23.00,-443.00,0.00,0.00,-441.00,6,16.00,12.00,5.02,0.00,0.00,-12.00,0,,,100,100,0,2,0,0,0,2,0,,,,,0.0,5.6,0
55.935592,-4.404097,1.70,1.90,1.10,0.51,1.70,1.70,1.20,0.51,4011,2021-04-11 15:22:19.428,2021-04-11 16:22:19.428,13,0,0,16.274,55.935588,-4.404099,0.00,0.00,-1.10,-1.40,-2.50,-44.40,0,1,0,99,100,-6477,3558,16274,2881.50,0,P-GPS,1,0,0,0,186,0,0,1618154539428,4316,4310,4322,4311,0,0,27,,,,,,,0,0,0,14.00,-25.00,-444.00,0.00,0.00,-441.00,6,17.00,11.00,5.07,0.00,0.00,-11.00,0,,,100,100,0,2,0,0,0,2,0,,,,,0.0,5.7,0
55.935592,-4.404097,1.90,2.00,0.80,0.50,1.90,1.90,1.20,0.51,4182,2021-04-11 15:22:19.599,2021-04-11 16:22:19.599,13,0,0,16.274,55.935588,-4.404099,0.00,0.00,-0.80,-1.60,-2.80,-44.50,0,1,0,99,100,-6477,3558,16274,2881.50,0,P-GPS,1,0,0,0,211,0,0,1618154539599,4316,4310,4322,4311,0,0,27,,,,,,,0,0,0,16.00,-28.00,-445.00,0.00,0.00,-441.00,6,19.00,8.00,4.96,0.00,0.00,-8.00,0,,,100,100,0,2,0,0,0,2,0,,,,,0.0,5.7,0
55.935592,-4.404097,1.90,2.00,0.60,0.50,1.90,1.90,1.20,0.51,4218,2021-04-11 15:22:19.635,2021-04-11 16:22:19.635,13,0,0,16.274,55.935588,-4.404099,0.00,0.00,-0.60,-1.50,-2.90,-44.60,0,1,0,99,100,-6477,3558,16274,2881.50,0,P-GPS,1,0,0,0,55,0,0,1618154539635,4316,4310,4322,4311,0,0,27,,,,,,,0,0,0,15.00,-29.00,-446.00,0.00,0.00,-441.00,6,19.00,6.00,4.99,0.00,0.00,-6.00,0,,,100,100,0,2,0,0,0,2,0,,,,,0.0,5.6,0
55.935592,-4.404096,2.00,2.10,0.40,0.55,2.00,2.00,1.20,0.55,4312,2021-04-11 15:22:19.729,2021-04-11 16:22:19.729,13,0,0,16.274,55.935588,-4.404099,0.00,0.00,-0.40,-1.50,-2.80,-44.70,0,1,0,99,100,-6477,3558,16274,2881.50,0,P-GPS,1,0,0,0,0,0,0,1618154539729,4316,4310,4322,4311,0,0,27,,,,,,,0,0,0,15.00,-28.00,-447.00,0.00,0.00,-441.00,6,20.00,4.00,5.46,0.00,0.00,-4.00,0,,,100,100,0,2,0,0,0,2,0,,,,,0.0,5.6,0
55.935592,-4.404097,2.00,2.10,0.10,0.56,2.00,2.00,1.20,0.56,4493,2021-04-11 15:22:19.911,2021-04-11 16:22:19.911,13,0,0,16.277,55.935588,-4.404099,0.00,0.00,-0.10,-1.30,-2.90,-44.80,0,1,0,99,100,-6482,3556,16277,2881.50,0,P-GPS,1,0,0,0,191,0,0,1618154539910,4316,4310,4322,4311,0,0,27,,,,,,,0,0,0,13.00,-29.00,-448.00,0.00,0.00,-441.00,6,20.00,1.00,5.65,0.00,0.00,-1.00,0,,,100,100,0,2,0,0,0,2,0,,,,,0.0,5.6,0
55.935592,-4.404097,2.10,2.10,0.10,0.57,2.10,2.10,1.20,0.57,4604,2021-04-11 15:22:20.021,2021-04-11 16:22:20.021,13,0,0,16.277,55.935588,-4.404099,0.00,0.00,-0.10,-1.10,-2.80,-44.90,0,1,0,99,100,-6482,3556,16277,2881.50,0,P-GPS,1,0,0,0,357,0,0,1618154540021,4316,4310,4322,4311,0,0,27,,,,,,,0,0,0,11.00,-28.00,-449.00,0.00,0.00,-441.00,6,21.00,1.00,5.71,0.00,0.00,-1.00,0,,,100,100,0,2,0,0,0,2,0,,,,,0.0,5.6,0
55.935592,-4.404096,2.10,2.20,0.20,0.56,2.10,2.10,1.20,0.57,4722,2021-04-11 15:22:20.139,2021-04-11 16:22:20.139,13,0,0,16.277,55.935588,-4.404099,0.00,0.00,-0.20,-1.30,-2.70,-45.00,0,1,0,99,100,-6482,3556,16277,2881.50,0,P-GPS,1,0,0,0,507,0,0,1618154540139,4316,4310,4322,4311,0,0,27,,,,,,,0,0,0,13.00,-27.00,-450.00,0.00,0.00,-441.00,6,21.00,2.00,5.61,0.00,0.00,-2.00,0,,,100,100,0,2,0,0,0,2,0,,,,,0.0,5.6,0
55.935592,-4.404096,2.10,2.20,0.40,0.56,2.10,2.10,1.20,0.57,4818,2021-04-11 15:22:20.235,2021-04-11 16:22:20.235,13,0,0,16.277,55.935588,-4.404099,0.00,0.00,-0.40,-1.70,-2.50,-44.90,0,1,0,99,100,-6482,3556,16277,2881.50,0,P-GPS,1,0,0,0,567,0,0,1618154540235,4316,4310,4322,4311,0,0,27,,,,,,,0,0,0,17.00,-25.00,-449.00,0.00,0.00,-441.00,6,21.00,4.00,5.65,0.00,0.00,-4.00,0,,,100,100,0,2,0,0,0,2,0,,,,,0.0,5.6,0
55.935592,-4.404096,2.20,2.30,0.90,0.56,2.20,2.20,1.20,0.57,4934,2021-04-11 15:22:20.351,2021-04-11 16:22:20.351,13,0,0,16.277,55.935588,-4.404099,0.00,0.00,-0.90,-2.70,-2.10,-44.70,0,1,0,99,100,-6482,3556,16277,2881.50,0,P-GPS,1,0,0,0,571,0,0,1618154540351,4316,4310,4322,4311,0,0,27,,,,,,,0,0,0,27.00,-21.00,-447.00,0.00,0.00,-441.00,6,22.00,9.00,5.56,0.00,0.00,-9.00,0,,,100,100,0,2,0,0,0,2,0,,,,,0.0,5.6,0
55.935592,-4.404096,2.30,2.40,1.30,0.56,2.30,2.30,1.30,0.57,5031,2021-04-11 15:22:20.448,2021-04-11 16:22:20.448,13,0,0,16.277,55.935588,-4.404099,0.00,0.00,-1.30,-3.30,-2.20,-44.60,0,1,0,99,100,-6482,3556,16277,2881.50,0,P-GPS,1,0,0,0,551,0,0,1618154540448,4316,4310,4322,4311,0,0,27,,,,,,,0,0,0,33.00,-22.00,-446.00,0.00,0.00,-441.00,6,23.00,13.00,5.59,0.00,0.00,-13.00,0,,,100,100,0,2,0,0,0,2,0,,,,,0.0,5.6,0
55.935592,-4.404096,2.40,2.50,1.80,0.57,2.40,2.40,1.80,0.57,5121,2021-04-11 15:22:20.538,2021-04-11 16:22:20.538,13,0,0,16.277,55.935588,-4.404099,0.00,0.00,-1.80,-2.90,-2.40,-44.40,0,1,0,99,100,-6482,3556,16277,2881.50,0,P-GPS,1,0,0,0,407,0,0,1618154540538,4316,4310,4322,4311,0,0,27,,,,,,,0,0,0,29.00,-24.00,-444.00,0.00,0.00,-441.00,6,24.00,18.00,5.71,0.00,0.00,-18.00,0,,,100,100,0,2,0,0,0,2,0,,,,,0.0,5.6,0
55.935592,-4.404096,2.80,2.90,1.80,0.58,2.80,2.80,1.80,0.58,5382,2021-04-11 15:22:20.799,2021-04-11 16:22:20.799,13,0,0,16.328,55.935588,-4.404099,0.00,0.00,-1.80,-2.00,-3.80,-44.60,0,1,0,99,100,-7428,3554,16328,2881.50,0,P-GPS,1,0,0,0,0,0,0,1618154540799,4316,4310,4322,4311,0,0,27,,,,,,,0,0,0,20.00,-38.00,-446.00,0.00,0.00,-441.00,6,28.00,18.00,5.76,0.00,0.00,-18.00,0,,,100,100,0,2,0,0,0,2,0,,,,,0.0,5.6,0
55.935593,-4.404096,3.00,3.10,1.50,0.58,3.00,3.00,1.80,0.58,5416,2021-04-11 15:22:20.833,2021-04-11 16:22:20.833,13,0,0,16.328,55.935588,-4.404099,0.00,0.00,-1.50,-1.90,-4.20,-44.70,0,1,0,99,100,-7428,3554,16328,2881.50,0,P-GPS,1,0,0,0,0,0,0,1618154540833,4316,4310,4322,4311,0,0,27,,,,,,,0,0,0,19.00,-42.00,-447.00,0.00,0.00,-441.00,6,30.00,15.00,5.80,0.00,0.00,-15.00,0,,,100,100,0,2,0,0,0,2,0,,,,,0.0,5.6,0
55.935593,-4.404096,3.20,3.30,0.80,0.63,3.20,3.20,1.80,0.63,5612,2021-04-11 15:22:21.029,2021-04-11 16:22:21.029,13,0,0,16.328,55.935588,-4.404099,0.00,0.00,-0.80,-1.90,-3.40,-44.70,0,1,0,99,100,-7428,3554,16328,2881.50,0,P-GPS,1,0,0,0,0,0,0,1618154541029,4316,4310,4322,4311,0,0,27,,,,,,,0,0,0,19.00,-34.00,-447.00,0.00,0.00,-441.00,6,32.00,8.00,6.26,0.00,0.00,-8.00,0,,,100,100,0,2,0,0,0,2,0,,,,,0.0,13.0,0
55.935593,-4.404097,3.30,3.40,0.50,0.63,3.30,3.30,1.80,0.63,5713,2021-04-11 15:22:21.130,2021-04-11 16:22:21.130,13,0,0,16.328,55.935588,-4.404099,0.00,0.00,-0.50,-1.90,-3.00,-44.70,0,1,0,99,100,-7428,3554,16328,2881.50,0,P-GPS,1,0,0,0,0,0,0,1618154541130,4316,4310,4322,4311,0,0,27,,,,,,,0,0,0,19.00,-30.00,-447.00,0.00,0.00,-441.00,6,33.00,5.00,6.33,0.00,0.00,-5.00,0,,,100,100,0,2,0,0,0,2,0,,,,,0.0,13.6,0
55.935593,-4.404097,3.40,3.40,0.10,0.63,3.40,3.40,1.80,0.63,5913,2021-04-11 15:22:21.330,2021-04-11 16:22:21.330,13,0,0,16.328,55.935588,-4.404099,0.00,0.00,-0.10,-1.80,-2.40,-44.80,0,1,0,99,100,-7428,3554,16328,2881.50,0,P-GPS,1,0,0,0,0,0,0,1618154541330,4316,4310,4322,4311,0,0,27,,,,,,,0,0,0,18.00,-24.00,-448.00,0.00,0.00,-441.00,6,34.00,1.00,6.34,0.00,0.00,-1.00,0,,,100,100,0,2,0,0,0,2,0,,,,,0.0,0.0,0
55.935593,-4.404097,3.40,3.40,0.00,0.64,3.40,3.40,1.80,0.64,6000,2021-04-11 15:22:21.417,2021-04-11 16:22:21.417,13,0,0,16.328,55.935588,-4.404099,0.00,0.00,0.00,-2.10,-2.30,-44.70,0,1,0,99,100,-7428,3554,16328,2881.50,0,P-GPS,1,0,0,0,0,0,0,1618154541417,4316,4310,4322,4311,0,0,27,,,,,,,0,0,0,21.00,-23.00,-447.00,0.00,0.00,-441.00,6,34.00,0.00,6.40,0.00,0.00,0.00,0,,,100,100,0,2,0,0,0,2,0,,,,,0.0,0.0,0
55.935593,-4.404096,3.40,3.40,0.00,0.67,3.40,3.40,1.80,0.67,6120,2021-04-11 15:22:21.537,2021-04-11 16:22:21.537,13,0,0,16.328,55.935588,-4.404099,0.00,0.00,0.00,-2.20,-2.70,-44.70,0,1,0,99,100,-7428,3554,16328,2881.50,0,P-GPS,1,0,0,0,0,0,0,1618154541537,4316,4310,4322,4311,0,0,27,,,,,,,0,0,0,22.00,-27.00,-447.00,0.00,0.00,-441.00,6,34.00,0.00,6.69,0.00,0.00,0.00,0,,,100,100,0,2,0,0,0,2,0,,,,,0.0,0.0,0
55.935593,-4.404096,3.40,3.40,0.00,0.68,3.40,3.40,1.80,0.68,6212,2021-04-11 15:22:21.629,2021-04-11 16:22:21.629,13,0,0,16.328,55.935588,-4.404099,0.00,0.00,0.00,-2.00,-3.60,-44.80,0,1,0,99,100,-7428,3554,16328,2881.50,0,P-GPS,1,0,0,0,0,0,0,1618154541629,4316,4310,4322,4311,0,0,27,,,,,,,0,0,0,20.00,-36.00,-448.00,0.00,0.00,-441.00,6,34.00,0.00,6.81,0.00,0.00,0.00,0,,,100,100,0,2,0,0,0,2,0,,,,,0.0,0.0,0
55.935594,-4.404096,3.40,3.40,0.00,0.71,3.40,3.40,1.80,0.71,6301,2021-04-11 15:22:21.718,2021-04-11 16:22:21.718,13,0,0,16.328,55.935588,-4.404099,0.00,0.00,0.00,-2.20,-4.30,-44.80,0,1,0,99,100,-7428,3554,16328,2881.50,0,P-GPS,1,0,0,0,0,0,0,1618154541718,4316,4310,4322,4311,0,0,27,,,,,,,0,0,0,22.00,-43.00,-448.00,0.00,0.00,-441.00,6,34.00,0.00,7.08,0.00,0.00,0.00,0,,,100,100,0,2,0,0,0,2,0,,,,,0.0,0.0,0
55.935594,-4.404096,3.40,3.40,0.00,0.72,3.40,3.40,1.80,0.72,6481,2021-04-11 15:22:21.898,2021-04-11 16:22:21.898,13,0,0,15.692,55.935588,-4.404099,0.00,0.00,0.00,-2.40,-4.50,-44.80,0,1,0,99,100,-8823,3553,15692,2882.50,0,P-GPS,1,0,0,0,0,0,0,1618154541898,4316,4310,4322,4311,0,0,27,,,,,,,0,0,0,24.00,-45.00,-448.00,0.00,0.00,-441.00,6,34.00,0.00,7.20,0.00,0.00,0.00,0,,,100,100,0,2,0,0,0,2,0,,,,,0.0,0.0,0
55.935594,-4.404096,3.40,3.40,0.00,0.73,3.40,3.40,1.80,0.73,6511,2021-04-11 15:22:21.928,2021-04-11 16:22:21.928,13,0,0,15.692,55.935588,-4.404099,0.00,0.00,0.00,-2.80,-4.20,-44.70,0,1,0,99,100,-8823,3553,15692,2882.50,0,P-GPS,1,0,0,0,0,0,0,1618154541928,4316,4310,4322,4311,0,0,27,,,,,,,0,0,0,28.00,-42.00,-447.00,0.00,0.00,-441.00,6,34.00,0.00,7.32,0.00,0.00,0.00,0,,,100,100,0,2,0,0,0,2,0,,,,,0.0,0.0,0
55.935594,-4.404096,3.40,3.40,0.00,0.74,3.40,3.40,1.80,0.74,6616,2021-04-11 15:22:22.033,2021-04-11 16:22:22.033,13,0,0,15.692,55.935588,-4.404099,0.00,0.00,0.00,-3.30,-3.80,-44.60,0,1,0,99,100,-8823,3553,15692,2882.50,0,P-GPS,1,0,0,0,0,0,0,1618154542033,4316,4310,4322,4311,0,0,27,,,,,,,0,0,0,33.00,-38.00,-446.00,0.00,0.00,-441.00,6,34.00,0.00,7.41,0.00,0.00,0.00,0,,,100,100,0,2,0,0,0,2,0,,,,,0.0,0.0,0
55.935594,-4.404096,3.40,3.40,0.00,0.75,3.40,3.40,1.80,0.75,6712,2021-04-11 15:22:22.129,2021-04-11 16:22:22.129,13,0,0,15.692,55.935588,-4.404099,0.00,0.00,0.00,-3.50,-3.60,-44.60,0,1,0,99,100,-8823,3553,15692,2882.50,0,P-GPS,1,0,0,0,0,0,0,1618154542129,4316,4310,4322,4311,0,0,27,,,,,,,0,0,0,35.00,-36.00,-446.00,0.00,0.00,-441.00,6,34.00,0.00,7.46,0.00,0.00,0.00,0,,,100,100,0,2,0,0,0,2,0,,,,,0.0,0.0,0
55.935594,-4.404096,3.30,3.40,0.00,0.76,3.40,3.40,1.80,0.76,6813,2021-04-11 15:22:22.230,2021-04-11 16:22:22.230,13,0,0,15.692,55.935588,-4.404099,0.00,0.00,0.00,-3.40,-3.70,-44.60,0,1,0,99,100,-8823,3553,15692,2882.50,0,P-GPS,1,0,0,0,0,0,0,1618154542230,4316,4310,4322,4311,0,0,27,,,,,,,0,0,0,34.00,-37.00,-446.00,0.00,0.00,-441.00,6,33.00,0.00,7.56,0.00,0.00,0.00,0,,,100,100,0,2,0,0,0,2,0,,,,,0.0,0.0,0
55.935594,-4.404096,3.30,3.40,0.00,0.77,3.40,3.40,1.80,0.77,6927,2021-04-11 15:22:22.344,2021-04-11 16:22:22.344,13,0,0,15.692,55.935588,-4.404099,0.00,0.00,0.00,-3.40,-3.80,-44.50,0,1,0,99,100,-8823,3553,15692,2882.50,0,P-GPS,1,0,0,0,0,0,0,1618154542344,4064,4056,4067,4053,0,0,27,,,,,,,0,0,0,34.00,-38.00,-445.00,0.00,0.00,-441.00,6,33.00,0.00,7.73,0.00,0.00,0.00,0,,,100,100,0,2,0,0,0,2,0,,,,,0.0,0.0,0
55.935594,-4.404096,3.30,3.40,0.00,0.78,3.40,3.40,1.80,0.78,7113,2021-04-11 15:22:22.530,2021-04-11 16:22:22.530,13,0,0,15.692,55.935588,-4.404099,0.00,0.00,0.00,-3.20,-4.10,-44.60,0,1,0,99,100,-8823,3553,15692,2882.50,0,P-GPS,1,0,0,0,437,0,0,1618154542530,4064,4056,4067,4053,0,0,27,,,,,,,0,0,0,32.00,-41.00,-446.00,0.00,0.00,-441.00,6,33.00,0.00,7.84,0.00,0.00,0.00,0,,,100,100,0,2,0,0,0,2,0,,,,,0.0,0.0,0
55.935594,-4.404096,3.30,3.40,0.10,0.79,3.40,3.40,1.80,0.79,7204,2021-04-11 15:22:22.621,2021-04-11 16:22:22.621,13,0,0,15.692,55.935588,-4.404099,0.00,0.00,-0.10,-2.80,-3.10,-44.70,0,1,0,99,100,-8823,3553,15692,2882.50,0,P-GPS,1,0,0,0,553,0,0,1618154542621,4064,4056,4067,4053,0,0,27,,,,,,,0,0,0,28.00,-31.00,-447.00,0.00,0.00,-441.00,6,33.00,1.00,7.95,0.00,0.00,-1.00,0,,,100,100,0,2,0,0,0,2,0,,,,,0.0,0.0,0
55.935595,-4.404096,3.40,3.40,0.50,0.81,3.40,3.40,1.80,0.81,7309,2021-04-11 15:22:22.727,2021-04-11 16:22:22.727,13,0,0,15.692,55.935588,-4.404099,0.00,0.00,-0.50,-2.50,-2.50,-44.90,0,1,0,99,100,-8823,3553,15692,2882.50,0,P-GPS,1,0,0,0,612,0,0,1618154542726,4064,4056,4067,4053,0,0,27,,,,,,,0,0,0,25.00,-25.00,-449.00,0.00,0.00,-441.00,6,34.00,5.00,8.06,0.00,0.00,-5.00,0,,,100,100,0,2,0,0,0,2,0,,,,,0.0,0.0,0
55.935595,-4.404096,3.40,3.50,1.00,0.82,3.40,3.40,1.80,0.82,7405,2021-04-11 15:22:22.822,2021-04-11 16:22:22.822,13,0,0,16.239,55.935588,-4.404099,0.00,0.00,-1.00,-3.00,-2.70,-44.80,0,1,0,99,100,-5613,3550,16239,2882.50,0,P-GPS,1,0,0,0,641,0,0,1618154542822,4064,4056,4067,4053,0,0,27,,,,,,,0,0,0,30.00,-27.00,-448.00,0.00,0.00,-441.00,6,34.00,10.00,8.19,0.00,0.00,-10.00,0,,,100,100,0,2,0,0,0,2,0,,,,,0.0,0.0,0
55.935595,-4.404096,3.60,3.70,1.50,0.83,3.60,3.60,1.80,0.83,7566,2021-04-11 15:22:22.983,2021-04-11 16:22:22.983,13,0,0,16.239,55.935588,-4.404099,0.00,0.00,-1.50,-3.70,-3.40,-44.60,0,1,0,99,100,-5613,3550,16239,2882.50,0,P-GPS,1,0,0,0,641,0,0,1618154542983,4064,4056,4067,4053,0,0,27,,,,,,,0,0,0,37.00,-34.00,-446.00,0.00,0.00,-441.00,6,36.00,15.00,8.30,0.00,0.00,-15.00,0,,,100,100,0,2,0,0,0,2,0,,,,,0.0,0.0,0
55.935595,-4.404096,3.70,3.80,1.90,0.85,3.70,3.70,1.90,0.85,7600,2021-04-11 15:22:23.017,2021-04-11 16:22:23.017,13,0,0,16.239,55.935588,-4.404099,0.00,0.00,-1.90,-3.90,-4.10,-44.60,0,1,0,99,100,-5613,3550,16239,2882.50,0,P-GPS,1,0,0,0,623,0,0,1618154543017,4064,4056,4067,4053,0,0,27,,,,,,,0,0,0,39.00,-41.00,-446.00,0.00,0.00,-441.00,6,37.00,19.00,8.47,0.00,0.00,-19.00,0,,,100,100,0,2,0,0,0,2,0,,,,,0.0,0.0,0
55.935595,-4.404097,4.00,4.10,2.40,0.84,4.00,4.00,2.40,0.85,7707,2021-04-11 15:22:23.125,2021-04-11 16:22:23.124,13,0,0,16.239,55.935588,-4.404099,0.00,0.00,-2.40,-3.10,-4.50,-44.60,0,1,0,99,100,-5613,3550,16239,2882.50,0,P-GPS,1,0,0,0,617,0,0,1618154543124,4064,4056,4067,4053,0,0,27,,,,,,,0,0,0,31.00,-45.00,-446.00,0.00,0.00,-441.00,6,40.00,24.00,8.41,0.00,0.00,-24.00,0,,,100,100,0,2,0,0,0,2,0,,,,,0.0,0.0,0
55.935595,-4.404097,4.20,4.30,2.80,0.86,4.20,4.20,2.80,0.86,7814,2021-04-11 15:22:23.231,2021-04-11 16:22:23.231,13,0,0,16.239,55.935588,-4.404099,0.00,0.00,-2.80,-2.30,-4.60,-44.60,0,1,0,99,100,-5613,3550,16239,2882.50,0,P-GPS,1,0,0,0,496,0,0,1618154543231,4064,4056,4067,4053,0,0,27,,,,,,,0,0,0,23.00,-46.00,-446.00,0.00,0.00,-441.00,6,42.00,28.00,8.56,0.00,0.00,-28.00,0,,,100,100,0,2,0,0,0,2,0,,,,,0.0,0.0,0
55.935595,-4.404097,4.50,4.60,3.10,0.88,4.50,4.50,3.10,0.88,7909,2021-04-11 15:22:23.326,2021-04-11 16:22:23.326,13,0,0,16.239,55.935588,-4.404099,0.00,0.00,-3.10,-2.10,-5.10,-44.60,0,1,0,99,100,-5613,3550,16239,2882.50,0,P-GPS,1,0,0,0,236,0,0,1618154543326,4064,4056,4067,4053,0,0,27,,,,,,,0,0,0,21.00,-51.00,-446.00,0.00,0.00,-441.00,6,45.00,31.00,8.76,0.00,0.00,-31.00,0,,,100,100,0,2,0,0,0,2,0,,,,,0.0,0.0,0
55.935595,-4.404097,4.80,4.90,2.90,0.89,4.80,4.80,3.10,0.89,8013,2021-04-11 15:22:23.430,2021-04-11 16:22:23.430,13,0,0,16.239,55.935588,-4.404099,0.00,0.00,-2.90,-2.50,-5.40,-44.80,0,1,0,99,100,-5613,3550,16239,2882.50,0,P-GPS,1,0,0,0,0,0,0,1618154543430,4064,4056,4067,4053,0,0,27,,,,,,,0,0,0,25.00,-54.00,-448.00,0.00,0.00,-441.00,6,48.00,29.00,8.87,0.00,0.00,-29.00,0,,,100,100,0,2,0,0,0,2,0,,,,,0.0,0.0,0
55.935595,-4.404097,5.10,5.20,2.60,0.88,5.10,5.10,3.10,0.89,8114,2021-04-11 15:22:23.531,2021-04-11 16:22:23.531,13,0,0,16.239,55.935588,-4.404099,0.00,0.00,-2.60,-2.80,-4.90,-44.80,0,1,0,99,100,-5613,3550,16239,2882.50,0,P-GPS,1,0,0,0,0,0,0,1618154543531,4064,4056,4067,4053,0,0,27,,,,,,,0,0,0,28.00,-49.00,-448.00,0.00,0.00,-441.00,6,51.00,26.00,8.78,0.00,0.00,-26.00,0,,,100,100,0,2,0,0,0,2,0,,,,,0.0,0.0,0
55.935595,-4.404098,5.60,5.60,2.00,0.88,5.60,5.60,3.10,0.89,8311,2021-04-11 15:22:23.728,2021-04-11 16:22:23.728,13,0,0,16.239,55.935588,-4.404099,0.00,0.00,-2.00,-2.80,-4.20,-44.70,0,1,0,99,100,-5613,3550,16239,2882.50,0,P-GPS,1,0,0,0,0,0,0,1618154543728,4064,4056,4067,4053,0,0,27,,,,,,,0,0,0,28.00,-42.00,-447.00,0.00,0.00,-441.00,6,56.00,20.00,8.82,0.00,0.00,-20.00,0,,,100,100,0,2,0,0,0,2,0,,,,,0.0,0.0,0
55.935595,-4.404098,5.80,5.80,1.60,0.89,5.80,5.80,3.10,0.89,8407,2021-04-11 15:22:23.824,2021-04-11 16:22:23.824,13,0,0,15.780,55.935588,-4.404099,0.00,0.00,-1.60,-3.00,-3.80,-44.70,0,1,0,99,100,-8034,3549,15780,2883.50,0,P-GPS,1,0,0,0,0,0,0,1618154543824,4064,4056,4067,4053,0,0,27,,,,,,,0,0,0,30.00,-38.00,-447.00,0.00,0.00,-441.00,6,58.00,16.00,8.87,0.00,0.00,-16.00,0,,,100,100,0,2,0,0,0,2,0,,,,,0.0,0.0,0
55.935595,-4.404098,6.00,5.90,1.10,0.87,6.00,6.00,3.10,0.89,8494,2021-04-11 15:22:23.911,2021-04-11 16:22:23.911,13,0,0,15.780,55.935588,-4.404099,0.00,0.00,-1.10,-3.00,-3.50,-44.60,0,1,0,99,100,-8034,3549,15780,2883.50,0,P-GPS,1,0,0,0,0,0,0,1618154543911,4064,4056,4067,4053,0,0,27,,,,,,,0,0,0,30.00,-35.00,-446.00,0.00,0.00,-441.00,6,60.00,11.00,8.67,0.00,0.00,-11.00,0,,,100,100,0,2,0,0,0,2,0,,,,,0.0,0.0,0
55.935595,-4.404098,6.10,5.90,0.70,0.87,6.10,6.10,3.10,0.89,8684,2021-04-11 15:22:24.101,2021-04-11 16:22:24.101,13,0,0,15.780,55.935588,-4.404099,0.00,0.00,-0.70,-2.60,-3.60,-44.80,0,1,0,99,100,-8034,3549,15780,2883.50,0,P-GPS,1,0,0,0,0,0,0,1618154544101,4064,4056,4067,4053,0,0,27,,,,,,,0,0,0,26.00,-36.00,-448.00,0.00,0.00,-441.00,6,61.00,7.00,8.71,0.00,0.00,-7.00,0,,,100,100,0,2,0,0,0,2,0,,,,,0.0,0.0,0
55.935596,-4.404098,6.10,6.00,0.40,0.93,6.10,6.10,3.10,0.93,8708,2021-04-11 15:22:24.125,2021-04-11 16:22:24.125,13,0,0,15.780,55.935588,-4.404099,0.00,0.00,-0.40,-1.70,-3.50,-44.90,0,1,0,99,100,-8034,3549,15780,2883.50,0,P-GPS,1,0,0,0,0,0,0,1618154544125,4064,4056,4067,4053,0,0,27,,,,,,,0,0,0,17.00,-35.00,-449.00,0.00,0.00,-441.00,6,61.00,4.00,9.32,0.00,0.00,-4.00,0,,,100,100,0,2,0,0,0,2,0,,,,,0.0,0.0,0
55.935596,-4.404099,6.20,6.00,0.20,0.94,6.20,6.20,3.10,0.94,8810,2021-04-11 15:22:24.227,2021-04-11 16:22:24.227,13,0,0,15.780,55.935588,-4.404099,0.00,0.00,-0.20,-0.80,-3.40,-45.00,0,1,0,99,100,-8034,3549,15780,2883.50,0,P-GPS,1,0,0,0,0,0,0,1618154544227,4064,4056,4067,4053,0,0,27,,,,,,,0,0,0,8.00,-34.00,-450.00,0.00,0.00,-441.00,6,62.00,2.00,9.43,0.00,0.00,-2.00,0,,,100,100,0,2,0,0,0,2,0,,,,,0.0,0.0,0
55.935596,-4.404099,6.20,6.00,0.10,0.96,6.20,6.20,3.10,0.96,8910,2021-04-11 15:22:24.327,2021-04-11 16:22:24.327,13,0,0,15.780,55.935588,-4.404099,0.00,0.00,-0.10,-1.10,-3.20,-45.00,0,1,0,99,100,-8034,3549,15780,2883.50,0,P-GPS,1,0,0,0,0,0,0,1618154544327,4064,4056,4067,4053,0,0,27,,,,,,,0,0,0,11.00,-32.00,-450.00,0.00,0.00,-441.00,6,62.00,1.00,9.63,0.00,0.00,-1.00,0,,,100,100,0,2,0,0,0,2,0,,,,,0.0,0.0,0
55.935596,-4.404099,6.20,6.00,0.00,0.98,6.20,6.20,3.10,0.98,9009,2021-04-11 15:22:24.426,2021-04-11 16:22:24.426,13,0,0,15.780,55.935588,-4.404099,0.00,0.00,0.00,-1.40,-2.70,-45.00,0,1,0,99,100,-8034,3549,15780,2883.50,0,P-GPS,1,0,0,0,0,0,0,1618154544426,4064,4056,4067,4053,0,0,27,,,,,,,0,0,0,14.00,-27.00,-450.00,0.00,0.00,-441.00,6,62.00,0.00,9.76,0.00,0.00,0.00,0,,,100,100,0,2,0,0,0,2,0,,,,,0.0,0.0,0
55.935596,-4.404099,6.20,6.00,0.00,0.96,6.20,6.20,3.10,0.98,9110,2021-04-11 15:22:24.528,2021-04-11 16:22:24.527,13,0,0,15.780,55.935588,-4.404099,0.00,0.00,0.00,-1.00,-2.70,-45.10,0,1,0,99,100,-8034,3549,15780,2883.50,0,P-GPS,1,0,0,0,0,0,0,1618154544527,4064,4056,4067,4053,0,0,27,,,,,,,0,0,0,10.00,-27.00,-451.00,0.00,0.00,-441.00,6,62.00,0.00,9.56,0.00,0.00,0.00,0,,,100,100,0,2,0,0,0,2,0,,,,,0.0,0.0,0
55.935596,-4.404099,6.20,6.00,0.00,0.97,6.20,6.20,3.10,0.98,9209,2021-04-11 15:22:24.626,2021-04-11 16:22:24.626,13,0,0,15.780,55.935588,-4.404099,0.00,0.00,0.00,-0.60,-3.50,-45.20,0,1,0,99,100,-8034,3549,15780,2883.50,0,P-GPS,1,0,0,0,0,0,0,1618154544626,4064,4056,4067,4053,0,0,27,,,,,,,0,0,0,6.00,-35.00,-452.00,0.00,0.00,-441.00,6,62.00,0.00,9.69,0.00,0.00,0.00,0,,,100,100,0,2,0,0,0,2,0,,,,,0.0,0.0,0
55.935597,-4.404099,6.20,6.00,0.00,1.00,6.20,6.20,3.10,1.00,9302,2021-04-11 15:22:24.719,2021-04-11 16:22:24.719,13,0,0,15.780,55.935588,-4.404099,0.00,0.00,0.00,-0.60,-4.10,-45.20,0,1,0,99,100,-8034,3549,15780,2883.50,0,P-GPS,1,0,0,0,0,0,0,1618154544719,4064,4056,4067,4053,0,0,27,,,,,,,0,0,0,6.00,-41.00,-452.00,0.00,0.00,-441.00,6,62.00,0.00,10.03,0.00,0.00,0.00,0,,,100,100,0,2,0,0,0,2,0,,,,,0.0,0.0,0
55.935597,-4.404099,6.10,6.00,0.00,1.02,6.20,6.20,3.10,1.02,9399,2021-04-11 15:22:24.816,2021-04-11 16:22:24.816,13,0,0,16.431,55.935588,-4.404099,0.00,0.00,0.00,-1.50,-4.40,-45.20,0,1,0,99,100,-7629,3546,16431,2883.50,0,P-GPS,1,0,0,0,0,0,0,1618154544816,4064,4056,4067,4053,0,0,27,,,,,,,0,0,0,15.00,-44.00,-452.00,0.00,0.00,-441.00,6,61.00,0.00,10.16,0.00,0.00,0.00,0,,,100,100,0,2,0,0,0,2,0,,,,,0.0,0.0,0
55.935597,-4.404099,6.10,6.00,0.00,1.04,6.20,6.20,3.10,1.04,9507,2021-04-11 15:22:24.924,2021-04-11 16:22:24.924,13,0,0,16.431,55.935588,-4.404099,0.00,0.00,0.00,-2.00,-3.80,-45.10,0,1,0,99,100,-7629,3546,16431,2883.50,0,P-GPS,1,0,0,0,0,0,0,1618154544924,4064,4056,4067,4053,0,0,27,,,,,,,0,0,0,20.00,-38.00,-451.00,0.00,0.00,-441.00,6,61.00,0.00,10.37,0.00,0.00,0.00,0,,,100,100,0,2,0,0,0,2,0,,,,,0.0,0.0,0
55.935597,-4.404099,6.10,5.90,0.00,1.05,6.20,6.20,3.10,1.05,9608,2021-04-11 15:22:25.025,2021-04-11 16:22:25.025,13,0,0,16.431,55.935588,-4.404099,0.00,0.00,0.00,-1.50,-3.30,-45.10,0,1,0,99,100,-7629,3546,16431,2883.50,0,P-GPS,1,0,0,0,0,0,0,1618154545025,4064,4056,4067,4053,0,0,27,,,,,,,0,0,0,15.00,-33.00,-451.00,0.00,0.00,-441.00,6,61.00,0.00,10.50,0.00,0.00,0.00,0,,,100,100,0,2,0,0,0,2,0,,,,,0.0,0.0,0
55.935597,-4.404099,6.10,5.90,0.00,1.07,6.20,6.20,3.10,1.07,9769,2021-04-11 15:22:25.187,2021-04-11 16:22:25.186,13,0,0,16.431,55.935588,-4.404099,0.00,0.00,0.00,-1.30,-3.10,-45.00,0,1,0,99,100,-7629,3546,16431,2883.50,0,P-GPS,1,0,0,0,0,0,0,1618154545186,4064,4056,4067,4053,0,0,27,,,,,,,0,0,0,13.00,-31.00,-450.00,0.00,0.00,-441.00,6,61.00,0.00,10.67,0.00,0.00,0.00,0,,,100,100,0,2,0,0,0,2,0,,,,,0.0,0.0,0
55.935597,-4.404099,6.10,5.90,0.00,1.08,6.20,6.20,3.10,1.08,9811,2021-04-11 15:22:25.228,2021-04-11 16:22:25.228,13,0,0,16.431,55.935588,-4.404099,0.00,0.00,0.00,-1.20,-3.50,-45.00,0,1,0,99,100,-7629,3546,16431,2883.50,0,P-GPS,1,0,0,0,0,0,0,1618154545228,4064,4056,4067,4053,0,0,27,,,,,,,0,0,0,12.00,-35.00,-450.00,0.00,0.00,-441.00,6,61.00,0.00,10.79,0.00,0.00,0.00,0,,,100,100,0,2,0,0,0,2,0,,,,,0.0,0.0,0
55.935597,-4.404099,6.10,5.90,0.00,1.10,6.20,6.20,3.10,1.10,9926,2021-04-11 15:22:25.343,2021-04-11 16:22:25.343,13,0,0,16.431,55.935588,-4.404099,0.00,0.00,0.00,-1.40,-3.70,-45.00,0,1,0,99,100,-7629,3546,16431,2883.50,0,P-GPS,1,0,0,0,0,0,0,1618154545343,4064,4056,4067,4053,0,0,27,,,,,,,0,0,0,14.00,-37.00,-450.00,0.00,0.00,-441.00,6,61.00,0.00,11.00,0.00,0.00,0.00,0,,,100,100,0,2,0,0,0,2,0,,,,,0.0,0.0,0
55.935598,-4.404099,6.10,5.90,0.00,1.11,6.20,6.20,3.10,1.11,10014,2021-04-11 15:22:25.431,2021-04-11 16:22:25.431,13,0,0,16.431,55.935588,-4.404099,0.00,0.00,0.00,-1.70,-3.50,-45.00,0,1,0,99,100,-7629,3546,16431,2883.50,0,P-GPS,1,0,0,0,0,0,0,1618154545431,4064,4056,4067,4053,0,0,27,,,,,,,0,0,0,17.00,-35.00,-450.00,0.00,0.00,-441.00,6,61.00,0.00,11.11,0.00,0.00,0.00,0,,,100,100,0,2,0,0,0,2,0,,,,,0.0,0.0,0
55.935598,-4.404099,6.10,5.90,0.00,1.11,6.20,6.20,3.10,1.11,10109,2021-04-11 15:22:25.526,2021-04-11 16:22:25.526,13,0,0,16.431,55.935588,-4.404099,0.00,0.00,0.00,-2.10,-3.30,-44.90,0,1,0,99,100,-7629,3546,16431,2883.50,0,P-GPS,1,0,0,0,0,0,0,1618154545526,4064,4056,4067,4053,0,0,27,,,,,,,0,0,0,21.00,-33.00,-449.00,0.00,0.00,-441.00,6,61.00,0.00,11.14,0.00,0.00,0.00,0,,,100,100,0,2,0,0,0,2,0,,,,,0.0,0.0,0
55.935598,-4.404099,6.10,5.90,0.00,1.12,6.20,6.20,3.10,1.12,10207,2021-04-11 15:22:25.624,2021-04-11 16:22:25.624,13,0,0,16.431,55.935588,-4.404099,0.00,0.00,0.00,-2.40,-3.40,-44.90,0,1,0,99,100,-7629,3546,16431,2883.50,0,P-GPS,1,0,0,0,0,0,0,1618154545624,4064,4056,4067,4053,0,0,27,,,,,,,0,0,0,24.00,-34.00,-449.00,0.00,0.00,-441.00,6,61.00,0.00,11.23,0.00,0.00,0.00,0,,,100,100,0,2,0,0,0,2,0,,,,,0.0,0.0,0
55.935598,-4.404100,6.00,5.90,0.00,1.11,6.20,6.20,3.10,1.12,10309,2021-04-11 15:22:25.726,2021-04-11 16:22:25.726,13,0,0,16.431,55.935588,-4.404099,0.00,0.00,0.00,-2.20,-3.30,-44.90,0,1,0,99,100,-7629,3546,16431,2883.50,0,P-GPS,1,0,0,0,0,0,0,1618154545726,4064,4056,4067,4053,0,0,27,,,,,,,0,0,0,22.00,-33.00,-449.00,0.00,0.00,-441.00,6,60.00,0.00,11.15,0.00,0.00,0.00,0,,,100,100,0,2,0,0,0,2,0,,,,,0.0,0.0,0
55.935598,-4.404100,6.00,5.90,0.00,1.12,6.20,6.20,3.10,1.12,10399,2021-04-11 15:22:25.816,2021-04-11 16:22:25.816,13,0,0,16.182,55.935588,-4.404099,0.00,0.00,0.00,-1.60,-3.10,-44.90,0,1,0,99,100,-5684,3545,16182,2883.50,0,P-GPS,1,0,0,0,0,0,0,1618154545816,4064,4056,4067,4053,0,0,27,,,,,,,0,0,0,16.00,-31.00,-449.00,0.00,0.00,-441.00,6,60.00,0.00,11.22,0.00,0.00,0.00,0,,,100,100,0,2,0,0,0,2,0,,,,,0.0,0.0,0
55.935598,-4.404100,6.00,5.90,0.00,1.12,6.20,6.20,3.10,1.12,10502,2021-04-11 15:22:25.919,2021-04-11 16:22:25.919,13,0,0,16.182,55.935588,-4.404099,0.00,0.00,0.00,-1.00,-3.10,-45.00,0,1,0,99,100,-5684,3545,16182,2883.50,0,P-GPS,1,0,0,0,0,0,0,1618154545919,4064,4056,4067,4053,0,0,27,,,,,,,0,0,0,10.00,-31.00,-450.00,0.00,0.00,-441.00,6,60.00,0.00,11.23,0.00,0.00,0.00,0,,,100,100,0,2,0,0,0,2,0,,,,,0.0,0.0,0
55.935598,-4.404100,6.00,5.90,0.00,1.13,6.20,6.20,3.10,1.13,10609,2021-04-11 15:22:26.026,2021-04-11 16:22:26.026,13,0,0,16.182,55.935588,-4.404099,0.00,0.00,0.00,-0.90,-3.30,-45.00,0,1,0,99,100,-5684,3545,16182,2883.50,0,P-GPS,1,0,0,0,0,0,0,1618154546026,4064,4056,4067,4053,0,0,27,,,,,,,0,0,0,9.00,-33.00,-450.00,0.00,0.00,-441.00,6,60.00,0.00,11.30,0.00,0.00,0.00,0,,,100,100,0,2,0,0,0,2,0,,,,,0.0,0.0,0
55.935598,-4.404100,6.10,5.90,0.00,1.11,6.20,6.20,3.10,1.13,10703,2021-04-11 15:22:26.120,2021-04-11 16:22:26.120,13,0,0,16.182,55.935588,-4.404099,0.00,0.00,0.00,-1.20,-3.20,-45.20,0,1,0,99,100,-5684,3545,16182,2883.50,0,P-GPS,1,0,0,0,0,0,0,1618154546120,4064,4056,4067,4053,0,0,27,,,,,,,0,0,0,12.00,-32.00,-452.00,0.00,0.00,-441.00,6,61.00,0.00,11.14,0.00,0.00,0.00,0,,,100,100,0,2,0,0,0,2,0,,,,,0.0,0.0,0
55.935598,-4.404100,6.10,5.90,0.00,1.12,6.20,6.20,3.10,1.13,10876,2021-04-11 15:22:26.293,2021-04-11 16:22:26.293,13,0,0,16.182,55.935588,-4.404099,0.00,0.00,0.00,-1.50,-2.90,-45.20,0,1,0,99,100,-5684,3545,16182,2883.50,0,P-GPS,1,0,0,0,0,0,0,1618154546293,4064,4056,4067,4053,0,0,27,,,,,,,0,0,0,15.00,-29.00,-452.00,0.00,0.00,-441.00,6,61.00,0.00,11.16,0.00,0.00,0.00,0,,,100,100,0,2,0,0,0,2,0,,,,,0.0,0.0,0
55.935598,-4.404100,6.10,5.90,0.00,1.12,6.20,6.20,3.10,1.13,10902,2021-04-11 15:22:26.319,2021-04-11 16:22:26.319,13,0,0,16.182,55.935588,-4.404099,0.00,0.00,0.00,-1.50,-2.60,-45.20,0,1,0,99,100,-5684,3545,16182,2883.50,0,P-GPS,1,0,0,0,0,0,0,1618154546319,4064,4056,4067,4053,0,0,27,,,,,,,0,0,0,15.00,-26.00,-452.00,0.00,0.00,-441.00,6,61.00,0.00,11.19,0.00,0.00,0.00,0,,,100,100,0,2,0,0,0,2,0,,,,,0.0,0.0,0
55.935598,-4.404100,6.10,5.90,0.00,1.12,6.20,6.20,3.10,1.13,11009,2021-04-11 15:22:26.426,2021-04-11 16:22:26.426,13,0,0,16.182,55.935588,-4.404099,0.00,0.00,0.00,-1.60,-2.30,-45.20,0,1,0,99,100,-5684,3545,16182,2883.50,0,P-GPS,1,0,0,0,0,0,0,1618154546426,4064,4056,4067,4053,0,0,27,,,,,,,0,0,0,16.00,-23.00,-452.00,0.00,0.00,-441.00,6,61.00,0.00,11.20,0.00,0.00,0.00,0,,,100,100,0,2,0,0,0,2,0,,,,,0.0,0.0,0
55.935598,-4.404101,6.10,6.00,0.00,1.13,6.20,6.20,3.10,1.13,11201,2021-04-11 15:22:26.619,2021-04-11 16:22:26.618,13,0,0,16.182,55.935588,-4.404099,0.00,0.00,0.00,-2.00,-2.20,-45.30,0,1,0,99,100,-5684,3545,16182,2883.50,0,P-GPS,1,0,0,0,0,0,0,1618154546618,4064,4056,4067,4053,0,0,27,,,,,,,0,0,0,20.00,-22.00,-453.00,0.00,0.00,-441.00,6,61.00,0.00,11.29,0.00,0.00,0.00,0,,,100,100,0,2,0,0,0,2,0,,,,,0.0,0.0,0
55.935597,-4.404101,6.10,6.00,0.00,1.11,6.20,6.20,3.10,1.13,11317,2021-04-11 15:22:26.734,2021-04-11 16:22:26.734,13,0,0,16.182,55.935588,-4.404099,0.00,0.00,0.00,-2.30,-2.40,-45.20,0,1,0,99,100,-5684,3545,16182,2883.50,0,P-GPS,1,0,0,0,0,0,0,1618154546734,4064,4056,4067,4053,0,0,27,,,,,,,0,0,0,23.00,-24.00,-452.00,0.00,0.00,-441.00,6,61.00,0.00,11.10,0.00,0.00,0.00,0,,,100,100,0,2,0,0,0,2,0,,,,,0.0,0.0,0
55.935597,-4.404101,6.10,6.00,0.00,1.11,6.20,6.20,3.10,1.13,11511,2021-04-11 15:22:26.928,2021-04-11 16:22:26.928,13,0,0,16.133,55.935588,-4.404099,0.00,0.00,0.00,-3.50,-2.60,-45.10,0,1,0,98,100,-6721,3543,16133,2884.50,0,P-GPS,1,0,0,0,0,0,0,1618154546928,4064,4056,4067,4053,0,0,27,,,,,,,0,0,0,35.00,-26.00,-451.00,0.00,0.00,-441.00,6,61.00,0.00,11.12,0.00,0.00,0.00,0,,,100,100,0,2,0,0,0,2,0,,,,,0.0,0.0,0
55.935597,-4.404101,6.10,6.00,0.00,1.11,6.20,6.20,3.10,1.13,11605,2021-04-11 15:22:27.023,2021-04-11 16:22:27.022,13,0,0,16.133,55.935588,-4.404099,0.00,0.00,0.00,-3.60,-2.60,-45.10,0,1,0,98,100,-6721,3543,16133,2884.50,0,P-GPS,1,0,0,0,0,0,0,1618154547022,4064,4056,4067,4053,0,0,27,,,,,,,0,0,0,36.00,-26.00,-451.00,0.00,0.00,-441.00,6,61.00,0.00,11.12,0.00,0.00,0.00,0,,,100,100,0,2,0,0,0,2,0,,,,,0.0,0.0,0
55.935597,-4.404101,6.10,6.00,0.00,1.10,6.20,6.20,3.10,1.13,11710,2021-04-11 15:22:27.127,2021-04-11 16:22:27.127,13,0,0,16.133,55.935588,-4.404099,0.00,0.00,0.00,-3.20,-2.70,-45.20,0,1,0,98,100,-6721,3543,16133,2884.50,0,P-GPS,1,0,0,0,0,0,0,1618154547127,4064,4056,4067,4053,0,0,27,,,,,,,0,0,0,32.00,-27.00,-452.00,0.00,0.00,-441.00,6,61.00,0.00,11.00,0.00,0.00,0.00,0,,,100,100,0,2,0,0,0,2,0,,,,,0.0,0.0,0
55.935597,-4.404101,6.10,6.00,0.00,1.10,6.20,6.20,3.10,1.13,11809,2021-04-11 15:22:27.227,2021-04-11 16:22:27.226,13,0,0,16.133,55.935588,-4.404099,0.00,0.00,0.00,-3.10,-2.60,-45.10,0,1,0,98,100,-6721,3543,16133,2884.50,0,P-GPS,1,0,0,0,0,0,0,1618154547226,4064,4056,4067,4053,0,0,27,,,,,,,0,0,0,31.00,-26.00,-451.00,0.00,0.00,-441.00,6,61.00,0.00,11.01,0.00,0.00,0.00,0,,,100,100,0,2,0,0,0,2,0,,,,,0.0,0.0,0
55.935597,-4.404101,6.10,6.00,0.00,1.07,6.20,6.20,3.10,1.13,11957,2021-04-11 15:22:27.374,2021-04-11 16:22:27.374,13,0,0,16.133,55.935588,-4.404099,0.00,0.00,0.00,-3.40,-2.50,-45.00,0,1,0,98,100,-6721,3543,16133,2884.50,0,P-GPS,1,0,0,0,0,0,0,1618154547374,4064,4056,4067,4053,0,0,27,,,,,,,0,0,0,34.00,-25.00,-450.00,0.00,0.00,-441.00,6,61.00,0.00,10.74,0.00,0.00,0.00,0,,,100,100,0,2,0,0,0,2,0,,,,,0.0,0.0,0
55.935597,-4.404101,6.10,6.00,0.00,1.07,6.20,6.20,3.10,1.13,12011,2021-04-11 15:22:27.428,2021-04-11 16:22:27.428,13,0,0,16.133,55.935588,-4.404099,0.00,0.00,0.00,-3.70,-2.20,-45.00,0,1,0,98,100,-6721,3543,16133,2884.50,0,P-GPS,1,0,0,0,0,0,0,1618154547428,4064,4056,4067,4053,0,0,27,,,,,,,0,0,0,37.00,-22.00,-450.00,0.00,0.00,-441.00,6,61.00,0.00,10.73,0.00,0.00,0.00,0,,,100,100,0,2,0,0,0,2,0,,,,,0.0,0.0,0
55.935597,-4.404101,6.10,5.90,0.00,1.06,6.20,6.20,3.10,1.13,12101,2021-04-11 15:22:27.518,2021-04-11 16:22:27.518,13,0,0,16.133,55.935588,-4.404099,0.00,0.00,0.00,-3.70,-2.30,-45.00,0,1,0,98,100,-6721,3543,16133,2884.50,0,P-GPS,1,0,0,0,0,0,0,1618154547518,4064,4056,4067,4053,0,0,27,,,,,,,0,0,0,37.00,-23.00,-450.00,0.00,0.00,-441.00,6,61.00,0.00,10.63,0.00,0.00,0.00,0,,,100,100,0,2,0,0,0,2,0,,,,,0.0,0.0,0
55.935597,-4.404102,6.10,5.90,0.00,1.06,6.20,6.20,3.10,1.13,12213,2021-04-11 15:22:27.630,2021-04-11 16:22:27.630,13,0,0,16.133,55.935588,-4.404099,0.00,0.00,0.00,-3.00,-2.20,-45.00,0,1,0,98,100,-6721,3543,16133,2884.50,0,P-GPS,1,0,0,0,0,0,0,1618154547630,4064,4056,4067,4053,0,0,27,,,,,,,0,0,0,30.00,-22.00,-450.00,0.00,0.00,-441.00,6,61.00,0.00,10.63,0.00,0.00,0.00,0,,,100,100,0,2,0,0,0,2,0,,,,,0.0,0.0,0
55.935597,-4.404102,6.10,6.00,0.00,1.06,6.20,6.20,3.10,1.13,12311,2021-04-11 15:22:27.728,2021-04-11 16:22:27.728,13,0,0,16.133,55.935588,-4.404099,0.00,0.00,0.00,-2.40,-2.30,-45.10,0,1,0,98,100,-6721,3543,16133,2884.50,0,P-GPS,1,0,0,0,0,0,0,1618154547728,4064,4056,4067,4053,0,0,27,,,,,,,0,0,0,24.00,-23.00,-451.00,0.00,0.00,-441.00,6,61.00,0.00,10.56,0.00,0.00,0.00,0,,,100,100,0,2,0,0,0,2,0,,,,,0.0,0.0,0
55.935597,-4.404102,6.10,6.00,0.00,1.06,6.20,6.20,3.10,1.13,12404,2021-04-11 15:22:27.821,2021-04-11 16:22:27.821,13,0,0,16.173,55.935588,-4.404099,0.00,0.00,0.00,-2.40,-2.40,-45.10,0,1,0,98,100,-6333,3541,16173,2884.50,0,P-GPS,1,0,0,0,0,0,0,1618154547821,4064,4056,4067,4053,0,0,27,,,,,,,0,0,0,24.00,-24.00,-451.00,0.00,0.00,-441.00,6,61.00,0.00,10.56,0.00,0.00,0.00,0,,,100,100,0,2,0,0,0,2,0,,,,,0.0,0.0,0
55.935597,-4.404102,6.10,6.00,0.00,1.04,6.20,6.20,3.10,1.13,12512,2021-04-11 15:22:27.929,2021-04-11 16:22:27.929,13,0,0,16.173,55.935588,-4.404099,0.00,0.00,0.00,-2.70,-2.70,-45.10,0,1,0,98,100,-6333,3541,16173,2884.50,0,P-GPS,1,0,0,0,0,0,0,1618154547929,4064,4056,4067,4053,0,0,27,,,,,,,0,0,0,27.00,-27.00,-451.00,0.00,0.00,-441.00,6,61.00,0.00,10.44,0.00,0.00,0.00,0,,,100,100,0,2,0,0,0,2,0,,,,,0.0,0.0,0
55.935597,-4.404102,6.10,6.00,0.00,1.04,6.20,6.20,3.10,1.13,12700,2021-04-11 15:22:28.117,2021-04-11 16:22:28.117,13,0,0,16.173,55.935588,-4.404099,0.00,0.00,0.00,-3.30,-2.60,-45.00,0,1,0,98,100,-6333,3541,16173,2884.50,0,P-GPS,1,0,0,0,0,0,0,1618154548117,4064,4056,4067,4053,0,0,27,,,,,,,0,0,0,33.00,-26.00,-450.00,0.00,0.00,-441.00,6,61.00,0.00,10.40,0.00,0.00,0.00,0,,,100,100,0,2,0,0,0,2,0,,,,,0.0,0.0,0
55.935597,-4.404102,6.10,5.90,0.00,1.04,6.20,6.20,3.10,1.13,12809,2021-04-11 15:22:28.226,2021-04-11 16:22:28.226,13,0,0,16.173,55.935588,-4.404099,0.00,0.00,0.00,-3.20,-2.70,-45.10,0,1,0,98,100,-6333,3541,16173,2884.50,0,P-GPS,1,0,0,0,0,0,0,1618154548226,4064,4056,4067,4053,0,0,27,,,,,,,0,0,0,32.00,-27.00,-451.00,0.00,0.00,-441.00,6,61.00,0.00,10.37,0.00,0.00,0.00,0,,,100,100,0,2,0,0,0,2,0,,,,,0.0,0.0,0
55.935597,-4.404102,6.10,6.00,0.00,1.04,6.20,6.20,3.10,1.13,12989,2021-04-11 15:22:28.406,2021-04-11 16:22:28.406,13,0,0,16.173,55.935588,-4.404099,0.00,0.00,0.00,-3.10,-2.90,-45.10,0,1,0,98,100,-6333,3541,16173,2884.50,0,P-GPS,1,0,0,0,0,0,0,1618154548406,4064,4056,4067,4053,0,0,27,,,,,,,0,0,0,31.00,-29.00,-451.00,0.00,0.00,-441.00,6,61.00,0.00,10.41,0.00,0.00,0.00,0,,,100,100,0,2,0,0,0,2,2,,,,,0.0,0.0,0
55.935597,-4.404102,6.10,6.00,0.00,1.04,6.20,6.20,3.10,1.13,13010,2021-04-11 15:22:28.427,2021-04-11 16:22:28.427,13,0,0,16.173,55.935588,-4.404099,0.00,0.00,0.00,-3.20,-3.00,-45.10,0,1,0,98,100,-6333,3541,16173,2884.50,0,P-GPS,1,0,0,0,0,0,0,1618154548427,4064,4056,4067,4053,0,0,27,,,,,,,0,0,0,32.00,-30.00,-451.00,0.00,0.00,-441.00,6,61.00,0.00,10.38,0.00,0.00,0.00,0,,,100,100,0,2,0,0,0,2,2,,,,,0.0,0.0,0
55.935597,-4.404102,6.10,6.00,0.00,1.02,6.20,6.20,3.10,1.13,13212,2021-04-11 15:22:28.629,2021-04-11 16:22:28.629,13,0,0,16.173,55.935588,-4.404099,0.00,0.00,0.00,-3.50,-2.50,-44.90,0,1,0,98,100,-6333,3541,16173,2884.50,0,P-GPS,1,0,0,0,0,0,0,1618154548629,4064,4056,4067,4053,0,0,27,,,,,,,0,0,0,35.00,-25.00,-449.00,0.00,0.00,-441.00,6,61.00,0.00,10.21,0.00,0.00,0.00,0,,,100,100,0,2,0,0,0,2,2,,,,,0.0,0.0,0
55.935597,-4.404102,6.10,6.00,0.00,1.03,6.20,6.20,3.10,1.13,13303,2021-04-11 15:22:28.720,2021-04-11 16:22:28.720,13,0,0,16.173,55.935588,-4.404099,0.00,0.00,0.00,-3.50,-2.50,-45.00,0,1,0,98,100,-6333,3541,16173,2884.50,0,P-GPS,1,0,0,0,0,0,0,1618154548720,4064,4056,4067,4053,0,0,27,,,,,,,0,0,0,35.00,-25.00,-450.00,0.00,0.00,-441.00,6,61.00,0.00,10.25,0.00,0.00,0.00,0,,,100,100,0,2,0,0,0,2,2,,,,,0.0,0.0,0
55.935597,-4.404102,6.10,6.00,0.00,1.02,6.20,6.20,3.10,1.13,13402,2021-04-11 15:22:28.819,2021-04-11 16:22:28.819,13,0,0,16.148,55.935588,-4.404099,0.00,0.00,0.00,-3.60,-2.60,-45.10,0,1,0,98,100,-6366,3539,16148,2884.50,0,P-GPS,1,0,0,0,0,0,0,1618154548819,4064,4056,4067,4053,0,0,27,,,,,,,0,0,0,36.00,-26.00,-451.00,0.00,0.00,-441.00,6,61.00,0.00,10.20,0.00,0.00,0.00,0,,,100,100,0,2,0,0,0,2,2,,,,,0.0,0.0,0
55.935597,-4.404102,6.10,6.00,0.00,1.03,6.20,6.20,3.10,1.13,13498,2021-04-11 15:22:28.915,2021-04-11 16:22:28.915,13,0,0,16.148,55.935588,-4.404099,0.00,0.00,0.00,-3.70,-2.40,-45.10,0,1,0,98,100,-6366,3539,16148,2884.50,0,P-GPS,1,0,0,0,0,0,0,1618154548915,4064,4056,4067,4053,0,0,27,,,,,,,0,0,0,37.00,-24.00,-451.00,0.00,0.00,-441.00,6,61.00,0.00,10.29,0.00,0.00,0.00,0,,,100,100,0,2,0,0,0,2,2,,,,,0.0,0.0,0
55.935597,-4.404102,6.10,5.90,0.00,1.02,6.20,6.20,3.10,1.13,13593,2021-04-11 15:22:29.010,2021-04-11 16:22:29.010,13,0,0,16.148,55.935588,-4.404099,0.00,0.00,0.00,-3.70,-2.60,-45.10,0,1,0,98,100,-6366,3539,16148,2884.50,0,P-GPS,1,0,0,0,0,0,0,1618154549010,4064,4056,4067,4053,0,0,27,,,,,,,0,0,0,37.00,-26.00,-451.00,0.00,0.00,-441.00,6,61.00,0.00,10.24,0.00,0.00,0.00,0,,,100,100,0,2,0,0,0,2,2,,,,,0.0,0.0,0
55.935597,-4.404102,6.10,5.90,0.00,1.02,6.20,6.20,3.10,1.13,13705,2021-04-11 15:22:29.122,2021-04-11 16:22:29.122,13,0,0,16.148,55.935588,-4.404099,0.00,0.00,0.00,-3.70,-2.10,-45.10,0,1,0,98,100,-6366,3539,16148,2884.50,0,P-GPS,1,0,0,0,0,0,0,1618154549122,4064,4056,4067,4053,0,0,27,,,,,,,0,0,0,37.00,-21.00,-451.00,0.00,0.00,-441.00,6,61.00,0.00,10.19,0.00,0.00,0.00,0,,,100,100,0,2,0,0,0,2,2,,,,,0.0,0.0,0
55.935597,-4.404102,6.10,5.90,0.00,1.02,6.20,6.20,3.10,1.13,13831,2021-04-11 15:22:29.248,2021-04-11 16:22:29.248,13,0,0,16.148,55.935588,-4.404099,0.00,0.00,0.00,-3.50,-2.20,-45.10,0,1,0,98,100,-6366,3539,16148,2884.50,0,P-GPS,1,0,0,0,0,0,0,1618154549248,4064,4056,4067,4053,0,0,27,,,,,,,0,0,0,35.00,-22.00,-451.00,0.00,0.00,-441.00,6,61.00,0.00,10.15,0.00,0.00,0.00,0,,,100,100,0,2,0,0,0,2,2,,,,,0.0,0.0,0
55.935597,-4.404102,6.10,5.90,0.00,1.03,6.20,6.20,3.10,1.13,13994,2021-04-11 15:22:29.412,2021-04-11 16:22:29.411,14,0,0,16.148,55.935588,-4.404099,0.00,0.00,0.00,-3.80,-2.30,-45.00,0,1,0,98,100,-6366,3539,16148,2884.50,0,P-GPS,1,0,0,0,0,0,0,1618154549411,4064,4056,4067,4053,0,0,27,,,,,,,0,0,0,38.00,-23.00,-450.00,0.00,0.00,-441.00,6,61.00,0.00,10.27,0.00,0.00,0.00,0,,,100,100,0,2,0,0,0,2,2,,,,,0.0,0.0,0
55.935597,-4.404102,6.10,5.90,0.00,1.04,6.20,6.20,3.10,1.13,14108,2021-04-11 15:22:29.525,2021-04-11 16:22:29.525,14,0,0,16.148,55.935588,-4.404099,0.00,0.00,0.00,-3.70,-2.60,-44.80,0,1,0,98,100,-6366,3539,16148,2884.50,0,P-GPS,1,0,0,0,0,0,0,1618154549525,4064,4056,4067,4053,0,0,27,,,,,,,0,0,0,37.00,-26.00,-448.00,0.00,0.00,-441.00,6,61.00,0.00,10.42,0.00,0.00,0.00,0,,,100,100,0,2,0,0,0,2,2,,,,,0.0,0.0,0
55.935597,-4.404103,6.10,5.90,0.00,1.05,6.20,6.20,3.10,1.13,14213,2021-04-11 15:22:29.630,2021-04-11 16:22:29.630,14,0,0,16.148,55.935588,-4.404099,0.00,0.00,0.00,-3.50,-2.80,-44.70,0,1,0,98,100,-6366,3539,16148,2884.50,0,P-GPS,1,0,0,0,0,0,0,1618154549630,4064,4056,4067,4053,0,0,27,,,,,,,0,0,0,35.00,-28.00,-447.00,0.00,0.00,-441.00,6,61.00,0.00,10.47,0.00,0.00,0.00,0,,,100,100,0,2,0,0,0,2,2,,,,,0.0,0.0,0
55.935597,-4.404103,6.10,6.00,0.00,1.04,6.20,6.20,3.10,1.13,14399,2021-04-11 15:22:29.816,2021-04-11 16:22:29.816,14,0,0,16.186,55.935588,-4.404099,0.00,0.00,0.00,-2.70,-3.40,-44.90,0,1,0,98,100,-6137,3536,16186,2885.50,0,P-GPS,1,0,0,0,0,0,0,1618154549816,4064,4056,4067,4053,0,0,27,,,,,,,0,0,0,27.00,-34.00,-449.00,0.00,0.00,-441.00,6,61.00,0.00,10.44,0.00,0.00,0.00,0,,,100,100,0,2,0,0,0,2,2,,,,,0.0,0.0,0
55.935597,-4.404103,6.10,6.00,0.00,1.06,6.20,6.20,3.10,1.13,14499,2021-04-11 15:22:29.916,2021-04-11 16:22:29.916,14,0,0,16.186,55.935588,-4.404099,0.00,0.00,0.00,-2.40,-3.20,-44.90,0,1,0,98,100,-6137,3536,16186,2885.50,0,P-GPS,1,0,0,0,0,0,0,1618154549916,4064,4056,4067,4053,0,0,27,,,,,,,0,0,0,24.00,-32.00,-449.00,0.00,0.00,-441.00,6,61.00,0.00,10.62,0.00,0.00,0.00,0,,,100,100,0,2,0,0,0,2,2,,,,,0.0,0.0,0
55.935597,-4.404103,6.10,6.00,0.00,1.07,6.20,6.20,3.10,1.13,14597,2021-04-11 15:22:30.014,2021-04-11 16:22:30.014,14,0,0,16.186,55.935588,-4.404099,0.00,0.00,0.00,-2.10,-2.90,-44.80,0,1,0,98,100,-6137,3536,16186,2885.50,0,P-GPS,1,0,0,0,0,0,0,1618154550014,4064,4056,4067,4053,0,0,27,,,,,,,0,0,0,21.00,-29.00,-448.00,0.00,0.00,-441.00,6,61.00,0.00,10.67,0.00,0.00,0.00,0,,,100,100,0,2,0,0,0,2,2,,,,,0.0,0.0,0
55.935597,-4.404103,6.10,6.00,0.00,1.07,6.20,6.20,3.10,1.13,14711,2021-04-11 15:22:30.128,2021-04-11 16:22:30.128,14,0,0,16.186,55.935588,-4.404099,0.00,0.00,0.00,-2.00,-3.10,-44.90,0,1,0,98,100,-6137,3536,16186,2885.50,0,P-GPS,1,0,0,0,0,0,0,1618154550128,4064,4056,4067,4053,0,0,27,,,,,,,0,0,0,20.00,-31.00,-449.00,0.00,0.00,-441.00,6,61.00,0.00,10.69,0.00,0.00,0.00,0,,,100,100,0,2,0,0,0,2,2,,,,,0.0,0.0,0
55.935597,-4.404103,6.10,6.00,0.00,1.07,6.20,6.20,3.10,1.13,14806,2021-04-11 15:22:30.223,2021-04-11 16:22:30.223,14,0,0,16.186,55.935588,-4.404099,0.00,0.00,0.00,-2.40,-3.00,-44.90,0,1,0,98,100,-6137,3536,16186,2885.50,0,P-GPS,1,0,0,0,0,0,0,1618154550223,4064,4056,4067,4053,0,0,27,,,,,,,0,0,0,24.00,-30.00,-449.00,0.00,0.00,-441.00,6,61.00,0.00,10.71,0.00,0.00,0.00,0,,,100,100,0,2,0,0,0,2,2,,,,,0.0,0.0,0
55.935597,-4.404103,6.10,6.00,0.00,1.07,6.20,6.20,3.10,1.13,14897,2021-04-11 15:22:30.314,2021-04-11 16:22:30.314,14,0,0,16.186,55.935588,-4.404099,0.00,0.00,0.00,-3.10,-2.70,-44.80,0,1,0,98,100,-6137,3536,16186,2885.50,0,P-GPS,1,0,0,0,0,0,0,1618154550314,4064,4056,4067,4053,0,0,27,,,,,,,0,0,0,31.00,-27.00,-448.00,0.00,0.00,-441.00,6,61.00,0.00,10.73,0.00,0.00,0.00,0,,,100,100,0,2,0,0,0,2,2,,,,,0.0,0.0,0
55.935597,-4.404103,6.10,6.00,0.00,1.07,6.20,6.20,3.10,1.13,14978,2021-04-11 15:22:30.396,2021-04-11 16:22:30.395,14,0,0,16.186,55.935588,-4.404099,0.00,0.00,0.00,-3.10,-2.70,-44.80,0,1,0,98,100,-6137,3536,16186,2885.50,0,P-GPS,1,0,0,0,0,0,0,1618154550395,4064,4056,4067,4053,0,0,27,,,,,,,0,0,0,31.00,-27.00,-448.00,0.00,0.00,-441.00,6,61.00,0.00,10.73,0.00,0.00,0.00,0,,,100,100,0,2,0,0,0,2,2,,,,,0.0,0.0,0
55.935597,-4.404103,6.10,6.00,0.00,1.08,6.20,6.20,3.10,1.13,15103,2021-04-11 15:22:30.521,2021-04-11 16:22:30.520,14,0,0,16.186,55.935588,-4.404099,0.00,0.00,0.00,-3.50,-1.90,-44.70,0,1,0,98,100,-6137,3536,16186,2885.50,0,P-GPS,1,0,0,0,0,0,0,1618154550520,4064,4056,4067,4053,0,0,27,,,,,,,0,0,0,35.00,-19.00,-447.00,0.00,0.00,-441.00,6,61.00,0.00,10.82,0.00,0.00,0.00,0,,,100,100,0,2,0,0,0,2,2,,,,,0.0,0.0,0
55.935597,-4.404103,6.10,6.00,0.00,1.09,6.20,6.20,3.10,1.13,15206,2021-04-11 15:22:30.623,2021-04-11 16:22:30.623,14,0,0,16.186,55.935588,-4.404099,0.00,0.00,0.00,-2.90,-2.40,-44.70,0,1,0,98,100,-6137,3536,16186,2885.50,0,P-GPS,1,0,0,0,0,0,0,1618154550623,4064,4056,4067,4053,0,0,27,,,,,,,0,0,0,29.00,-24.00,-447.00,0.00,0.00,-441.00,6,61.00,0.00,10.87,0.00,0.00,0.00,0,,,100,100,0,2,0,0,0,2,2,,,,,0.0,0.0,0
55.935597,-4.404103,6.10,6.00,0.00,1.09,6.20,6.20,3.10,1.13,15305,2021-04-11 15:22:30.722,2021-04-11 16:22:30.722,14,0,0,16.186,55.935588,-4.404099,0.00,0.00,0.00,-2.50,-2.80,-44.70,0,1,0,98,100,-6137,3536,16186,2885.50,0,P-GPS,1,0,0,0,0,0,0,1618154550722,4064,4056,4067,4053,0,0,27,,,,,,,0,0,0,25.00,-28.00,-447.00,0.00,0.00,-441.00,6,61.00,0.00,10.95,0.00,0.00,0.00,0,,,100,100,0,2,0,0,0,2,2,,,,,0.0,0.0,0
55.935597,-4.404104,6.10,6.00,0.00,1.10,6.20,6.20,3.10,1.13,15395,2021-04-11 15:22:30.812,2021-04-11 16:22:30.812,14,0,0,16.118,55.935588,-4.404099,0.00,0.00,0.00,-1.90,-3.20,-44.80,0,1,0,98,100,-6369,3534,16118,2885.50,0,P-GPS,1,0,0,0,0,0,0,1618154550812,4064,4056,4067,4053,0,0,27,,,,,,,0,0,0,19.00,-32.00,-448.00,0.00,0.00,-441.00,6,61.00,0.00,11.03,0.00,0.00,0.00,0,,,100,100,0,2,0,0,0,2,2,,,,,0.0,0.0,0
55.935597,-4.404104,6.10,6.00,0.00,1.13,6.20,6.20,3.10,1.13,15496,2021-04-11 15:22:30.913,2021-04-11 16:22:30.913,14,0,0,16.118,55.935588,-4.404099,0.00,0.00,0.00,-1.30,-3.20,-45.00,0,1,0,98,100,-6369,3534,16118,2885.50,0,P-GPS,1,0,0,0,0,0,0,1618154550913,4064,4056,4067,4053,0,0,27,,,,,,,0,0,0,13.00,-32.00,-450.00,0.00,0.00,-441.00,6,61.00,0.00,11.26,0.00,0.00,0.00,0,,,100,100,0,2,0,0,0,2,2,,,,,0.0,0.0,0
55.935597,-4.404104,6.10,6.00,0.00,1.14,6.20,6.20,3.10,1.14,15597,2021-04-11 15:22:31.014,2021-04-11 16:22:31.014,14,0,0,16.118,55.935588,-4.404099,0.00,0.00,0.00,-0.90,-3.00,-45.10,0,1,0,98,100,-6369,3534,16118,2885.50,0,P-GPS,1,0,0,0,0,0,0,1618154551014,4064,4056,4067,4053,0,0,27,,,,,,,0,0,0,9.00,-30.00,-451.00,0.00,0.00,-441.00,6,61.00,0.00,11.36,0.00,0.00,0.00,0,,,100,100,0,2,0,0,0,2,2,,,,,0.0,0.0,0
55.935598,-4.404104,6.10,6.00,0.00,1.16,6.20,6.20,3.10,1.16,15699,2021-04-11 15:22:31.116,2021-04-11 16:22:31.116,14,0,0,16.118,55.935588,-4.404099,0.00,0.00,0.00,-0.60,-2.80,-45.10,0,1,0,98,100,-6369,3534,16118,2885.50,0,P-GPS,1,0,0,0,0,0,0,1618154551116,4064,4056,4067,4053,0,0,27,,,,,,,0,0,0,6.00,-28.00,-451.00,0.00,0.00,-441.00,6,61.00,0.00,11.56,0.00,0.00,0.00,0,,,100,100,0,2,0,0,0,2,2,,,,,0.0,0.0,0
55.935598,-4.404104,6.10,6.00,0.00,1.16,6.20,6.20,3.10,1.16,15790,2021-04-11 15:22:31.207,2021-04-11 16:22:31.207,14,0,0,16.118,55.935588,-4.404099,0.00,0.00,0.00,-0.50,-2.50,-45.10,0,1,0,98,100,-6369,3534,16118,2885.50,0,P-GPS,1,0,0,0,0,0,0,1618154551207,4064,4056,4067,4053,0,0,27,,,,,,,0,0,0,5.00,-25.00,-451.00,0.00,0.00,-441.00,6,61.00,0.00,11.65,0.00,0.00,0.00,0,,,100,100,0,2,0,0,0,2,2,,,,,0.0,0.0,0
