latitude,longitude,altitude(m),ultrasonicHeight(m),speed(mps),distance(m),max_altitude(m),max_ascent(m),max_speed(mps),max_distance(m),time(millisecond),datetime(utc),datetime(local),satellites,pressure(Pa),temperature(F),voltage(v),home_latitude,home_longitude,velocityX(mps),velocityY(mps),velocityZ(mps),pitch(deg),roll(deg),yaw(deg),powerlevel,isflying,istakingphoto,remainPowerPercent,remainLifePercent,currentCurrent,currentElectricity,currentVoltage,batteryTemperature,dischargeCount,flightmode,isMotorsOn,isTakingVideo,Rc_elevator,Rc_aileron,Rc_throttle,Rc_rudder,Rc_gyro,timestamp,Battery_Cell1,Battery_Cell2,Battery_Cell3,Battery_Cell4,Battery_Cell5,Battery_Cell6,Dronetype,AppVersion,Planename,FlyControllerSerialNumber,RemoteSerialNumber,BatterySerialNumber,CENTER_BATTERY.productDate,CENTER_BATTERY.serialNo,CENTER_BATTERY.fullCapacity,CENTER_BATTERY.productDateRaw,pitchRaw,rollRaw,yawRaw,gimbalPitchRaw,gimbalRollRaw,gimbalYawRaw,flyState,altitudeRaw,speedRaw,distanceRaw,velocityXRaw,velocityYRaw,velocityZRaw,data_reuse,App_Tip,App_Warning,downlinkSignalQuality,uplinkSignalQuality,transmissionChannel,rcModeSwitch,rcHome,rcPause,rcTransform,rcJoystickMode,appMode,FlyControllerSerialNumber_legacy,RemoteSerialNumber_legacy,BatterySerialNumber_legacy,Battery2SerialNumber,frontAvoidDist,backAvoidDist,isBrakingToAvoid
55.937767,-4.406285,6.50,5.70,0.00,4.57,6.50,6.50,0.00,4.57,0,2021-04-17 12:21:48.279,2021-04-17 13:21:48.278,17,0,0,14.944,55.937778,-4.406356,0.00,0.00,0.00,-0.80,0.20,155.60,0,1,0,0,100,0,0,14944,3116.50,0,P-GPS,1,0,0,0,0,0,0,1618662108278,0,0,0,0,0,0,27,Litchi_4.18.0-g,,,,null,,0,0,0,8.00,2.00,1556.00,-900.00,0.00,1490.00,6,65.00,0.00,45.71,0.00,0.00,0.00,0,,,100,100,0,2,0,0,0,2,0,,,,null,0.0,0.0,0
55.937767,-4.406285,6.50,5.70,0.00,4.59,6.50,6.50,0.00,4.59,118,2021-04-17 12:21:48.396,2021-04-17 13:21:48.396,17,0,0,14.944,55.937778,-4.406356,0.00,0.00,0.00,-0.80,0.40,155.60,0,1,0,0,100,0,0,14944,3116.50,0,P-GPS,1,0,0,0,0,0,0,1618662108396,0,0,0,0,0,0,27,Litchi_4.18.0-g,,,,null,,0,0,0,8.00,4.00,1556.00,-900.00,0.00,1490.00,6,65.00,0.00,45.87,0.00,0.00,0.00,0,,,100,100,0,2,0,0,0,2,0,,,,null,0.0,0.0,0
55.937767,-4.406285,6.50,5.70,0.00,4.60,6.50,6.50,0.00,4.60,303,2021-04-17 12:21:48.581,2021-04-17 13:21:48.581,17,0,0,14.944,55.937778,-4.406356,0.00,0.00,0.00,-0.80,0.40,155.60,0,1,0,0,100,0,0,14944,3116.50,0,P-GPS,1,0,0,0,0,0,0,1618662108581,0,0,0,0,0,0,27,Litchi_4.18.0-g,CJTMAVIC,,,null,,0,0,0,8.00,4.00,1556.00,-900.00,0.00,1490.00,6,65.00,0.00,46.03,0.00,0.00,0.00,0,,,100,100,0,2,0,0,0,2,0,,,,null,0.0,0.0,0
55.937767,-4.406285,6.50,5.70,0.00,4.61,6.50,6.50,0.00,4.61,407,2021-04-17 12:21:48.685,2021-04-17 13:21:48.685,17,0,0,14.944,55.937778,-4.406356,0.00,0.00,0.00,-0.90,0.50,155.70,0,1,0,0,100,0,0,14944,3116.50,0,P-GPS,1,0,0,0,0,0,0,1618662108685,0,0,0,0,0,0,27,Litchi_4.18.0-g,CJTMAVIC,163DFAS001K45C,0VECFAK0072T52,0P2AFAL5340E87,,0,0,0,9.00,5.00,1557.00,-900.00,0.00,1490.00,6,65.00,0.00,46.06,0.00,0.00,0.00,0,,,100,100,0,2,0,0,0,2,0,,,,null,0.0,0.0,0
55.937767,-4.406285,6.50,5.70,0.00,4.61,6.50,6.50,0.00,4.61,507,2021-04-17 12:21:48.785,2021-04-17 13:21:48.785,17,0,0,14.944,55.937778,-4.406356,0.00,0.00,0.00,-1.10,0.50,155.70,0,1,0,0,100,0,0,14944,3116.50,0,P-GPS,1,0,0,0,0,0,0,1618662108785,0,0,0,0,0,0,27,,,,,,,0,0,0,11.00,5.00,1557.00,-900.00,0.00,1490.00,6,65.00,0.00,46.13,0.00,0.00,0.00,0,,,100,100,0,2,0,0,0,2,0,,,,,0.0,0.0,0
55.937767,-4.406284,6.50,5.70,0.00,4.62,6.50,6.50,0.00,4.62,603,2021-04-17 12:21:48.881,2021-04-17 13:21:48.881,17,0,0,14.944,55.937778,-4.406356,0.00,0.00,0.00,-1.20,0.50,155.70,0,1,0,0,100,0,0,14944,3116.50,0,P-GPS,1,0,0,0,0,0,0,1618662108881,0,0,0,0,0,0,27,,,,,,,0,0,0,12.00,5.00,1557.00,-900.00,0.00,1490.00,6,65.00,0.00,46.16,0.00,0.00,0.00,0,,,100,100,0,2,0,0,0,2,0,,,,,0.0,0.0,0
55.937767,-4.406284,6.50,5.70,0.00,4.62,6.50,6.50,0.00,4.62,708,2021-04-17 12:21:48.986,2021-04-17 13:21:48.986,17,0,0,14.944,55.937778,-4.406356,0.00,0.00,0.00,-1.20,0.40,155.60,0,1,0,0,100,0,0,14944,3116.50,0,P-GPS,1,0,0,0,0,0,0,1618662108986,0,0,0,0,0,0,27,,,,,,,0,0,0,12.00,4.00,1556.00,-900.00,0.00,1490.00,6,65.00,0.00,46.18,0.00,0.00,0.00,0,,,100,100,0,2,0,0,0,2,0,,,,,0.0,0.0,0
55.937767,-4.406284,6.50,5.70,0.00,4.62,6.50,6.50,0.00,4.62,803,2021-04-17 12:21:49.081,2021-04-17 13:21:49.081,17,0,0,14.944,55.937778,-4.406356,0.00,0.00,0.00,-1.20,0.50,155.70,0,1,0,0,100,0,0,14944,3116.50,0,P-GPS,1,0,0,0,0,0,0,1618662109081,0,0,0,0,0,0,27,,,,,,,0,0,0,12.00,5.00,1557.00,-900.00,0.00,1490.00,6,65.00,0.00,46.22,0.00,0.00,0.00,0,,,100,100,0,2,0,0,0,2,0,,,,,0.0,0.0,0
55.937767,-4.406284,6.50,5.70,0.00,4.63,6.50,6.50,0.00,4.63,903,2021-04-17 12:21:49.182,2021-04-17 13:21:49.181,17,0,0,14.944,55.937778,-4.406356,0.00,0.00,0.00,-1.20,0.70,155.70,0,1,0,0,100,0,0,14944,3116.50,0,P-GPS,1,0,0,0,0,0,0,1618662109181,0,0,0,0,0,0,27,,,,,,,0,0,0,12.00,7.00,1557.00,-900.00,0.00,1490.00,6,65.00,0.00,46.26,0.00,0.00,0.00,0,,,100,100,0,2,0,0,0,2,0,,,,,0.0,0.0,0
55.937767,-4.406284,6.50,5.70,0.00,4.63,6.50,6.50,0.00,4.63,1001,2021-04-17 12:21:49.279,2021-04-17 13:21:49.279,17,0,0,14.940,55.937778,-4.406356,0.00,0.00,0.00,-1.30,0.80,155.70,0,1,0,44,100,-7250,1556,14940,3116.50,0,P-GPS,1,0,0,0,0,0,0,1618662109279,0,0,0,0,0,0,27,,,,,,,0,0,0,13.00,8.00,1557.00,-900.00,0.00,1490.00,6,65.00,0.00,46.32,0.00,0.00,0.00,0,,,100,100,0,2,0,0,0,2,0,,,,,0.0,0.0,0
55.937767,-4.406284,6.50,5.70,0.00,4.64,6.50,6.50,0.00,4.64,1103,2021-04-17 12:21:49.381,2021-04-17 13:21:49.381,18,0,0,14.940,55.937778,-4.406356,0.00,0.00,0.00,-1.20,0.60,155.70,0,1,0,44,100,-7250,1556,14940,3116.50,0,P-GPS,1,0,0,0,0,0,0,1618662109381,0,0,0,0,0,0,27,,,,,,,0,0,0,12.00,6.00,1557.00,-899.00,0.00,1490.00,6,65.00,0.00,46.35,0.00,0.00,0.00,0,,,100,100,0,2,0,0,0,2,0,,,,,0.0,0.0,0
55.937767,-4.406284,6.50,5.70,0.00,4.64,6.50,6.50,0.00,4.64,1204,2021-04-17 12:21:49.482,2021-04-17 13:21:49.482,18,0,0,14.940,55.937778,-4.406356,0.00,0.00,0.00,-1.20,0.70,155.70,0,1,0,44,100,-7250,1556,14940,3116.50,0,P-GPS,1,0,0,0,0,0,0,1618662109482,0,0,0,0,0,0,27,,,,,,,0,0,0,12.00,7.00,1557.00,-900.00,0.00,1490.00,6,65.00,0.00,46.42,0.00,0.00,0.00,0,,,100,100,0,2,0,0,0,2,0,,,,,0.0,0.0,0
55.937767,-4.406284,6.50,5.70,0.00,4.65,6.50,6.50,0.00,4.65,1303,2021-04-17 12:21:49.581,2021-04-17 13:21:49.581,18,0,0,14.940,55.937778,-4.406356,0.00,0.00,0.00,-1.10,1.00,155.70,0,1,0,44,100,-7250,1556,14940,3116.50,0,P-GPS,1,0,0,0,0,0,0,1618662109581,0,0,0,0,0,0,27,,,,,,,0,0,0,11.00,10.00,1557.00,-899.00,0.00,1490.00,6,65.00,0.00,46.51,0.00,0.00,0.00,0,,,100,100,0,2,0,0,0,2,0,,,,,0.0,0.0,0
55.937767,-4.406284,6.50,5.70,0.00,4.66,6.50,6.50,0.00,4.66,1410,2021-04-17 12:21:49.688,2021-04-17 13:21:49.688,18,0,0,14.940,55.937778,-4.406356,0.00,0.00,0.00,-1.20,1.20,155.70,0,1,0,44,100,-7250,1556,14940,3116.50,0,P-GPS,1,0,0,0,0,0,0,1618662109688,0,0,0,0,0,0,27,,,,,,,0,0,0,12.00,12.00,1557.00,-900.00,0.00,1490.00,6,65.00,0.00,46.58,0.00,0.00,0.00,0,,,100,100,0,2,0,0,0,2,0,,,,,0.0,0.0,0
55.937767,-4.406284,6.50,5.70,0.00,4.66,6.50,6.50,0.00,4.66,1503,2021-04-17 12:21:49.781,2021-04-17 13:21:49.781,18,0,0,14.940,55.937778,-4.406356,0.00,0.00,0.00,-1.20,1.10,155.70,0,1,0,44,100,-7250,1556,14940,3116.50,0,P-GPS,1,0,0,0,0,0,0,1618662109781,0,0,0,0,0,0,27,,,,,,,0,0,0,12.00,11.00,1557.00,-900.00,0.00,1490.00,6,65.00,0.00,46.59,0.00,0.00,0.00,0,,,100,100,0,2,0,0,0,2,0,,,,,0.0,0.0,0
55.937767,-4.406284,6.50,5.70,0.00,4.66,6.50,6.50,0.00,4.66,1601,2021-04-17 12:21:49.879,2021-04-17 13:21:49.879,18,0,0,14.940,55.937778,-4.406356,0.00,0.00,0.00,-1.40,1.00,155.70,0,1,0,44,100,-7250,1556,14940,3116.50,0,P-GPS,1,0,0,0,0,0,0,1618662109879,0,0,0,0,0,0,27,,,,,,,0,0,0,14.00,10.00,1557.00,-900.00,0.00,1490.00,6,65.00,0.00,46.65,0.00,0.00,0.00,0,,,100,100,0,2,0,0,0,2,0,,,,,0.0,0.0,0
55.937767,-4.406284,6.50,5.70,0.00,4.67,6.50,6.50,0.00,4.67,1702,2021-04-17 12:21:49.980,2021-04-17 13:21:49.980,18,0,0,14.940,55.937778,-4.406356,0.00,0.00,0.00,-1.50,0.80,155.70,0,1,0,44,100,-7250,1556,14940,3116.50,0,P-GPS,1,0,0,0,0,0,0,1618662109980,0,0,0,0,0,0,27,,,,,,,0,0,0,15.00,8.00,1557.00,-900.00,0.00,1490.00,6,65.00,0.00,46.68,0.00,0.00,0.00,0,,,100,100,0,2,0,0,0,2,0,,,,,0.0,0.0,0
55.937767,-4.406284,6.50,5.70,0.00,4.67,6.50,6.50,0.00,4.67,1804,2021-04-17 12:21:50.082,2021-04-17 13:21:50.082,18,0,0,14.940,55.937778,-4.406356,0.00,0.00,0.00,-1.50,0.70,155.70,0,1,0,44,100,-7250,1556,14940,3116.50,0,P-GPS,1,0,0,0,0,0,0,1618662110082,0,0,0,0,0,0,27,,,,,,,0,0,0,15.00,7.00,1557.00,-900.00,0.00,1490.00,6,65.00,0.00,46.73,0.00,0.00,0.00,0,,,100,100,0,2,0,0,0,2,0,,,,,0.0,0.0,0
55.937767,-4.406283,6.50,5.70,0.00,4.68,6.50,6.50,0.00,4.68,1905,2021-04-17 12:21:50.184,2021-04-17 13:21:50.183,18,0,0,14.940,55.937778,-4.406356,0.00,0.00,0.00,-1.50,0.90,155.60,0,1,0,44,100,-7250,1556,14940,3116.50,0,P-GPS,1,0,0,0,0,0,0,1618662110183,0,0,0,0,0,0,27,,,,,,,0,0,0,15.00,9.00,1556.00,-899.00,0.00,1490.00,6,65.00,0.00,46.80,0.00,0.00,0.00,0,,,100,100,0,2,0,0,0,2,0,,,,,0.0,0.0,0
55.937767,-4.406283,6.50,5.60,0.00,4.69,6.50,6.50,0.00,4.69,2006,2021-04-17 12:21:50.284,2021-04-17 13:21:50.284,18,0,0,14.943,55.937778,-4.406356,0.00,0.00,0.00,-1.50,1.10,155.60,0,1,0,44,100,-7250,1553,14943,3116.50,0,P-GPS,1,0,0,0,0,0,0,1618662110284,0,0,0,0,0,0,27,,,,,,,0,0,0,15.00,11.00,1556.00,-900.00,0.00,1490.00,6,65.00,0.00,46.87,0.00,0.00,0.00,0,,,100,100,0,2,0,0,0,2,0,,,,,0.0,0.0,0
55.937767,-4.406283,6.50,5.60,0.00,4.68,6.50,6.50,0.00,4.69,2102,2021-04-17 12:21:50.380,2021-04-17 13:21:50.380,17,0,0,14.943,55.937778,-4.406356,0.00,0.00,0.00,-1.50,1.10,155.60,0,1,0,44,100,-7250,1553,14943,3116.50,0,P-GPS,1,0,0,0,0,0,0,1618662110380,0,0,0,0,0,0,27,,,,,,,0,0,0,15.00,11.00,1556.00,-899.00,0.00,1490.00,6,65.00,0.00,46.84,0.00,0.00,0.00,0,,,100,100,0,2,0,0,0,2,0,,,,,0.0,0.0,0
55.937767,-4.406283,6.50,5.60,0.00,4.69,6.50,6.50,0.00,4.69,2200,2021-04-17 12:21:50.478,2021-04-17 13:21:50.478,17,0,0,14.943,55.937778,-4.406356,0.00,0.00,0.00,-1.50,1.20,155.60,0,1,0,44,100,-7250,1553,14943,3116.50,0,P-GPS,1,0,0,0,0,0,0,1618662110478,0,0,0,0,0,0,27,,,,,,,0,0,0,15.00,12.00,1556.00,-900.00,0.00,1490.00,6,65.00,0.00,46.91,0.00,0.00,0.00,0,,,100,100,0,2,0,0,0,2,0,,,,,0.0,0.0,0
55.937767,-4.406283,6.50,5.60,0.00,4.70,6.50,6.50,0.00,4.70,2301,2021-04-17 12:21:50.579,2021-04-17 13:21:50.579,17,0,0,14.943,55.937778,-4.406356,0.00,0.00,0.00,-1.50,1.20,155.60,0,1,0,44,100,-7250,1553,14943,3116.50,0,P-GPS,1,0,0,0,0,0,0,1618662110579,0,0,0,0,0,0,27,,,,,,,0,0,0,15.00,12.00,1556.00,-900.00,0.00,1490.00,6,65.00,0.00,47.01,0.00,0.00,0.00,0,,,100,100,0,2,0,0,0,2,0,,,,,0.0,0.0,0
55.937767,-4.406283,6.50,5.60,0.00,4.71,6.50,6.50,0.00,4.71,2402,2021-04-17 12:21:50.681,2021-04-17 13:21:50.680,17,0,0,14.943,55.937778,-4.406356,0.00,0.00,0.00,-1.60,1.50,155.60,0,1,0,44,100,-7250,1553,14943,3116.50,0,P-GPS,1,0,0,0,0,0,0,1618662110680,0,0,0,0,0,0,27,,,,,,,0,0,0,16.00,15.00,1556.00,-899.00,0.00,1490.00,6,65.00,0.00,47.09,0.00,0.00,0.00,0,,,100,100,0,2,0,0,0,2,0,,,,,0.0,0.0,0
55.937767,-4.406283,6.50,5.60,0.00,4.71,6.50,6.50,0.00,4.71,2502,2021-04-17 12:21:50.781,2021-04-17 13:21:50.780,17,0,0,14.943,55.937778,-4.406356,0.00,0.00,0.00,-1.60,1.60,155.60,0,1,0,44,100,-7250,1553,14943,3116.50,0,P-GPS,1,0,0,0,0,0,0,1618662110780,0,0,0,0,0,0,27,,,,,,,0,0,0,16.00,16.00,1556.00,-900.00,0.00,1490.00,6,65.00,0.00,47.08,0.00,0.00,0.00,0,,,100,100,0,2,0,0,0,2,0,,,,,0.0,0.0,0
55.937767,-4.406283,6.50,5.60,0.00,4.72,6.50,6.50,0.00,4.72,2600,2021-04-17 12:21:50.878,2021-04-17 13:21:50.878,17,0,0,14.943,55.937778,-4.406356,0.00,0.00,0.00,-1.70,1.70,155.60,0,1,0,44,100,-7250,1553,14943,3116.50,0,P-GPS,1,0,0,0,0,0,0,1618662110878,0,0,0,0,0,0,27,,,,,,,0,0,0,17.00,17.00,1556.00,-900.00,0.00,1490.00,6,65.00,0.00,47.16,0.00,0.00,0.00,0,,,100,100,0,2,0,0,0,2,0,,,,,0.0,0.0,0
55.937767,-4.406283,6.50,5.60,0.00,4.71,6.50,6.50,0.00,4.72,2700,2021-04-17 12:21:50.978,2021-04-17 13:21:50.978,17,0,0,14.943,55.937778,-4.406356,0.00,0.00,0.00,-1.80,1.60,155.60,0,1,0,44,100,-7250,1553,14943,3116.50,0,P-GPS,1,0,0,0,0,0,0,1618662110978,0,0,0,0,0,0,27,,,,,,,0,0,0,18.00,16.00,1556.00,-900.00,0.00,1490.00,6,65.00,0.00,47.07,0.00,0.00,0.00,0,,,100,100,0,2,0,0,0,2,0,,,,,0.0,0.0,0
55.937767,-4.406283,6.50,5.60,0.00,4.71,6.50,6.50,0.00,4.72,2807,2021-04-17 12:21:51.085,2021-04-17 13:21:51.085,17,0,0,14.943,55.937778,-4.406356,0.00,0.00,0.00,-1.80,1.80,155.60,0,1,0,44,100,-7250,1553,14943,3116.50,0,P-GPS,1,0,0,0,0,0,0,1618662111085,0,0,0,0,0,0,27,,,,,,,0,0,0,18.00,18.00,1556.00,-899.00,0.00,1490.00,6,65.00,0.00,47.13,0.00,0.00,0.00,0,,,100,100,0,2,0,0,0,2,0,,,,,0.0,0.0,0
55.937767,-4.406283,6.50,5.60,0.00,4.72,6.50,6.50,0.00,4.72,2901,2021-04-17 12:21:51.179,2021-04-17 13:21:51.179,18,0,0,14.943,55.937778,-4.406356,0.00,0.00,0.00,-1.80,1.70,155.60,0,1,0,44,100,-7250,1553,14943,3116.50,0,P-GPS,1,0,0,0,0,0,0,1618662111179,0,0,0,0,0,0,27,,,,,,,0,0,0,18.00,17.00,1556.00,-899.00,0.00,1490.00,6,65.00,0.00,47.17,0.00,0.00,0.00,0,,,100,100,0,2,0,0,0,2,0,,,,,0.0,0.0,0
55.937767,-4.406283,6.50,5.60,0.00,4.72,6.50,6.50,0.00,4.72,3012,2021-04-17 12:21:51.290,2021-04-17 13:21:51.290,18,0,0,14.939,55.937778,-4.406356,0.00,0.00,0.00,-1.60,1.40,155.60,0,1,0,43,100,-7286,1551,14939,3116.50,0,P-GPS,1,0,0,0,44,0,0,1618662111290,0,0,0,0,0,0,27,,,,,,,0,0,0,16.00,14.00,1556.00,-899.00,0.00,1490.00,6,65.00,0.00,47.22,0.00,0.00,0.00,0,,,100,100,0,2,0,0,0,2,0,,,,,0.0,0.0,0
55.937767,-4.406283,6.50,5.60,0.00,4.71,6.50,6.50,0.00,4.72,3104,2021-04-17 12:21:51.382,2021-04-17 13:21:51.382,18,0,0,14.939,55.937778,-4.406356,0.00,0.00,0.00,-1.60,1.30,155.60,0,1,0,43,100,-7286,1551,14939,3116.50,0,P-GPS,1,0,0,0,248,0,0,1618662111382,0,0,0,0,0,0,27,,,,,,,0,0,0,16.00,13.00,1556.00,-899.00,0.00,1490.00,6,65.00,0.00,47.12,0.00,0.00,0.00,0,,,100,100,0,2,0,0,0,2,0,,,,,0.0,0.0,0
55.937767,-4.406283,6.50,5.60,0.00,4.71,6.50,6.50,0.00,4.72,3206,2021-04-17 12:21:51.484,2021-04-17 13:21:51.484,18,0,0,14.939,55.937778,-4.406356,0.00,0.00,0.00,-1.50,1.20,155.60,0,1,0,43,100,-7286,1551,14939,3116.50,0,P-GPS,1,0,0,0,345,0,0,1618662111484,0,0,0,0,0,0,27,,,,,,,0,0,0,15.00,12.00,1556.00,-900.00,0.00,1490.00,6,65.00,0.00,47.13,0.00,0.00,0.00,0,,,100,100,0,2,0,0,0,2,0,,,,,0.0,0.0,0
55.937767,-4.406283,6.50,5.60,0.40,4.71,6.50,6.50,0.40,4.72,3302,2021-04-17 12:21:51.581,2021-04-17 13:21:51.580,18,0,0,14.939,55.937778,-4.406356,0.00,0.00,-0.40,-1.40,0.80,155.60,0,1,0,43,100,-7286,1551,14939,3116.50,0,P-GPS,1,0,0,0,347,0,0,1618662111580,0,0,0,0,0,0,27,,,,,,,0,0,0,14.00,8.00,1556.00,-899.00,0.00,1490.00,6,65.00,4.00,47.11,0.00,0.00,-4.00,0,,,100,100,0,2,0,0,0,2,0,,,,,0.0,0.0,0
55.937767,-4.406283,6.50,5.70,0.70,4.71,6.50,6.50,0.70,4.72,3400,2021-04-17 12:21:51.678,2021-04-17 13:21:51.678,18,0,0,14.939,55.937778,-4.406356,0.00,0.00,-0.70,-1.50,0.50,155.60,0,1,0,43,100,-7286,1551,14939,3116.50,0,P-GPS,1,0,0,0,270,0,0,1618662111678,0,0,0,0,0,0,27,,,,,,,0,0,0,15.00,5.00,1556.00,-899.00,0.00,1490.00,6,65.00,7.00,47.10,0.00,0.00,-7.00,0,,,100,100,0,2,0,0,0,2,0,,,,,0.0,0.0,0
55.937767,-4.406283,6.60,5.80,0.70,4.70,6.60,6.60,0.70,4.72,3501,2021-04-17 12:21:51.779,2021-04-17 13:21:51.779,18,0,0,14.939,55.937778,-4.406356,0.00,0.00,-0.70,-1.90,0.10,155.60,0,1,0,43,100,-7286,1551,14939,3116.50,0,P-GPS,1,0,0,0,117,0,0,1618662111779,0,0,0,0,0,0,27,,,,,,,0,0,0,19.00,1.00,1556.00,-900.00,0.00,1490.00,6,66.00,7.00,47.02,0.00,0.00,-7.00,0,,,100,100,0,2,0,0,0,2,0,,,,,0.0,0.0,0
55.937767,-4.406283,6.70,5.80,0.50,4.70,6.70,6.70,0.70,4.72,3601,2021-04-17 12:21:51.879,2021-04-17 13:21:51.879,18,0,0,14.939,55.937778,-4.406356,0.00,0.00,-0.50,-2.30,-0.10,155.60,0,1,0,43,100,-7286,1551,14939,3116.50,0,P-GPS,1,0,0,0,0,0,0,1618662111879,0,0,0,0,0,0,27,,,,,,,0,0,0,23.00,-1.00,1556.00,-900.00,0.00,1490.00,6,67.00,5.00,47.00,0.00,0.00,-5.00,0,,,100,100,0,2,0,0,0,2,0,,,,,0.0,0.0,0
55.937767,-4.406283,6.70,5.90,0.20,4.70,6.70,6.70,0.70,4.72,3704,2021-04-17 12:21:51.983,2021-04-17 13:21:51.982,17,0,0,14.939,55.937778,-4.406356,0.00,0.00,-0.20,-2.40,0.00,155.50,0,1,0,43,100,-7286,1551,14939,3116.50,0,P-GPS,1,0,0,0,0,0,0,1618662111982,0,0,0,0,0,0,27,,,,,,,0,0,0,24.00,0.00,1555.00,-899.00,0.00,1490.00,6,67.00,2.00,46.98,0.00,0.00,-2.00,0,,,100,100,0,2,0,0,0,2,0,,,,,0.0,0.0,0
55.937767,-4.406283,6.80,5.90,0.10,4.70,6.80,6.80,0.70,4.72,3803,2021-04-17 12:21:52.081,2021-04-17 13:21:52.081,17,0,0,14.939,55.937778,-4.406356,0.00,0.00,-0.10,-2.20,0.10,155.50,0,1,0,43,100,-7286,1551,14939,3116.50,0,P-GPS,1,0,0,0,0,0,0,1618662112081,0,0,0,0,0,0,27,,,,,,,0,0,0,22.00,1.00,1555.00,-899.00,0.00,1490.00,6,68.00,1.00,46.98,0.00,0.00,-1.00,0,,,100,100,0,2,0,0,0,2,0,,,,,0.0,0.0,0
55.937767,-4.406283,6.80,5.90,0.00,4.69,6.80,6.80,0.70,4.72,3903,2021-04-17 12:21:52.181,2021-04-17 13:21:52.181,17,0,0,14.939,55.937778,-4.406356,0.00,0.00,0.00,-2.00,0.10,155.50,0,1,0,43,100,-7286,1551,14939,3116.50,0,P-GPS,1,0,0,0,0,0,0,1618662112181,0,0,0,0,0,0,27,,,,,,,0,0,0,20.00,1.00,1555.00,-899.00,0.00,1490.00,6,68.00,0.00,46.86,0.00,0.00,0.00,0,,,100,100,0,2,0,0,0,2,0,,,,,0.0,0.0,0
55.937767,-4.406283,6.80,5.90,0.00,4.69,6.80,6.80,0.70,4.72,4007,2021-04-17 12:21:52.285,2021-04-17 13:21:52.285,17,0,0,14.799,55.937778,-4.406356,0.00,0.00,0.00,-1.90,0.30,155.50,0,1,0,43,100,-8479,1547,14799,3117.50,0,P-GPS,1,0,172,0,0,0,0,1618662112285,0,0,0,0,0,0,27,,,,,,,0,0,0,19.00,3.00,1555.00,-899.00,0.00,1490.00,6,68.00,0.00,46.87,0.00,0.00,0.00,0,,,100,100,0,2,0,0,0,2,0,,,,,0.0,0.0,0
55.937767,-4.406283,6.80,5.90,0.00,4.69,6.80,6.80,0.70,4.72,4103,2021-04-17 12:21:52.381,2021-04-17 13:21:52.381,17,0,0,14.799,55.937778,-4.406356,0.00,0.00,0.00,-1.90,0.30,155.50,0,1,0,43,100,-8479,1547,14799,3117.50,0,P-GPS,1,0,254,0,0,0,0,1618662112381,0,0,0,0,0,0,27,,,,,,,0,0,0,19.00,3.00,1555.00,-900.00,0.00,1490.00,6,68.00,0.00,46.87,0.00,0.00,0.00,0,,,100,100,0,2,0,0,0,2,0,,,,,0.0,0.0,0
55.937767,-4.406283,6.80,5.90,0.00,4.70,6.80,6.80,0.70,4.72,4203,2021-04-17 12:21:52.481,2021-04-17 13:21:52.481,17,0,0,14.799,55.937778,-4.406356,0.00,0.00,0.00,-4.20,0.70,155.50,0,1,0,43,100,-8479,1547,14799,3117.50,0,P-GPS,1,0,332,0,0,0,0,1618662112481,0,0,0,0,0,0,27,,,,,,,0,0,0,42.00,7.00,1555.00,-899.00,0.00,1490.00,6,68.00,0.00,46.97,0.00,0.00,0.00,0,,,100,100,0,2,0,0,0,2,0,,,,,0.0,0.0,0
55.937767,-4.406283,6.80,5.90,0.00,4.70,6.80,6.80,0.70,4.72,4301,2021-04-17 12:21:52.579,2021-04-17 13:21:52.579,17,0,0,14.799,55.937778,-4.406356,0.00,0.00,0.00,-6.90,1.10,155.50,0,1,0,43,100,-8479,1547,14799,3117.50,0,P-GPS,1,0,411,0,0,0,0,1618662112579,0,0,0,0,0,0,27,,,,,,,0,0,0,69.00,11.00,1555.00,-899.00,0.00,1490.00,6,68.00,0.00,47.04,0.00,0.00,0.00,0,,,100,100,0,2,0,0,0,2,0,,,,,0.0,0.0,0
55.937767,-4.406283,6.80,5.90,0.10,4.72,6.80,6.80,0.70,4.72,4403,2021-04-17 12:21:52.681,2021-04-17 13:21:52.681,17,0,0,14.799,55.937778,-4.406356,-0.10,0.00,0.00,-10.50,1.40,155.50,0,1,0,43,100,-8479,1547,14799,3117.50,0,P-GPS,1,0,470,0,0,0,0,1618662112681,0,0,0,0,0,0,27,,,,,,,0,0,0,105.00,14.00,1555.00,-899.00,0.00,1490.00,6,68.00,1.00,47.16,-1.00,0.00,0.00,0,,,100,100,0,2,0,0,0,2,0,,,,,0.0,0.0,0
55.937767,-4.406282,6.80,5.90,0.22,4.74,6.80,6.80,0.70,4.74,4501,2021-04-17 12:21:52.779,2021-04-17 13:21:52.779,17,0,0,14.799,55.937778,-4.406356,-0.20,0.10,0.00,-14.40,1.40,155.40,0,1,0,43,100,-8479,1547,14799,3117.50,0,P-GPS,1,0,487,0,0,0,0,1618662112779,0,0,0,0,0,0,27,,,,,,,0,0,0,144.00,14.00,1554.00,-899.00,0.00,1490.00,6,68.00,2.24,47.38,-2.00,1.00,0.00,0,,,100,100,0,2,0,0,0,2,0,,,,,0.0,0.0,0
55.937767,-4.406282,6.80,5.90,0.45,4.77,6.80,6.80,0.70,4.77,4605,2021-04-17 12:21:52.883,2021-04-17 13:21:52.883,17,0,0,14.799,55.937778,-4.406356,-0.40,0.20,0.00,-17.90,1.00,155.30,0,1,0,43,100,-8479,1547,14799,3117.50,0,P-GPS,1,0,487,0,0,0,0,1618662112883,0,0,0,0,0,0,27,,,,,,,0,0,0,179.00,10.00,1553.00,-899.00,0.00,1490.00,6,68.00,4.47,47.70,-4.00,2.00,0.00,0,,,100,100,0,2,0,0,0,2,0,,,,,0.0,0.0,0
55.937766,-4.406281,6.80,5.90,0.76,4.83,6.80,6.80,0.76,4.83,4705,2021-04-17 12:21:52.983,2021-04-17 13:21:52.983,17,0,0,14.799,55.937778,-4.406356,-0.70,0.30,0.00,-19.80,1.20,155.30,0,1,0,43,100,-8479,1547,14799,3117.50,0,P-GPS,1,0,486,0,0,0,0,1618662112983,0,0,0,0,0,0,27,,,,,,,0,0,0,198.00,12.00,1553.00,-899.00,0.00,1490.00,6,68.00,7.62,48.28,-7.00,3.00,0.00,0,,,100,100,0,2,0,0,0,2,0,,,,,0.0,0.0,0
55.937765,-4.406281,6.80,5.90,0.98,4.90,6.80,6.80,0.98,4.90,4801,2021-04-17 12:21:53.079,2021-04-17 13:21:53.079,17,0,0,14.799,55.937778,-4.406356,-0.90,0.40,0.00,-20.60,1.50,155.30,0,1,0,43,100,-8479,1547,14799,3117.50,0,P-GPS,1,0,487,0,0,0,0,1618662113079,0,0,0,0,0,0,27,,,,,,,0,0,0,206.00,15.00,1553.00,-899.00,0.00,1490.00,6,68.00,9.85,49.00,-9.00,4.00,0.00,0,,,100,100,0,2,0,0,0,2,0,,,,,0.0,0.0,0
55.937764,-4.406280,6.80,5.80,1.34,5.00,6.80,6.80,1.34,5.00,4908,2021-04-17 12:21:53.186,2021-04-17 13:21:53.186,17,0,0,14.799,55.937778,-4.406356,-1.20,0.60,0.00,-21.00,1.70,155.30,0,1,0,43,100,-8479,1547,14799,3117.50,0,P-GPS,1,0,436,0,0,0,0,1618662113186,3741,3737,3732,3718,0,0,27,,,,,,,0,0,0,210.00,17.00,1553.00,-899.00,0.00,1490.00,6,68.00,13.42,49.97,-12.00,6.00,0.00,0,,,100,100,0,2,0,0,0,2,0,,,,,0.0,0.0,0
55.937763,-4.406278,6.80,5.80,1.66,5.11,6.80,6.80,1.66,5.11,5006,2021-04-17 12:21:53.284,2021-04-17 13:21:53.284,17,0,0,14.927,55.937778,-4.406356,-1.50,0.70,0.00,-19.50,1.60,155.40,0,1,0,43,100,-6801,1545,14927,3117.50,0,P-GPS,1,0,308,0,0,0,0,1618662113284,3741,3737,3732,3718,0,0,27,,,,,,,0,0,0,195.00,16.00,1554.00,-899.00,0.00,1490.00,6,68.00,16.55,51.12,-15.00,7.00,0.00,0,,,100,100,0,2,0,0,0,2,0,,,,,0.0,0.0,0
55.937761,-4.406277,6.80,5.80,1.88,5.25,6.80,6.80,1.88,5.25,5107,2021-04-17 12:21:53.385,2021-04-17 13:21:53.385,17,0,0,14.927,55.937778,-4.406356,-1.70,0.80,0.00,-14.90,1.20,155.50,0,1,0,43,100,-6801,1545,14927,3117.50,0,P-GPS,1,0,239,0,0,-254,0,1618662113385,3741,3737,3732,3718,0,0,27,,,,,,,0,0,0,149.00,12.00,1555.00,-899.00,0.00,1490.00,6,68.00,18.79,52.46,-17.00,8.00,0.00,0,,,100,100,0,2,0,0,0,2,0,,,,,0.0,0.0,0
55.937760,-4.406276,6.80,5.80,2.06,5.40,6.80,6.80,2.06,5.40,5206,2021-04-17 12:21:53.484,2021-04-17 13:21:53.484,17,0,0,14.927,55.937778,-4.406356,-1.90,0.80,0.00,-9.50,1.10,155.10,0,1,0,43,100,-6801,1545,14927,3117.50,0,P-GPS,1,0,211,0,0,-392,0,1618662113484,3741,3737,3732,3718,0,0,27,,,,,,,0,0,0,95.00,11.00,1551.00,-900.00,0.00,1489.00,6,68.00,20.62,54.01,-19.00,8.00,0.00,0,,,100,100,0,2,0,0,0,2,0,,,,,0.0,0.0,0
55.937758,-4.406274,6.80,5.90,2.19,5.55,6.80,6.80,2.19,5.55,5307,2021-04-17 12:21:53.586,2021-04-17 13:21:53.585,17,0,0,14.927,55.937778,-4.406356,-2.00,0.90,0.00,-5.50,1.00,153.90,0,1,0,43,100,-6801,1545,14927,3117.50,0,P-GPS,1,0,175,0,0,-148,0,1618662113585,3741,3737,3732,3718,0,0,27,,,,,,,0,0,0,55.00,10.00,1539.00,-900.00,0.00,1478.00,6,68.00,21.93,55.49,-20.00,9.00,0.00,0,,,100,100,0,2,0,0,0,2,0,,,,,0.0,0.0,0
55.937756,-4.406273,6.80,5.90,2.19,5.72,6.80,6.80,2.19,5.72,5402,2021-04-17 12:21:53.680,2021-04-17 13:21:53.680,17,0,0,14.927,55.937778,-4.406356,-2.00,0.90,0.00,-3.00,0.80,153.40,0,1,0,43,100,-6801,1545,14927,3117.50,0,P-GPS,1,0,113,0,0,0,0,1618662113680,3741,3737,3732,3718,0,0,27,,,,,,,0,0,0,30.00,8.00,1534.00,-899.00,0.00,1466.00,6,68.00,21.93,57.22,-20.00,9.00,0.00,0,,,100,100,0,2,0,0,0,2,0,,,,,0.0,0.0,0
55.937754,-4.406272,6.80,5.90,2.19,5.89,6.80,6.80,2.19,5.89,5516,2021-04-17 12:21:53.794,2021-04-17 13:21:53.794,17,0,0,14.927,55.937778,-4.406356,-2.00,0.90,0.00,-1.20,0.60,153.30,0,1,0,43,100,-6801,1545,14927,3117.50,0,P-GPS,1,0,49,0,0,-39,0,1618662113794,3741,3737,3732,3718,0,0,27,,,,,,,0,0,0,12.00,6.00,1533.00,-899.00,0.00,1465.00,6,68.00,21.93,58.94,-20.00,9.00,0.00,0,,,100,100,0,2,0,0,0,2,0,,,,,0.0,0.0,0
55.937752,-4.406270,6.80,5.90,2.19,6.07,6.80,6.80,2.19,6.07,5620,2021-04-17 12:21:53.898,2021-04-17 13:21:53.898,17,0,0,14.927,55.937778,-4.406356,-2.00,0.90,0.00,0.00,0.70,152.90,0,1,0,43,100,-6801,1545,14927,3117.50,0,P-GPS,1,0,5,0,0,-660,0,1618662113898,3741,3737,3732,3718,0,0,27,,,,,,,0,0,0,-0.00,7.00,1529.00,-899.00,0.00,1465.00,6,68.00,21.93,60.72,-20.00,9.00,0.00,0,,,100,100,0,2,0,0,0,2,0,,,,,0.0,0.0,0
55.937750,-4.406269,6.80,5.90,2.10,6.26,6.80,6.80,2.19,6.26,5709,2021-04-17 12:21:53.987,2021-04-17 13:21:53.987,17,0,0,14.927,55.937778,-4.406356,-1.90,0.90,0.00,5.20,0.10,148.90,0,1,0,43,100,-6801,1545,14927,3117.50,0,P-GPS,1,0,0,0,0,-660,0,1618662113987,3741,3737,3732,3718,0,0,27,,,,,,,0,0,0,-52.00,1.00,1489.00,-899.00,0.00,1442.00,6,68.00,21.02,62.56,-19.00,9.00,0.00,0,,,100,100,0,2,0,0,0,2,0,,,,,0.0,0.0,0
55.937749,-4.406267,6.80,5.90,1.97,6.43,6.80,6.80,2.19,6.43,5804,2021-04-17 12:21:54.082,2021-04-17 13:21:54.082,17,0,0,14.927,55.937778,-4.406356,-1.80,0.80,0.00,12.30,-1.70,144.30,0,1,0,43,100,-6801,1545,14927,3117.50,0,P-GPS,1,0,0,0,0,-3,0,1618662114082,3741,3737,3732,3718,0,0,27,,,,,,,0,0,0,-123.00,-17.00,1443.00,-900.00,0.00,1385.00,6,68.00,19.70,64.26,-18.00,8.00,0.00,0,,,100,100,0,2,0,0,0,2,0,,,,,0.0,0.0,0
55.937747,-4.406266,6.80,6.00,1.66,6.58,6.80,6.80,2.19,6.58,5904,2021-04-17 12:21:54.182,2021-04-17 13:21:54.182,17,0,0,14.927,55.937778,-4.406356,-1.50,0.70,0.00,15.20,-2.70,143.20,0,1,0,43,100,-6801,1545,14927,3117.50,0,P-GPS,1,0,0,0,0,0,0,1618662114182,3741,3737,3732,3718,0,0,27,,,,,,,0,0,0,-152.00,-27.00,1432.00,-900.00,0.00,1360.00,6,68.00,16.55,65.79,-15.00,7.00,0.00,0,,,100,100,0,2,0,0,0,2,0,,,,,0.0,0.0,0
55.937746,-4.406265,6.80,6.00,1.34,6.71,6.80,6.80,2.19,6.71,6010,2021-04-17 12:21:54.288,2021-04-17 13:21:54.288,17,0,0,14.931,55.937778,-4.406356,-1.20,0.60,0.00,15.10,-2.70,142.80,0,1,0,43,100,-7944,1542,14931,3117.50,0,P-GPS,1,0,0,0,0,0,0,1618662114288,3741,3737,3732,3718,0,0,27,,,,,,,0,0,0,-151.00,-27.00,1428.00,-900.00,0.00,1359.00,6,68.00,13.42,67.07,-12.00,6.00,0.00,0,,,100,100,0,2,0,0,0,2,0,,,,,0.0,0.0,0
55.937745,-4.406264,6.80,6.00,1.03,6.83,6.80,6.80,2.19,6.83,6103,2021-04-17 12:21:54.381,2021-04-17 13:21:54.381,18,0,0,14.931,55.937778,-4.406356,-0.90,0.50,0.00,13.00,-1.70,142.70,0,1,0,43,100,-7944,1542,14931,3117.50,0,P-GPS,1,0,0,0,0,0,0,1618662114381,3741,3737,3732,3718,0,0,27,,,,,,,0,0,0,-130.00,-17.00,1427.00,-900.00,0.00,1359.00,6,68.00,10.30,68.26,-9.00,5.00,0.00,0,,,100,100,0,2,0,0,0,2,0,,,,,0.0,0.0,0
55.937744,-4.406263,6.80,6.00,0.81,6.91,6.80,6.80,2.19,6.91,6208,2021-04-17 12:21:54.487,2021-04-17 13:21:54.486,18,0,0,14.931,55.937778,-4.406356,-0.70,0.40,0.00,10.50,-0.60,142.70,0,1,0,43,100,-7944,1542,14931,3117.50,0,P-GPS,1,0,0,0,0,0,0,1618662114486,3741,3737,3732,3718,0,0,27,,,,,,,0,0,0,-105.00,-6.00,1427.00,-899.00,0.00,1359.00,6,68.00,8.06,69.09,-7.00,4.00,0.00,0,,,100,100,0,2,0,0,0,2,0,,,,,0.0,0.0,0
55.937743,-4.406263,6.80,6.10,0.58,6.98,6.80,6.80,2.19,6.98,6307,2021-04-17 12:21:54.586,2021-04-17 13:21:54.585,18,0,0,14.931,55.937778,-4.406356,-0.50,0.30,0.00,8.10,-0.10,142.70,0,1,0,43,100,-7944,1542,14931,3117.50,0,P-GPS,1,0,0,0,0,0,0,1618662114585,3741,3737,3732,3718,0,0,27,,,,,,,0,0,0,-81.00,-1.00,1427.00,-899.00,0.00,1359.00,6,68.00,5.83,69.82,-5.00,3.00,0.00,0,,,100,100,0,2,0,0,0,2,0,,,,,0.0,0.0,0
55.937743,-4.406262,6.80,6.10,0.45,7.03,6.80,6.80,2.19,7.03,6403,2021-04-17 12:21:54.681,2021-04-17 13:21:54.681,18,0,0,14.931,55.937778,-4.406356,-0.40,0.20,0.00,6.10,0.10,142.60,0,1,0,43,100,-7944,1542,14931,3117.50,0,P-GPS,1,0,0,0,0,0,0,1618662114681,3741,3737,3732,3718,0,0,27,,,,,,,0,0,0,-61.00,1.00,1426.00,-900.00,0.00,1359.00,6,68.00,4.47,70.31,-4.00,2.00,0.00,0,,,100,100,0,2,0,0,0,2,0,,,,,0.0,0.0,0
55.937742,-4.406262,6.80,6.10,0.32,7.08,6.80,6.80,2.19,7.08,6503,2021-04-17 12:21:54.781,2021-04-17 13:21:54.781,17,0,0,14.931,55.937778,-4.406356,-0.30,0.10,0.00,4.60,0.20,142.60,0,1,0,43,100,-7944,1542,14931,3117.50,0,P-GPS,1,0,0,0,0,0,0,1618662114781,3741,3737,3732,3718,0,0,27,,,,,,,0,0,0,-46.00,2.00,1426.00,-900.00,0.00,1359.00,6,68.00,3.16,70.78,-3.00,1.00,0.00,0,,,100,100,0,2,0,0,0,2,0,,,,,0.0,0.0,0
55.937742,-4.406262,6.80,6.10,0.22,7.11,6.80,6.80,2.19,7.11,6612,2021-04-17 12:21:54.890,2021-04-17 13:21:54.890,17,0,0,14.931,55.937778,-4.406356,-0.20,0.10,0.00,3.40,0.30,142.60,0,1,0,43,100,-7944,1542,14931,3117.50,0,P-GPS,1,0,0,0,0,0,0,1618662114890,3741,3737,3732,3718,0,0,27,,,,,,,0,0,0,-34.00,3.00,1426.00,-900.00,0.00,1359.00,6,68.00,2.24,71.06,-2.00,1.00,0.00,0,,,100,100,0,2,0,0,0,2,0,,,,,0.0,0.0,0
55.937742,-4.406261,6.80,6.10,0.10,7.12,6.80,6.80,2.19,7.12,6704,2021-04-17 12:21:54.983,2021-04-17 13:21:54.983,17,0,0,14.931,55.937778,-4.406356,-0.10,0.00,0.00,2.40,0.40,142.50,0,1,0,43,100,-7944,1542,14931,3117.50,0,P-GPS,1,0,0,0,0,0,0,1618662114982,3741,3737,3732,3718,0,0,27,,,,,,,0,0,0,-24.00,4.00,1425.00,-900.00,0.00,1359.00,6,68.00,1.00,71.23,-1.00,0.00,0.00,0,,,100,100,0,2,0,0,0,2,0,,,,,0.0,0.0,0
55.937742,-4.406261,6.80,6.10,0.10,7.14,6.80,6.80,2.19,7.14,6814,2021-04-17 12:21:55.092,2021-04-17 13:21:55.092,17,0,0,14.931,55.937778,-4.406356,-0.10,0.00,0.00,1.60,0.50,142.50,0,1,0,43,100,-7944,1542,14931,3117.50,0,P-GPS,1,0,0,0,0,0,0,1618662115092,3741,3737,3732,3718,0,0,27,,,,,,,0,0,0,-16.00,5.00,1425.00,-900.00,0.00,1359.00,6,68.00,1.00,71.37,-1.00,0.00,0.00,0,,,100,100,0,2,0,0,0,2,0,,,,,0.0,0.0,0
55.937742,-4.406261,6.80,6.10,0.00,7.14,6.80,6.80,2.19,7.14,6913,2021-04-17 12:21:55.191,2021-04-17 13:21:55.191,17,0,0,14.931,55.937778,-4.406356,0.00,0.00,0.00,0.90,0.60,142.50,0,1,0,43,100,-7944,1542,14931,3117.50,0,P-GPS,1,0,0,0,0,0,0,1618662115191,3741,3737,3732,3718,0,0,27,,,,,,,0,0,0,-9.00,6.00,1425.00,-900.00,0.00,1359.00,6,68.00,0.00,71.37,0.00,0.00,0.00,0,,,100,100,0,2,0,0,0,2,0,,,,,0.0,0.0,0
55.937742,-4.406261,6.80,6.10,0.00,7.14,6.80,6.80,2.19,7.14,7009,2021-04-17 12:21:55.287,2021-04-17 13:21:55.287,17,0,0,14.920,55.937778,-4.406356,0.00,0.00,0.00,0.50,0.70,142.50,0,1,0,43,100,-7493,1540,14920,3117.50,0,P-GPS,1,0,0,0,0,0,0,1618662115287,3741,3737,3732,3718,0,0,27,,,,,,,0,0,0,-5.00,7.00,1425.00,-900.00,0.00,1359.00,6,68.00,0.00,71.44,0.00,0.00,0.00,0,,,100,100,0,2,0,0,0,2,0,,,,,0.0,0.0,0
55.937742,-4.406261,6.80,6.10,0.00,7.15,6.80,6.80,2.19,7.15,7108,2021-04-17 12:21:55.387,2021-04-17 13:21:55.386,17,0,0,14.920,55.937778,-4.406356,0.00,0.00,0.00,0.20,0.80,142.50,0,1,0,43,100,-7493,1540,14920,3117.50,0,P-GPS,1,0,0,0,0,0,0,1618662115386,3741,3737,3732,3718,0,0,27,,,,,,,0,0,0,-2.00,8.00,1425.00,-900.00,0.00,1359.00,6,68.00,0.00,71.49,0.00,0.00,0.00,0,,,100,100,0,2,0,0,0,2,0,,,,,0.0,0.0,0
55.937742,-4.406261,6.80,6.10,0.00,7.15,6.80,6.80,2.19,7.15,7205,2021-04-17 12:21:55.483,2021-04-17 13:21:55.483,17,0,0,14.920,55.937778,-4.406356,0.00,0.00,0.00,0.00,0.80,142.50,0,1,0,43,100,-7493,1540,14920,3117.50,0,P-GPS,1,0,0,0,0,0,0,1618662115483,3741,3737,3732,3718,0,0,27,,,,,,,0,0,0,-0.00,8.00,1425.00,-899.00,0.00,1359.00,6,68.00,0.00,71.53,0.00,0.00,0.00,0,,,100,100,0,2,0,0,0,2,0,,,,,0.0,0.0,0
55.937742,-4.406261,6.80,6.10,0.00,7.15,6.80,6.80,2.19,7.15,7319,2021-04-17 12:21:55.597,2021-04-17 13:21:55.597,17,0,0,14.920,55.937778,-4.406356,0.00,0.00,0.00,-0.20,0.80,142.50,0,1,0,43,100,-7493,1540,14920,3117.50,0,P-GPS,1,0,0,0,0,0,0,1618662115597,3741,3737,3732,3718,0,0,27,,,,,,,0,0,0,2.00,8.00,1425.00,-900.00,0.00,1359.00,6,68.00,0.00,71.49,0.00,0.00,0.00,0,,,100,100,0,2,0,0,0,2,0,,,,,0.0,0.0,0
55.937742,-4.406261,6.80,6.10,0.00,7.15,6.80,6.80,2.19,7.15,7420,2021-04-17 12:21:55.698,2021-04-17 13:21:55.698,17,0,0,14.920,55.937778,-4.406356,0.00,0.00,0.00,-0.40,0.90,142.50,0,1,0,43,100,-7493,1540,14920,3117.50,0,P-GPS,1,0,0,0,0,0,0,1618662115698,3741,3737,3732,3718,0,0,27,,,,,,,0,0,0,4.00,9.00,1425.00,-900.00,0.00,1359.00,6,68.00,0.00,71.51,0.00,0.00,0.00,0,,,100,100,0,2,0,0,0,2,0,,,,,0.0,0.0,0
55.937742,-4.406261,6.80,6.10,0.00,7.14,6.80,6.80,2.19,7.15,7511,2021-04-17 12:21:55.789,2021-04-17 13:21:55.789,17,0,0,14.920,55.937778,-4.406356,0.00,0.00,0.00,-0.50,0.90,142.50,0,1,0,43,100,-7493,1540,14920,3117.50,0,P-GPS,1,0,0,0,0,0,0,1618662115789,3741,3737,3732,3718,0,0,27,,,,,,,0,0,0,5.00,9.00,1425.00,-899.00,0.00,1359.00,6,68.00,0.00,71.37,0.00,0.00,0.00,0,,,100,100,0,2,0,0,0,2,0,,,,,0.0,0.0,0
55.937742,-4.406261,6.80,6.10,0.00,7.14,6.80,6.80,2.19,7.15,7604,2021-04-17 12:21:55.882,2021-04-17 13:21:55.882,17,0,0,14.920,55.937778,-4.406356,0.00,0.00,0.00,-0.60,0.80,142.50,0,1,0,43,100,-7493,1540,14920,3117.50,0,P-GPS,1,0,0,0,0,0,0,1618662115882,3741,3737,3732,3718,0,0,27,,,,,,,0,0,0,6.00,8.00,1425.00,-899.00,0.00,1359.00,6,68.00,0.00,71.37,0.00,0.00,0.00,0,,,100,100,0,2,0,0,0,2,0,,,,,0.0,0.0,0
55.937742,-4.406261,6.80,6.10,0.00,7.13,6.80,6.80,2.19,7.15,7710,2021-04-17 12:21:55.988,2021-04-17 13:21:55.988,17,0,0,14.920,55.937778,-4.406356,0.00,0.00,0.00,-0.60,0.90,142.50,0,1,0,43,100,-7493,1540,14920,3117.50,0,P-GPS,1,0,0,0,0,0,0,1618662115988,3741,3737,3732,3718,0,0,27,,,,,,,0,0,0,6.00,9.00,1425.00,-899.00,0.00,1359.00,6,68.00,0.00,71.33,0.00,0.00,0.00,0,,,100,100,0,2,0,0,0,2,0,,,,,0.0,0.0,0
55.937742,-4.406261,6.80,6.10,0.00,7.13,6.80,6.80,2.19,7.15,7803,2021-04-17 12:21:56.082,2021-04-17 13:21:56.081,17,0,0,14.920,55.937778,-4.406356,0.00,0.00,0.00,-0.70,0.70,142.50,0,1,0,43,100,-7493,1540,14920,3117.50,0,P-GPS,1,0,0,0,0,0,0,1618662116081,3741,3737,3732,3718,0,0,27,,,,,,,0,0,0,7.00,7.00,1425.00,-900.00,0.00,1359.00,6,68.00,0.00,71.33,0.00,0.00,0.00,0,,,100,100,0,2,0,0,0,2,0,,,,,0.0,0.0,0
55.937743,-4.406261,6.80,6.10,0.00,7.12,6.80,6.80,2.19,7.15,7910,2021-04-17 12:21:56.188,2021-04-17 13:21:56.188,17,0,0,14.920,55.937778,-4.406356,0.00,0.00,0.00,-0.60,0.60,142.50,0,1,0,43,100,-7493,1540,14920,3117.50,0,P-GPS,1,0,0,0,0,0,0,1618662116188,3741,3737,3732,3718,0,0,27,,,,,,,0,0,0,6.00,6.00,1425.00,-899.00,0.00,1359.00,6,68.00,0.00,71.24,0.00,0.00,0.00,0,,,100,100,0,2,0,0,0,2,0,,,,,0.0,0.0,0
55.937743,-4.406261,6.80,6.10,0.00,7.12,6.80,6.80,2.19,7.15,8009,2021-04-17 12:21:56.287,2021-04-17 13:21:56.287,17,0,0,14.920,55.937778,-4.406356,0.00,0.00,0.00,-0.40,0.60,142.40,0,1,0,43,100,-7493,1540,14920,3117.50,0,P-GPS,1,0,0,0,0,0,0,1618662116287,3741,3737,3732,3718,0,0,27,,,,,,,0,0,0,4.00,6.00,1424.00,-899.00,0.00,1359.00,6,68.00,0.00,71.24,0.00,0.00,0.00,0,,,100,100,0,2,0,0,0,2,0,,,,,0.0,0.0,0
55.937743,-4.406261,6.80,6.10,0.00,7.12,6.80,6.80,2.19,7.15,8098,2021-04-17 12:21:56.376,2021-04-17 13:21:56.376,17,0,0,14.920,55.937778,-4.406356,0.00,0.00,0.00,-0.40,0.60,142.40,0,1,0,43,100,-7493,1540,14920,3117.50,0,P-GPS,1,0,0,0,0,0,0,1618662116376,3741,3737,3732,3718,0,0,27,,,,,,,0,0,0,4.00,6.00,1424.00,-899.00,0.00,1359.00,6,68.00,0.00,71.24,0.00,0.00,0.00,0,,,100,100,0,2,0,0,0,2,0,,,,,0.0,0.0,0
55.937743,-4.406261,6.80,6.10,0.00,7.12,6.80,6.80,2.19,7.15,8210,2021-04-17 12:21:56.488,2021-04-17 13:21:56.488,17,0,0,14.920,55.937778,-4.406356,0.00,0.00,0.00,-0.30,0.90,142.50,0,1,0,43,100,-7493,1540,14920,3117.50,0,P-GPS,1,0,0,0,0,0,0,1618662116488,3741,3737,3732,3718,0,0,27,,,,,,,0,0,0,3.00,9.00,1425.00,-899.00,0.00,1359.00,6,68.00,0.00,71.20,0.00,0.00,0.00,0,,,100,100,0,2,0,0,0,2,0,,,,,0.0,0.0,0
55.937743,-4.406261,6.80,6.10,0.00,7.11,6.80,6.80,2.19,7.15,8316,2021-04-17 12:21:56.594,2021-04-17 13:21:56.594,17,0,0,14.920,55.937778,-4.406356,0.00,0.00,0.00,-0.30,1.20,142.50,0,1,0,43,100,-7493,1540,14920,3117.50,0,P-GPS,1,0,0,0,0,0,0,1618662116594,3741,3737,3732,3718,0,0,27,,,,,,,0,0,0,3.00,12.00,1425.00,-900.00,0.00,1359.00,6,68.00,0.00,71.14,0.00,0.00,0.00,0,,,100,100,0,2,0,0,0,2,0,,,,,0.0,0.0,0
55.937743,-4.406261,6.80,6.00,0.00,7.11,6.80,6.80,2.19,7.15,8404,2021-04-17 12:21:56.683,2021-04-17 13:21:56.682,17,0,0,14.920,55.937778,-4.406356,0.00,0.00,0.00,-0.30,1.10,142.50,0,1,0,43,100,-7493,1540,14920,3117.50,0,P-GPS,1,0,0,0,0,0,0,1618662116682,3741,3737,3732,3718,0,0,27,,,,,,,0,0,0,3.00,11.00,1425.00,-899.00,0.00,1359.00,6,68.00,0.00,71.14,0.00,0.00,0.00,0,,,100,100,0,2,0,0,0,2,0,,,,,0.0,0.0,0
55.937743,-4.406261,6.80,6.00,0.00,7.11,6.80,6.80,2.19,7.15,8506,2021-04-17 12:21:56.784,2021-04-17 13:21:56.784,17,0,0,14.920,55.937778,-4.406356,0.00,0.00,0.00,-0.40,0.90,142.50,0,1,0,43,100,-7493,1540,14920,3117.50,0,P-GPS,1,0,0,0,0,0,0,1618662116784,3741,3737,3732,3718,0,0,27,,,,,,,0,0,0,4.00,9.00,1425.00,-900.00,0.00,1359.00,6,68.00,0.00,71.13,0.00,0.00,0.00,0,,,100,100,0,2,0,0,0,2,0,,,,,0.0,0.0,0
55.937743,-4.406261,6.80,6.00,0.00,7.11,6.80,6.80,2.19,7.15,8605,2021-04-17 12:21:56.883,2021-04-17 13:21:56.883,17,0,0,14.920,55.937778,-4.406356,0.00,0.00,0.00,-0.40,0.80,142.50,0,1,0,43,100,-7493,1540,14920,3117.50,0,P-GPS,1,0,0,0,0,0,0,1618662116883,3741,3737,3732,3718,0,0,27,,,,,,,0,0,0,4.00,8.00,1425.00,-899.00,0.00,1359.00,6,68.00,0.00,71.13,0.00,0.00,0.00,0,,,100,100,0,2,0,0,0,2,0,,,,,0.0,0.0,0
55.937743,-4.406261,6.80,6.00,0.00,7.10,6.80,6.80,2.19,7.15,8712,2021-04-17 12:21:56.990,2021-04-17 13:21:56.990,17,0,0,14.920,55.937778,-4.406356,0.00,0.00,0.00,-0.30,0.80,142.50,0,1,0,43,100,-7493,1540,14920,3117.50,0,P-GPS,1,0,0,0,0,0,0,1618662116990,3741,3737,3732,3718,0,0,27,,,,,,,0,0,0,3.00,8.00,1425.00,-899.00,0.00,1359.00,6,68.00,0.00,71.04,0.00,0.00,0.00,0,,,100,100,0,2,0,0,0,2,0,,,,,0.0,0.0,0
55.937743,-4.406261,6.70,6.00,0.00,7.10,6.80,6.80,2.19,7.15,8808,2021-04-17 12:21:57.086,2021-04-17 13:21:57.086,17,0,0,14.920,55.937778,-4.406356,0.00,0.00,0.00,-0.20,0.90,142.50,0,1,0,43,100,-7493,1540,14920,3117.50,0,P-GPS,1,0,0,0,0,0,0,1618662117086,3741,3737,3732,3718,0,0,27,,,,,,,0,0,0,2.00,9.00,1425.00,-899.00,0.00,1359.00,6,67.00,0.00,71.04,0.00,0.00,0.00,0,,,100,100,0,2,0,0,0,2,0,,,,,0.0,0.0,0
55.937743,-4.406261,6.70,6.00,0.00,7.11,6.80,6.80,2.19,7.15,8909,2021-04-17 12:21:57.187,2021-04-17 13:21:57.187,17,0,0,14.920,55.937778,-4.406356,0.00,0.00,0.00,-0.30,0.90,142.50,0,1,0,43,100,-7493,1540,14920,3117.50,0,P-GPS,1,0,0,0,0,0,0,1618662117187,3741,3737,3732,3718,0,0,27,,,,,,,0,0,0,3.00,9.00,1425.00,-899.00,0.00,1359.00,6,67.00,0.00,71.13,0.00,0.00,0.00,0,,,100,100,0,2,0,0,0,2,0,,,,,0.0,0.0,0
55.937743,-4.406260,6.70,6.00,0.00,7.11,6.80,6.80,2.19,7.15,9013,2021-04-17 12:21:57.291,2021-04-17 13:21:57.291,17,0,0,14.920,55.937778,-4.406356,0.00,0.00,0.00,-0.40,1.10,142.50,0,1,0,43,100,-7502,1536,14920,3117.50,0,P-GPS,1,0,0,0,0,0,0,1618662117291,3741,3737,3732,3718,0,0,27,,,,,,,0,0,0,4.00,11.00,1425.00,-899.00,0.00,1359.00,6,67.00,0.00,71.14,0.00,0.00,0.00,0,,,100,100,0,2,0,0,0,2,0,,,,,0.0,0.0,0
55.937743,-4.406260,6.70,6.00,0.00,7.11,6.80,6.80,2.19,7.15,9106,2021-04-17 12:21:57.384,2021-04-17 13:21:57.384,17,0,0,14.920,55.937778,-4.406356,0.00,0.00,0.00,-0.50,1.30,142.50,0,1,0,43,100,-7502,1536,14920,3117.50,0,P-GPS,1,0,0,0,0,0,0,1618662117384,3741,3737,3732,3718,0,0,27,,,,,,,0,0,0,5.00,13.00,1425.00,-899.00,0.00,1359.00,6,67.00,0.00,71.12,0.00,0.00,0.00,0,,,100,100,0,2,0,0,0,2,0,,,,,0.0,0.0,0
55.937743,-4.406260,6.70,6.00,0.00,7.11,6.80,6.80,2.19,7.15,9205,2021-04-17 12:21:57.483,2021-04-17 13:21:57.483,17,0,0,14.920,55.937778,-4.406356,0.00,0.00,0.00,-0.40,1.20,142.60,0,1,0,43,100,-7502,1536,14920,3117.50,0,P-GPS,1,0,0,0,0,0,0,1618662117483,3741,3737,3732,3718,0,0,27,,,,,,,0,0,0,4.00,12.00,1426.00,-899.00,0.00,1359.00,6,67.00,0.00,71.12,0.00,0.00,0.00,0,,,100,100,0,2,0,0,0,2,0,,,,,0.0,0.0,0
55.937743,-4.406260,6.70,6.00,0.00,7.10,6.80,6.80,2.19,7.15,9308,2021-04-17 12:21:57.586,2021-04-17 13:21:57.586,17,0,0,14.920,55.937778,-4.406356,0.00,0.00,0.00,-0.40,1.20,142.60,0,1,0,43,100,-7502,1536,14920,3117.50,0,P-GPS,1,0,0,0,0,0,0,1618662117586,3741,3737,3732,3718,0,0,27,,,,,,,0,0,0,4.00,12.00,1426.00,-899.00,0.00,1359.00,6,67.00,0.00,71.03,0.00,0.00,0.00,0,,,100,100,0,2,0,0,0,2,0,,,,,0.0,0.0,0
55.937743,-4.406260,6.70,6.00,0.00,7.10,6.80,6.80,2.19,7.15,9408,2021-04-17 12:21:57.686,2021-04-17 13:21:57.686,17,0,0,14.920,55.937778,-4.406356,0.00,0.00,0.00,-0.40,1.20,142.60,0,1,0,43,100,-7502,1536,14920,3117.50,0,P-GPS,1,0,0,0,0,0,0,1618662117686,3741,3737,3732,3718,0,0,27,,,,,,,0,0,0,4.00,12.00,1426.00,-899.00,0.00,1359.00,6,67.00,0.00,71.03,0.00,0.00,0.00,0,,,100,100,0,2,0,0,0,2,0,,,,,0.0,0.0,0
55.937743,-4.406260,6.70,6.00,0.00,7.10,6.80,6.80,2.19,7.15,9506,2021-04-17 12:21:57.784,2021-04-17 13:21:57.784,18,0,0,14.920,55.937778,-4.406356,0.00,0.00,0.00,-0.30,1.30,142.70,0,1,0,43,100,-7502,1536,14920,3117.50,0,P-GPS,1,0,0,0,0,0,0,1618662117784,3741,3737,3732,3718,0,0,27,,,,,,,0,0,0,3.00,13.00,1427.00,-899.00,0.00,1359.00,6,67.00,0.00,71.04,0.00,0.00,0.00,0,,,100,100,0,2,0,0,0,2,0,,,,,0.0,0.0,0
55.937743,-4.406260,6.70,6.00,0.00,7.10,6.80,6.80,2.19,7.15,9604,2021-04-17 12:21:57.882,2021-04-17 13:21:57.882,18,0,0,14.920,55.937778,-4.406356,0.00,0.00,0.00,-0.30,1.50,142.60,0,1,0,43,100,-7502,1536,14920,3117.50,0,P-GPS,1,0,0,0,0,0,0,1618662117882,3741,3737,3732,3718,0,0,27,,,,,,,0,0,0,3.00,15.00,1426.00,-899.00,0.00,1359.00,6,67.00,0.00,71.03,0.00,0.00,0.00,0,,,100,100,0,2,0,0,0,2,0,,,,,0.0,0.0,0
55.937743,-4.406260,6.70,6.00,0.00,7.10,6.80,6.80,2.19,7.15,9705,2021-04-17 12:21:57.983,2021-04-17 13:21:57.983,18,0,0,14.920,55.937778,-4.406356,0.00,0.00,0.00,-0.30,1.50,142.60,0,1,0,43,100,-7502,1536,14920,3117.50,0,P-GPS,1,0,0,0,0,0,0,1618662117983,3741,3737,3732,3718,0,0,27,,,,,,,0,0,0,3.00,15.00,1426.00,-899.00,0.00,1359.00,6,67.00,0.00,71.02,0.00,0.00,0.00,0,,,100,100,0,2,0,0,0,2,0,,,,,0.0,0.0,0
55.937743,-4.406260,6.70,6.00,0.00,7.10,6.80,6.80,2.19,7.15,9805,2021-04-17 12:21:58.083,2021-04-17 13:21:58.083,18,0,0,14.920,55.937778,-4.406356,0.00,0.00,0.00,-0.40,1.10,142.50,0,1,0,43,100,-7502,1536,14920,3117.50,0,P-GPS,1,0,0,0,0,0,0,1618662118083,3741,3737,3732,3718,0,0,27,,,,,,,0,0,0,4.00,11.00,1425.00,-899.00,0.00,1359.00,6,67.00,0.00,71.00,0.00,0.00,0.00,0,,,100,100,0,2,0,0,0,2,0,,,,,0.0,0.0,0
55.937743,-4.406261,6.70,6.00,0.00,7.10,6.80,6.80,2.19,7.15,9911,2021-04-17 12:21:58.190,2021-04-17 13:21:58.190,18,0,0,14.920,55.937778,-4.406356,0.00,0.00,0.00,-0.40,0.60,142.50,0,1,0,43,100,-7502,1536,14920,3117.50,0,P-GPS,1,0,0,0,0,0,0,1618662118189,3741,3737,3732,3718,0,0,27,,,,,,,0,0,0,4.00,6.00,1425.00,-899.00,0.00,1359.00,6,67.00,0.00,70.99,0.00,0.00,0.00,0,,,100,100,0,2,0,0,0,2,0,,,,,0.0,0.0,0
55.937743,-4.406261,6.70,6.00,0.00,7.10,6.80,6.80,2.19,7.15,10008,2021-04-17 12:21:58.286,2021-04-17 13:21:58.286,18,0,0,14.913,55.937778,-4.406356,0.00,0.00,0.00,-0.50,0.30,142.50,0,1,0,43,100,-7599,1534,14913,3118.50,0,P-GPS,1,0,0,0,0,0,0,1618662118286,3741,3737,3732,3718,0,0,27,,,,,,,0,0,0,5.00,3.00,1425.00,-900.00,0.00,1359.00,6,67.00,0.00,70.97,0.00,0.00,0.00,0,,,100,100,0,2,0,0,0,2,0,,,,,0.0,0.0,0
55.937743,-4.406261,6.70,5.90,0.00,7.08,6.80,6.80,2.19,7.15,10104,2021-04-17 12:21:58.382,2021-04-17 13:21:58.382,18,0,0,14.913,55.937778,-4.406356,0.00,0.00,0.00,-0.50,0.30,142.50,0,1,0,43,100,-7599,1534,14913,3118.50,0,P-GPS,1,0,0,0,0,0,0,1618662118382,3741,3737,3732,3718,0,0,27,,,,,,,0,0,0,5.00,3.00,1425.00,-899.00,0.00,1359.00,6,67.00,0.00,70.82,0.00,0.00,0.00,0,,,100,100,0,2,0,0,0,2,0,,,,,0.0,0.0,0
55.937743,-4.406261,6.70,5.90,0.00,7.08,6.80,6.80,2.19,7.15,10211,2021-04-17 12:21:58.489,2021-04-17 13:21:58.489,18,0,0,14.913,55.937778,-4.406356,0.00,0.00,0.00,-0.40,0.50,142.60,0,1,0,43,100,-7599,1534,14913,3118.50,0,P-GPS,1,0,0,0,0,0,0,1618662118489,3741,3737,3732,3718,0,0,27,,,,,,,0,0,0,4.00,5.00,1426.00,-899.00,0.00,1359.00,6,67.00,0.00,70.79,0.00,0.00,0.00,0,,,100,100,0,2,0,0,0,2,0,,,,,0.0,0.0,0
55.937743,-4.406261,6.70,5.90,0.00,7.07,6.80,6.80,2.19,7.15,10309,2021-04-17 12:21:58.587,2021-04-17 13:21:58.587,18,0,0,14.913,55.937778,-4.406356,0.00,0.00,0.00,-0.50,0.80,142.60,0,1,0,43,100,-7599,1534,14913,3118.50,0,P-GPS,1,0,0,0,0,0,0,1618662118587,3741,3737,3732,3718,0,0,27,,,,,,,0,0,0,5.00,8.00,1426.00,-899.00,0.00,1359.00,6,67.00,0.00,70.69,0.00,0.00,0.00,0,,,100,100,0,2,0,0,0,2,0,,,,,0.0,0.0,0
55.937744,-4.406261,6.70,5.90,0.00,7.06,6.80,6.80,2.19,7.15,10413,2021-04-17 12:21:58.691,2021-04-17 13:21:58.691,18,0,0,14.913,55.937778,-4.406356,0.00,0.00,0.00,-0.50,0.80,142.60,0,1,0,43,100,-7599,1534,14913,3118.50,0,P-GPS,1,0,0,0,0,0,0,1618662118691,3741,3737,3732,3718,0,0,27,,,,,,,0,0,0,5.00,8.00,1426.00,-900.00,0.00,1359.00,6,67.00,0.00,70.65,0.00,0.00,0.00,0,,,100,100,0,2,0,0,0,2,0,,,,,0.0,0.0,0
55.937743,-4.406261,6.70,6.00,0.00,7.06,6.80,6.80,2.19,7.15,10509,2021-04-17 12:21:58.788,2021-04-17 13:21:58.788,18,0,0,14.913,55.937778,-4.406356,0.00,0.00,0.00,-0.60,0.90,142.50,0,1,0,43,100,-7599,1534,14913,3118.50,0,P-GPS,1,0,0,0,0,0,0,1618662118787,3741,3737,3732,3718,0,0,27,,,,,,,0,0,0,6.00,9.00,1425.00,-899.00,0.00,1359.00,6,67.00,0.00,70.64,0.00,0.00,0.00,0,,,100,100,0,2,0,0,0,2,0,,,,,0.0,0.0,0
55.937743,-4.406261,6.70,5.90,0.00,7.06,6.80,6.80,2.19,7.15,10603,2021-04-17 12:21:58.881,2021-04-17 13:21:58.881,18,0,0,14.913,55.937778,-4.406356,0.00,0.00,0.00,-0.60,0.70,142.50,0,1,0,43,100,-7599,1534,14913,3118.50,0,P-GPS,1,0,0,0,0,0,0,1618662118881,3741,3737,3732,3718,0,0,27,,,,,,,0,0,0,6.00,7.00,1425.00,-900.00,0.00,1359.00,6,67.00,0.00,70.60,0.00,0.00,0.00,0,,,100,100,0,2,0,0,0,2,0,,,,,0.0,0.0,0
55.937744,-4.406261,6.70,5.90,0.00,7.05,6.80,6.80,2.19,7.15,10705,2021-04-17 12:21:58.983,2021-04-17 13:21:58.983,18,0,0,14.913,55.937778,-4.406356,0.00,0.00,0.00,-0.70,0.40,142.40,0,1,0,43,100,-7599,1534,14913,3118.50,0,P-GPS,1,0,0,0,0,0,0,1618662118983,3741,3737,3732,3718,0,0,27,,,,,,,0,0,0,7.00,4.00,1424.00,-900.00,0.00,1359.00,6,67.00,0.00,70.48,0.00,0.00,0.00,0,,,100,100,0,2,0,0,0,2,0,,,,,0.0,0.0,0
55.937744,-4.406261,6.70,5.90,0.00,7.04,6.80,6.80,2.19,7.15,10814,2021-04-17 12:21:59.092,2021-04-17 13:21:59.092,18,0,0,14.913,55.937778,-4.406356,0.00,0.00,0.00,-0.80,0.40,142.40,0,1,0,43,100,-7599,1534,14913,3118.50,0,P-GPS,1,0,0,0,0,0,0,1618662119092,3741,3737,3732,3718,0,0,27,,,,,,,0,0,0,8.00,4.00,1424.00,-899.00,0.00,1359.00,6,67.00,0.00,70.43,0.00,0.00,0.00,0,,,100,100,0,2,0,0,0,2,0,,,,,0.0,0.0,0
55.937744,-4.406261,6.70,5.90,0.00,7.06,6.80,6.80,2.19,7.15,10904,2021-04-17 12:21:59.182,2021-04-17 13:21:59.182,18,0,0,14.913,55.937778,-4.406356,0.00,0.00,0.00,-0.70,0.20,142.30,0,1,0,43,100,-7599,1534,14913,3118.50,0,P-GPS,1,0,0,0,0,0,0,1618662119182,3741,3737,3732,3718,0,0,27,,,,,,,0,0,0,7.00,2.00,1423.00,-899.00,0.00,1359.00,6,67.00,0.00,70.60,0.00,0.00,0.00,0,,,100,100,0,2,0,0,0,2,0,,,,,0.0,0.0,0
55.937744,-4.406261,6.70,5.90,0.00,7.06,6.80,6.80,2.19,7.15,11013,2021-04-17 12:21:59.291,2021-04-17 13:21:59.291,18,0,0,14.913,55.937778,-4.406356,0.00,0.00,0.00,-0.70,-0.10,142.40,0,1,0,43,100,-7599,1534,14913,3118.50,0,P-GPS,1,0,0,0,0,0,0,1618662119291,3741,3737,3732,3718,0,0,27,,,,,,,0,0,0,7.00,-1.00,1424.00,-899.00,0.00,1359.00,6,67.00,0.00,70.58,0.00,0.00,0.00,0,,,100,100,0,2,0,0,0,2,0,,,,,0.0,0.0,0
55.937744,-4.406261,6.70,5.90,0.00,7.05,6.80,6.80,2.19,7.15,11109,2021-04-17 12:21:59.387,2021-04-17 13:21:59.387,18,0,0,14.913,55.937778,-4.406356,0.00,0.00,0.00,-0.70,0.40,142.50,0,1,0,43,100,-7599,1534,14913,3118.50,0,P-GPS,1,0,0,0,0,0,0,1618662119387,3741,3737,3732,3718,0,0,27,,,,,,,0,0,0,7.00,4.00,1425.00,-899.00,0.00,1359.00,6,67.00,0.00,70.49,0.00,0.00,0.00,0,,,100,100,0,2,0,0,0,2,0,,,,,0.0,0.0,0
55.937744,-4.406261,6.70,5.90,0.00,7.05,6.80,6.80,2.19,7.15,11205,2021-04-17 12:21:59.483,2021-04-17 13:21:59.483,18,0,0,14.913,55.937778,-4.406356,0.00,0.00,0.00,-0.70,1.20,142.70,0,1,0,43,100,-7599,1534,14913,3118.50,0,P-GPS,1,0,0,0,0,0,0,1618662119483,3741,3737,3732,3718,0,0,27,,,,,,,0,0,0,7.00,12.00,1427.00,-899.00,0.00,1359.00,6,67.00,0.00,70.48,0.00,0.00,0.00,0,,,100,100,0,2,0,0,0,2,0,,,,,0.0,0.0,0
55.937744,-4.406261,6.70,5.90,0.00,7.06,6.80,6.80,2.19,7.15,11306,2021-04-17 12:21:59.584,2021-04-17 13:21:59.584,18,0,0,14.913,55.937778,-4.406356,0.00,0.00,0.00,-0.80,1.70,142.70,0,1,0,43,100,-7599,1534,14913,3118.50,0,P-GPS,1,0,0,0,0,-65,0,1618662119584,3741,3737,3732,3718,0,0,27,,,,,,,0,0,0,8.00,17.00,1427.00,-899.00,0.00,1359.00,6,67.00,0.00,70.56,0.00,0.00,0.00,0,,,100,100,0,2,0,0,0,2,0,,,,,0.0,0.0,0
55.937744,-4.406261,6.70,5.90,0.00,7.05,6.80,6.80,2.19,7.15,11409,2021-04-17 12:21:59.688,2021-04-17 13:21:59.687,18,0,0,14.913,55.937778,-4.406356,0.00,0.00,0.00,-0.70,1.80,142.70,0,1,0,43,100,-7599,1534,14913,3118.50,0,P-GPS,1,0,0,0,0,-129,0,1618662119687,3741,3737,3732,3718,0,0,27,,,,,,,0,0,0,7.00,18.00,1427.00,-899.00,0.00,1359.00,6,67.00,0.00,70.54,0.00,0.00,0.00,0,,,100,100,0,2,0,0,0,2,0,,,,,0.0,0.0,0
55.937744,-4.406261,6.70,5.90,0.00,7.05,6.80,6.80,2.19,7.15,11515,2021-04-17 12:21:59.793,2021-04-17 13:21:59.793,18,0,0,14.913,55.937778,-4.406356,0.00,0.00,0.00,-0.70,1.50,142.60,0,1,0,43,100,-7599,1534,14913,3118.50,0,P-GPS,1,0,0,0,0,-133,0,1618662119793,3741,3737,3732,3718,0,0,27,,,,,,,0,0,0,7.00,15.00,1426.00,-900.00,0.00,1359.00,6,67.00,0.00,70.47,0.00,0.00,0.00,0,,,100,100,0,2,0,0,0,2,0,,,,,0.0,0.0,0
55.937744,-4.406261,6.70,6.00,0.00,7.04,6.80,6.80,2.19,7.15,11605,2021-04-17 12:21:59.883,2021-04-17 13:21:59.883,18,0,0,14.913,55.937778,-4.406356,0.00,0.00,0.00,-0.90,1.10,142.40,0,1,0,43,100,-7599,1534,14913,3118.50,0,P-GPS,1,0,0,0,0,-387,0,1618662119883,3741,3737,3732,3718,0,0,27,,,,,,,0,0,0,9.00,11.00,1424.00,-900.00,0.00,1358.00,6,67.00,0.00,70.43,0.00,0.00,0.00,0,,,100,100,0,2,0,0,0,2,0,,,,,0.0,0.0,0
55.937744,-4.406261,6.70,6.00,0.00,7.04,6.80,6.80,2.19,7.15,11711,2021-04-17 12:21:59.989,2021-04-17 13:21:59.989,18,0,0,14.913,55.937778,-4.406356,0.00,0.00,0.00,-1.10,1.00,141.40,0,1,0,43,100,-7599,1534,14913,3118.50,0,P-GPS,1,0,0,0,0,-482,0,1618662119989,3741,3737,3732,3718,0,0,27,,,,,,,0,0,0,11.00,10.00,1414.00,-899.00,0.00,1353.00,6,67.00,0.00,70.41,0.00,0.00,0.00,0,,,100,100,0,2,0,0,0,2,0,,,,,0.0,0.0,0
55.937744,-4.406261,6.70,6.00,0.00,7.04,6.80,6.80,2.19,7.15,11810,2021-04-17 12:22:00.089,2021-04-17 13:22:00.088,18,0,0,14.913,55.937778,-4.406356,0.00,0.00,0.00,-1.10,1.10,139.20,0,1,0,43,100,-7599,1534,14913,3118.50,0,P-GPS,1,0,0,0,0,-152,0,1618662120088,3741,3737,3732,3718,0,0,27,,,,,,,0,0,0,11.00,11.00,1392.00,-900.00,0.00,1332.00,6,67.00,0.00,70.36,0.00,0.00,0.00,0,,,100,100,0,2,0,0,0,2,0,,,,,0.0,0.0,0
55.937744,-4.406261,6.70,6.00,0.00,7.03,6.80,6.80,2.19,7.15,11902,2021-04-17 12:22:00.180,2021-04-17 13:22:00.180,18,0,0,14.913,55.937778,-4.406356,0.00,0.00,0.00,-1.30,0.90,138.30,0,1,0,43,100,-7599,1534,14913,3118.50,0,P-GPS,1,0,0,0,0,0,0,1618662120180,3741,3737,3732,3718,0,0,27,,,,,,,0,0,0,13.00,9.00,1383.00,-900.00,0.00,1313.00,6,67.00,0.00,70.31,0.00,0.00,0.00,0,,,100,100,0,2,0,0,0,2,0,,,,,0.0,0.0,0
55.937744,-4.406261,6.70,6.00,0.00,7.03,6.80,6.80,2.19,7.15,12026,2021-04-17 12:22:00.304,2021-04-17 13:22:00.304,18,0,0,14.915,55.937778,-4.406356,0.00,0.00,0.00,-1.20,0.70,138.10,0,1,0,43,100,-7572,1532,14915,3118.50,0,P-GPS,1,0,0,0,0,0,0,1618662120304,3741,3737,3732,3718,0,0,27,,,,,,,0,0,0,12.00,7.00,1381.00,-899.00,0.00,1311.00,6,67.00,0.00,70.27,0.00,0.00,0.00,0,,,100,100,0,2,0,0,0,2,0,,,,,0.0,0.0,0
55.937744,-4.406261,6.70,6.00,0.00,7.03,6.80,6.80,2.19,7.15,12117,2021-04-17 12:22:00.395,2021-04-17 13:22:00.395,18,0,0,14.915,55.937778,-4.406356,0.00,0.00,0.00,-1.00,0.80,137.90,0,1,0,43,100,-7572,1532,14915,3118.50,0,P-GPS,1,0,0,0,0,0,0,1618662120395,3741,3737,3732,3718,0,0,27,,,,,,,0,0,0,10.00,8.00,1379.00,-899.00,0.00,1311.00,6,67.00,0.00,70.26,0.00,0.00,0.00,0,,,100,100,0,2,0,0,0,2,0,,,,,0.0,0.0,0
55.937744,-4.406261,6.70,6.00,0.00,7.02,6.80,6.80,2.19,7.15,12205,2021-04-17 12:22:00.483,2021-04-17 13:22:00.483,18,0,0,14.915,55.937778,-4.406356,0.00,0.00,0.00,-1.00,0.90,137.80,0,1,0,43,100,-7572,1532,14915,3118.50,0,P-GPS,1,0,0,0,0,0,0,1618662120483,3741,3737,3732,3718,0,0,27,,,,,,,0,0,0,10.00,9.00,1378.00,-899.00,0.00,1311.00,6,67.00,0.00,70.23,0.00,0.00,0.00,0,,,100,100,0,2,0,0,0,2,0,,,,,0.0,0.0,0
55.937744,-4.406261,6.70,6.00,0.00,7.02,6.80,6.80,2.19,7.15,12307,2021-04-17 12:22:00.585,2021-04-17 13:22:00.585,18,0,0,14.915,55.937778,-4.406356,0.00,0.00,0.00,-1.20,0.90,137.80,0,1,0,43,100,-7572,1532,14915,3118.50,0,P-GPS,1,0,0,0,0,0,0,1618662120585,3741,3737,3732,3718,0,0,27,,,,,,,0,0,0,12.00,9.00,1378.00,-900.00,0.00,1311.00,6,67.00,0.00,70.21,0.00,0.00,0.00,0,,,100,100,0,2,0,0,0,2,0,,,,,0.0,0.0,0
55.937744,-4.406261,6.70,6.00,0.00,7.02,6.80,6.80,2.19,7.15,12411,2021-04-17 12:22:00.689,2021-04-17 13:22:00.689,18,0,0,14.915,55.937778,-4.406356,0.00,0.00,0.00,-1.30,0.90,137.80,0,1,0,43,100,-7572,1532,14915,3118.50,0,P-GPS,1,0,0,0,0,0,0,1618662120689,3741,3737,3732,3718,0,0,27,,,,,,,0,0,0,13.00,9.00,1378.00,-900.00,0.00,1311.00,6,67.00,0.00,70.19,0.00,0.00,0.00,0,,,100,100,0,2,0,0,0,2,0,,,,,0.0,0.0,0
55.937745,-4.406261,6.70,6.00,0.00,7.02,6.80,6.80,2.19,7.15,12507,2021-04-17 12:22:00.785,2021-04-17 13:22:00.785,18,0,0,14.915,55.937778,-4.406356,0.00,0.00,0.00,-1.20,1.00,137.80,0,1,0,43,100,-7572,1532,14915,3118.50,0,P-GPS,1,0,0,0,0,0,0,1618662120785,3741,3737,3732,3718,0,0,27,,,,,,,0,0,0,12.00,10.00,1378.00,-899.00,0.00,1311.00,6,67.00,0.00,70.18,0.00,0.00,0.00,0,,,100,100,0,2,0,0,0,2,0,,,,,0.0,0.0,0
55.937745,-4.406261,6.70,6.00,0.00,7.02,6.80,6.80,2.19,7.15,12605,2021-04-17 12:22:00.884,2021-04-17 13:22:00.883,18,0,0,14.915,55.937778,-4.406356,0.00,0.00,0.00,-1.10,1.10,137.80,0,1,0,43,100,-7572,1532,14915,3118.50,0,P-GPS,1,0,0,0,0,0,0,1618662120883,3741,3737,3732,3718,0,0,27,,,,,,,0,0,0,11.00,11.00,1378.00,-899.00,0.00,1311.00,6,67.00,0.00,70.17,0.00,0.00,0.00,0,,,100,100,0,2,0,0,0,2,0,,,,,0.0,0.0,0
55.937745,-4.406260,6.70,6.00,0.00,7.02,6.80,6.80,2.19,7.15,12706,2021-04-17 12:22:00.984,2021-04-17 13:22:00.984,18,0,0,14.915,55.937778,-4.406356,0.00,0.00,0.00,-1.10,1.50,137.80,0,1,0,43,100,-7572,1532,14915,3118.50,0,P-GPS,1,0,0,0,0,0,0,1618662120984,3741,3737,3732,3718,0,0,27,,,,,,,0,0,0,11.00,15.00,1378.00,-899.00,0.00,1311.00,6,67.00,0.00,70.16,0.00,0.00,0.00,0,,,100,100,0,2,0,0,0,2,0,,,,,0.0,0.0,0
55.937745,-4.406260,6.70,6.00,0.00,7.02,6.80,6.80,2.19,7.15,12806,2021-04-17 12:22:01.084,2021-04-17 13:22:01.084,18,0,0,14.915,55.937778,-4.406356,0.00,0.00,0.00,-1.10,1.70,137.80,0,1,0,43,100,-7572,1532,14915,3118.50,0,P-GPS,1,0,0,0,0,0,0,1618662121084,3741,3737,3732,3718,0,0,27,,,,,,,0,0,0,11.00,17.00,1378.00,-899.00,0.00,1311.00,6,67.00,0.00,70.16,0.00,0.00,0.00,0,,,100,100,0,2,0,0,0,2,0,,,,,0.0,0.0,0
55.937745,-4.406260,6.70,6.00,0.00,7.02,6.80,6.80,2.19,7.15,12911,2021-04-17 12:22:01.189,2021-04-17 13:22:01.189,18,0,0,14.915,55.937778,-4.406356,0.00,0.00,0.00,-1.00,1.80,137.80,0,1,0,43,100,-7572,1532,14915,3118.50,0,P-GPS,1,0,0,0,0,0,0,1618662121189,3741,3737,3732,3718,0,0,27,,,,,,,0,0,0,10.00,18.00,1378.00,-899.00,0.00,1311.00,6,67.00,0.00,70.20,0.00,0.00,0.00,0,,,100,100,0,2,0,0,0,2,0,,,,,0.0,0.0,0
55.937745,-4.406260,6.70,6.00,0.00,7.02,6.80,6.80,2.19,7.15,13018,2021-04-17 12:22:01.297,2021-04-17 13:22:01.296,18,0,0,14.919,55.937778,-4.406356,0.00,0.00,0.00,-1.00,1.90,137.80,0,1,0,43,100,-7480,1529,14919,3118.50,0,P-GPS,1,0,0,0,0,0,0,1618662121296,3741,3737,3732,3718,0,0,27,,,,,,,0,0,0,10.00,19.00,1378.00,-899.00,0.00,1311.00,6,67.00,0.00,70.21,0.00,0.00,0.00,0,,,100,100,0,2,0,0,0,2,0,,,,,0.0,0.0,0
55.937745,-4.406260,6.70,6.00,0.00,7.03,6.80,6.80,2.19,7.15,13110,2021-04-17 12:22:01.389,2021-04-17 13:22:01.389,18,0,0,14.919,55.937778,-4.406356,0.00,0.00,0.00,-1.20,1.70,137.80,0,1,0,43,100,-7480,1529,14919,3118.50,0,P-GPS,1,0,0,0,0,0,0,1618662121388,3741,3737,3732,3718,0,0,27,,,,,,,0,0,0,12.00,17.00,1378.00,-900.00,0.00,1311.00,6,67.00,0.00,70.29,0.00,0.00,0.00,0,,,100,100,0,2,0,0,0,2,0,,,,,0.0,0.0,0
55.937745,-4.406260,6.70,6.00,0.00,7.03,6.80,6.80,2.19,7.15,13211,2021-04-17 12:22:01.489,2021-04-17 13:22:01.489,18,0,0,14.919,55.937778,-4.406356,0.00,0.00,0.00,-1.20,1.40,137.70,0,1,0,43,100,-7480,1529,14919,3118.50,0,P-GPS,1,0,0,0,0,0,0,1618662121489,3741,3737,3732,3718,0,0,27,,,,,,,0,0,0,12.00,14.00,1377.00,-899.00,0.00,1311.00,6,67.00,0.00,70.30,0.00,0.00,0.00,0,,,100,100,0,2,0,0,0,2,0,,,,,0.0,0.0,0
55.937745,-4.406260,6.70,6.00,0.00,7.04,6.80,6.80,2.19,7.15,13307,2021-04-17 12:22:01.585,2021-04-17 13:22:01.585,18,0,0,14.919,55.937778,-4.406356,0.00,0.00,0.00,-1.10,1.40,137.70,0,1,0,43,100,-7480,1529,14919,3118.50,0,P-GPS,1,0,0,0,0,0,0,1618662121585,3741,3737,3732,3718,0,0,27,,,,,,,0,0,0,11.00,14.00,1377.00,-899.00,0.00,1311.00,6,67.00,0.00,70.44,0.00,0.00,0.00,0,,,100,100,0,2,0,0,0,2,0,,,,,0.0,0.0,0
55.937745,-4.406260,6.70,6.00,0.00,7.05,6.80,6.80,2.19,7.15,13407,2021-04-17 12:22:01.686,2021-04-17 13:22:01.685,18,0,0,14.919,55.937778,-4.406356,0.00,0.00,0.00,-0.90,1.70,137.70,0,1,0,43,100,-7480,1529,14919,3118.50,0,P-GPS,1,0,0,0,0,0,0,1618662121685,3741,3737,3732,3718,0,0,27,,,,,,,0,0,0,9.00,17.00,1377.00,-899.00,0.00,1311.00,6,67.00,0.00,70.48,0.00,0.00,0.00,0,,,100,100,0,2,0,0,0,2,0,,,,,0.0,0.0,0
55.937745,-4.406260,6.70,6.00,0.00,7.05,6.80,6.80,2.19,7.15,13514,2021-04-17 12:22:01.793,2021-04-17 13:22:01.792,18,0,0,14.919,55.937778,-4.406356,0.00,0.00,0.00,-0.70,2.10,137.90,0,1,0,43,100,-7480,1529,14919,3118.50,0,P-GPS,1,0,0,0,0,0,0,1618662121792,3741,3737,3732,3718,0,0,27,,,,,,,0,0,0,7.00,21.00,1379.00,-899.00,0.00,1311.00,6,67.00,0.00,70.45,0.00,0.00,0.00,0,,,100,100,0,2,0,0,0,2,0,,,,,0.0,0.0,0
55.937745,-4.406260,6.70,6.00,0.00,7.05,6.80,6.80,2.19,7.15,13632,2021-04-17 12:22:01.911,2021-04-17 13:22:01.910,18,0,0,14.919,55.937778,-4.406356,0.00,0.00,0.00,-0.60,2.40,138.00,0,1,0,43,100,-7480,1529,14919,3118.50,0,P-GPS,1,0,0,0,0,0,0,1618662121910,3741,3737,3732,3718,0,0,27,,,,,,,0,0,0,6.00,24.00,1380.00,-899.00,0.00,1311.00,6,67.00,0.00,70.50,0.00,0.00,0.00,0,,,100,100,0,2,0,0,0,2,0,,,,,0.0,0.0,0
55.937745,-4.406259,6.70,6.00,0.00,7.07,6.80,6.80,2.19,7.15,13813,2021-04-17 12:22:02.091,2021-04-17 13:22:02.091,18,0,0,14.919,55.937778,-4.406356,0.00,0.00,0.00,-0.30,2.30,138.10,0,1,0,43,100,-7480,1529,14919,3118.50,0,P-GPS,1,0,54,0,0,0,0,1618662122091,3741,3737,3732,3718,0,0,27,,,,,,,0,0,0,3.00,23.00,1381.00,-900.00,0.00,1311.00,6,67.00,0.00,70.65,0.00,0.00,0.00,0,,,100,100,0,2,0,0,0,2,0,,,,,0.0,0.0,0
55.937745,-4.406259,6.70,6.00,0.00,7.06,6.80,6.80,2.19,7.15,13909,2021-04-17 12:22:02.187,2021-04-17 13:22:02.187,18,0,0,14.919,55.937778,-4.406356,0.00,0.00,0.00,-0.40,1.90,138.00,0,1,0,43,100,-7480,1529,14919,3118.50,0,P-GPS,1,0,143,0,0,0,0,1618662122187,3741,3737,3732,3718,0,0,27,,,,,,,0,0,0,4.00,19.00,1380.00,-899.00,0.00,1311.00,6,67.00,0.00,70.62,0.00,0.00,0.00,0,,,100,100,0,2,0,0,0,2,0,,,,,0.0,0.0,0
55.937745,-4.406259,6.80,6.00,0.00,7.06,6.80,6.80,2.19,7.15,14019,2021-04-17 12:22:02.297,2021-04-17 13:22:02.297,18,0,0,14.919,55.937778,-4.406356,0.00,0.00,0.00,-1.20,1.60,138.00,0,1,0,43,100,-7303,1527,14919,3118.50,0,P-GPS,1,0,214,0,0,0,0,1618662122297,3741,3737,3732,3718,0,0,27,,,,,,,0,0,0,12.00,16.00,1380.00,-900.00,0.00,1311.00,6,68.00,0.00,70.63,0.00,0.00,0.00,0,,,100,100,0,2,0,0,0,2,0,,,,,0.0,0.0,0
55.937745,-4.406259,6.80,6.00,0.00,7.07,6.80,6.80,2.19,7.15,14112,2021-04-17 12:22:02.390,2021-04-17 13:22:02.390,18,0,0,14.919,55.937778,-4.406356,0.00,0.00,0.00,-2.40,1.20,138.00,0,1,0,43,100,-7303,1527,14919,3118.50,0,P-GPS,1,0,216,0,0,0,0,1618662122390,3741,3737,3732,3718,0,0,27,,,,,,,0,0,0,24.00,12.00,1380.00,-899.00,0.00,1311.00,6,68.00,0.00,70.69,0.00,0.00,0.00,0,,,100,100,0,2,0,0,0,2,0,,,,,0.0,0.0,0
55.937745,-4.406259,6.80,6.00,0.00,7.07,6.80,6.80,2.19,7.15,14208,2021-04-17 12:22:02.487,2021-04-17 13:22:02.486,18,0,0,14.919,55.937778,-4.406356,0.00,0.00,0.00,-3.30,1.10,137.90,0,1,0,43,100,-7303,1527,14919,3118.50,0,P-GPS,1,0,199,0,0,0,0,1618662122486,3741,3737,3732,3718,0,0,27,,,,,,,0,0,0,33.00,11.00,1379.00,-899.00,0.00,1311.00,6,68.00,0.00,70.73,0.00,0.00,0.00,0,,,100,100,0,2,0,0,0,2,0,,,,,0.0,0.0,0
55.937745,-4.406259,6.80,6.00,0.00,7.06,6.80,6.80,2.19,7.15,14308,2021-04-17 12:22:02.586,2021-04-17 13:22:02.586,18,0,0,14.919,55.937778,-4.406356,0.00,0.00,0.00,-3.60,1.00,137.80,0,1,0,43,100,-7303,1527,14919,3118.50,0,P-GPS,1,0,187,0,0,-317,0,1618662122586,3741,3737,3732,3718,0,0,27,,,,,,,0,0,0,36.00,10.00,1378.00,-899.00,0.00,1311.00,6,68.00,0.00,70.64,0.00,0.00,0.00,0,,,100,100,0,2,0,0,0,2,0,,,,,0.0,0.0,0
55.937745,-4.406259,6.80,6.00,0.10,7.07,6.80,6.80,2.19,7.15,14409,2021-04-17 12:22:02.687,2021-04-17 13:22:02.687,18,0,0,14.919,55.937778,-4.406356,-0.10,0.00,0.00,-3.40,1.20,137.10,0,1,0,43,100,-7303,1527,14919,3118.50,0,P-GPS,1,0,151,0,0,-572,0,1618662122687,3741,3737,3732,3718,0,0,27,,,,,,,0,0,0,34.00,12.00,1371.00,-899.00,0.00,1309.00,6,68.00,1.00,70.74,-1.00,0.00,0.00,0,,,100,100,0,2,0,0,0,2,0,,,,,0.0,0.0,0
55.937745,-4.406259,6.80,6.00,0.10,7.09,6.80,6.80,2.19,7.15,14509,2021-04-17 12:22:02.787,2021-04-17 13:22:02.787,18,0,0,14.919,55.937778,-4.406356,-0.10,0.00,0.00,-3.00,1.70,134.20,0,1,0,43,100,-7303,1527,14919,3118.50,0,P-GPS,1,0,111,0,0,-660,0,1618662122787,3741,3737,3732,3718,0,0,27,,,,,,,0,0,0,30.00,17.00,1342.00,-899.00,0.00,1290.00,6,68.00,1.00,70.93,-1.00,0.00,0.00,0,,,100,100,0,2,0,0,0,2,0,,,,,0.0,0.0,0
