latitude,longitude,altitude(m),ultrasonicHeight(m),speed(mps),distance(m),max_altitude(m),max_ascent(m),max_speed(mps),max_distance(m),time(millisecond),datetime(utc),datetime(local),satellites,pressure(Pa),temperature(F),voltage(v),home_latitude,home_longitude,velocityX(mps),velocityY(mps),velocityZ(mps),pitch(deg),roll(deg),yaw(deg),powerlevel,isflying,istakingphoto,remainPowerPercent,remainLifePercent,currentCurrent,currentElectricity,currentVoltage,batteryTemperature,dischargeCount,flightmode,isMotorsOn,isTakingVideo,Rc_elevator,Rc_aileron,Rc_throttle,Rc_rudder,Rc_gyro,timestamp,Battery_Cell1,Battery_Cell2,Battery_Cell3,Battery_Cell4,Battery_Cell5,Battery_Cell6,Dronetype,AppVersion,Planename,FlyControllerSerialNumber,RemoteSerialNumber,BatterySerialNumber,CENTER_BATTERY.productDate,CENTER_BATTERY.serialNo,CENTER_BATTERY.fullCapacity,CENTER_BATTERY.productDateRaw,pitchRaw,rollRaw,yawRaw,gimbalPitchRaw,gimbalRollRaw,gimbalYawRaw,flyState,altitudeRaw,speedRaw,distanceRaw,velocityXRaw,velocityYRaw,velocityZRaw,data_reuse,App_Tip,App_Warning,downlinkSignalQuality,uplinkSignalQuality,transmissionChannel,rcModeSwitch,rcHome,rcPause,rcTransform,rcJoystickMode,appMode,FlyControllerSerialNumber_legacy,RemoteSerialNumber_legacy,BatterySerialNumber_legacy,Battery2SerialNumber,frontAvoidDist,backAvoidDist,isBrakingToAvoid
55.940870,-4.406298,0.40,0.50,0.40,0.19,0.40,0.40,0.40,0.19,0,2021-05-02 10:36:00.039,2021-05-02 11:36:00.039,17,0,0,16.767,55.940871,-4.406299,0.00,0.00,-0.40,0.00,-2.70,79.10,0,1,0,96,100,-4292,3331,16767,2978.50,4,TakeOff,1,0,0,0,0,0,0,1619951760039,4294,4275,4294,4291,0,0,27,Litchi_4.18.0-g,CJTMAVIC,163DFAS001K45C,0VECFAK0072T52,0P2AFAL5340E87,,0,0,0,-0.00,-27.00,791.00,-87.00,0.00,630.00,11,4.00,4.00,1.87,0.00,0.00,-4.00,0,,,100,100,0,2,0,0,0,2,0,,,,null,0.0,4.9,0
55.940870,-4.406298,0.50,0.50,0.50,0.20,0.50,0.50,0.50,0.20,105,2021-05-02 10:36:00.144,2021-05-02 11:36:00.144,17,0,0,16.767,55.940871,-4.406299,0.00,0.00,-0.50,0.00,-2.50,79.10,0,1,0,96,100,-4292,3331,16767,2978.50,4,TakeOff,1,0,0,0,0,0,0,1619951760144,4294,4275,4294,4291,0,0,27,,,,,,,0,0,0,-0.00,-25.00,791.00,-87.00,0.00,630.00,11,5.00,5.00,1.97,0.00,0.00,-5.00,0,,,100,100,0,2,0,0,0,2,0,,,,,0.0,4.9,0
55.940870,-4.406298,0.50,0.60,0.50,0.19,0.50,0.50,0.50,0.20,208,2021-05-02 10:36:00.247,2021-05-02 11:36:00.247,17,0,0,16.767,55.940871,-4.406299,0.00,0.00,-0.50,0.00,-2.40,79.20,0,1,0,96,100,-4292,3331,16767,2978.50,4,TakeOff,1,0,0,0,0,0,0,1619951760247,4294,4275,4294,4291,0,0,27,,,,,,,0,0,0,-0.00,-24.00,792.00,-87.00,0.00,630.00,11,5.00,5.00,1.92,0.00,0.00,-5.00,0,,,100,100,0,2,0,0,0,2,0,,,,,0.0,4.9,0
55.940870,-4.406298,0.60,0.60,0.50,0.20,0.60,0.60,0.50,0.20,309,2021-05-02 10:36:00.349,2021-05-02 11:36:00.349,17,0,0,16.448,55.940871,-4.406299,0.00,0.00,-0.50,0.00,-2.60,79.10,0,1,0,96,100,-7239,3330,16448,2978.50,4,TakeOff,1,0,0,0,0,0,0,1619951760348,4294,4275,4294,4291,0,0,27,,,,,,,0,0,0,-0.00,-26.00,791.00,-87.00,0.00,630.00,11,6.00,5.00,2.00,0.00,0.00,-5.00,0,,,100,100,0,2,0,0,0,2,0,,,,,0.0,4.9,0
55.940870,-4.406298,0.60,0.70,0.50,0.20,0.60,0.60,0.50,0.20,403,2021-05-02 10:36:00.443,2021-05-02 11:36:00.442,17,0,0,16.448,55.940871,-4.406299,0.00,0.00,-0.50,0.00,-2.60,79.20,0,1,0,96,100,-7239,3330,16448,2978.50,4,TakeOff,1,0,0,0,0,0,0,1619951760442,4294,4275,4294,4291,0,0,27,,,,,,,0,0,0,-0.00,-26.00,792.00,-87.00,0.00,630.00,11,6.00,5.00,2.04,0.00,0.00,-5.00,0,,,100,100,0,2,0,0,0,2,0,,,,,0.0,4.9,0
55.940869,-4.406298,0.70,0.70,0.50,0.21,0.70,0.70,0.50,0.21,508,2021-05-02 10:36:00.547,2021-05-02 11:36:00.547,17,0,0,16.448,55.940871,-4.406299,0.00,0.00,-0.50,0.00,-2.40,79.20,0,1,0,96,100,-7239,3330,16448,2978.50,4,TakeOff,1,0,0,0,0,0,0,1619951760547,4294,4275,4294,4291,0,0,27,,,,,,,0,0,0,-0.00,-24.00,792.00,-87.00,0.00,630.00,11,7.00,5.00,2.10,0.00,0.00,-5.00,0,,,100,100,0,2,0,0,0,2,0,,,,,0.0,4.9,0
55.940869,-4.406298,0.70,0.80,0.50,0.22,0.70,0.70,0.50,0.22,613,2021-05-02 10:36:00.652,2021-05-02 11:36:00.652,17,0,0,16.448,55.940871,-4.406299,0.00,0.00,-0.50,0.20,-2.50,79.10,0,1,0,96,100,-7239,3330,16448,2978.50,4,TakeOff,1,0,0,0,0,0,0,1619951760652,4294,4275,4294,4291,0,0,27,,,,,,,0,0,0,-2.00,-25.00,791.00,-87.00,0.00,630.00,11,7.00,5.00,2.25,0.00,0.00,-5.00,0,,,100,100,0,2,0,0,0,2,0,,,,,0.0,4.9,0
55.940869,-4.406298,0.80,0.80,0.50,0.23,0.80,0.80,0.50,0.23,702,2021-05-02 10:36:00.741,2021-05-02 11:36:00.741,17,0,0,16.448,55.940871,-4.406299,0.00,0.00,-0.50,0.60,-2.70,79.00,0,1,0,96,100,-7239,3330,16448,2978.50,4,TakeOff,1,0,0,0,0,0,0,1619951760741,4294,4275,4294,4291,0,0,27,,,,,,,0,0,0,-6.00,-27.00,790.00,-87.00,0.00,629.00,11,8.00,5.00,2.31,0.00,0.00,-5.00,0,,,100,100,0,2,0,0,0,2,0,,,,,0.0,4.9,0
55.940869,-4.406298,0.80,0.90,0.50,0.23,0.80,0.80,0.50,0.23,806,2021-05-02 10:36:00.846,2021-05-02 11:36:00.846,17,0,0,16.448,55.940871,-4.406299,0.00,0.00,-0.50,0.50,-2.60,79.10,0,1,0,96,100,-7239,3330,16448,2978.50,4,TakeOff,1,0,0,0,0,0,0,1619951760845,4294,4275,4294,4291,0,0,27,,,,,,,0,0,0,-5.00,-26.00,791.00,-87.00,0.00,629.00,11,8.00,5.00,2.29,0.00,0.00,-5.00,0,,,100,100,0,2,0,0,0,2,0,,,,,0.0,4.9,0
55.940869,-4.406298,0.90,0.90,0.50,0.23,0.90,0.90,0.50,0.23,913,2021-05-02 10:36:00.953,2021-05-02 11:36:00.952,17,0,0,16.448,55.940871,-4.406299,0.00,0.00,-0.50,0.60,-2.60,79.10,0,1,0,96,100,-7239,3330,16448,2978.50,4,TakeOff,1,0,0,0,0,0,0,1619951760952,4294,4275,4294,4291,0,0,27,,,,,,,0,0,0,-6.00,-26.00,791.00,-87.00,0.00,629.00,11,9.00,5.00,2.34,0.00,0.00,-5.00,0,,,100,100,0,2,0,0,0,2,0,,,,,0.0,4.9,0
55.940869,-4.406298,1.00,1.00,0.50,0.23,1.00,1.00,0.50,0.23,1094,2021-05-02 10:36:01.133,2021-05-02 11:36:01.133,17,0,0,16.448,55.940871,-4.406299,0.00,0.00,-0.50,0.70,-2.50,79.10,0,1,0,96,100,-7239,3330,16448,2978.50,4,TakeOff,1,0,0,0,0,0,0,1619951761133,4294,4275,4294,4291,0,0,27,,,,,,,0,0,0,-7.00,-25.00,791.00,-87.00,0.00,629.00,11,10.00,5.00,2.32,0.00,0.00,-5.00,0,,,100,100,0,2,0,0,0,2,0,,,,,0.0,4.8,0
55.940869,-4.406298,1.00,1.10,0.40,0.24,1.00,1.00,0.50,0.24,1202,2021-05-02 10:36:01.241,2021-05-02 11:36:01.241,17,0,0,16.448,55.940871,-4.406299,0.00,0.00,-0.40,0.80,-2.30,79.20,0,1,0,96,100,-7239,3330,16448,2978.50,4,TakeOff,1,0,0,0,0,0,0,1619951761241,4294,4275,4294,4291,0,0,27,,,,,,,0,0,0,-8.00,-23.00,792.00,-87.00,0.00,629.00,6,10.00,4.00,2.43,0.00,0.00,-4.00,0,,,100,100,0,2,0,0,0,2,0,,,,,0.0,4.8,0
55.940869,-4.406298,1.10,1.10,0.30,0.25,1.10,1.10,0.50,0.25,1296,2021-05-02 10:36:01.335,2021-05-02 11:36:01.335,17,0,0,16.448,55.940871,-4.406299,0.00,0.00,-0.30,1.00,-2.40,79.20,0,1,0,96,100,-7239,3330,16448,2978.50,4,P-GPS,1,0,0,0,0,0,0,1619951761335,4294,4275,4294,4291,0,0,27,,,,,,,0,0,0,-10.00,-24.00,792.00,-87.00,0.00,629.00,6,11.00,3.00,2.46,0.00,0.00,-3.00,0,,,100,100,0,2,0,0,0,2,0,,,,,0.0,4.8,0
55.940869,-4.406298,1.10,1.20,0.20,0.23,1.10,1.10,0.50,0.25,1402,2021-05-02 10:36:01.441,2021-05-02 11:36:01.441,17,0,0,16.448,55.940871,-4.406299,0.00,0.00,-0.20,1.00,-2.40,79.10,0,1,0,96,100,-7239,3330,16448,2978.50,4,P-GPS,1,0,0,0,0,0,0,1619951761441,4294,4275,4294,4291,0,0,27,,,,,,,0,0,0,-10.00,-24.00,791.00,-87.00,0.00,629.00,6,11.00,2.00,2.32,0.00,0.00,-2.00,0,,,100,100,0,2,0,0,0,2,0,,,,,0.0,4.8,0
55.940869,-4.406298,1.10,1.20,0.10,0.23,1.10,1.10,0.50,0.25,1503,2021-05-02 10:36:01.542,2021-05-02 11:36:01.542,17,0,0,16.448,55.940871,-4.406299,0.00,0.00,-0.10,0.80,-2.30,79.20,0,1,0,96,100,-7239,3330,16448,2978.50,4,P-GPS,1,0,0,0,0,0,0,1619951761542,4294,4275,4294,4291,0,0,27,,,,,,,0,0,0,-8.00,-23.00,792.00,-87.00,0.00,629.00,6,11.00,1.00,2.32,0.00,0.00,-1.00,0,,,100,100,0,2,0,0,0,2,0,,,,,0.0,4.8,0
55.940869,-4.406298,1.10,1.20,0.00,0.23,1.10,1.10,0.50,0.25,1597,2021-05-02 10:36:01.636,2021-05-02 11:36:01.636,17,0,0,16.448,55.940871,-4.406299,0.00,0.00,0.00,0.60,-2.20,79.10,0,1,0,96,100,-7239,3330,16448,2978.50,4,P-GPS,1,0,0,0,0,0,0,1619951761636,4294,4275,4294,4291,0,0,27,,,,,,,0,0,0,-6.00,-22.00,791.00,-87.00,0.00,629.00,6,11.00,0.00,2.32,0.00,0.00,0.00,0,,,100,100,0,2,0,0,0,2,0,,,,,0.0,4.9,0
55.940869,-4.406298,1.10,1.20,0.00,0.23,1.10,1.10,0.50,0.25,1699,2021-05-02 10:36:01.738,2021-05-02 11:36:01.738,17,0,0,16.448,55.940871,-4.406299,0.00,0.00,0.00,0.40,-2.00,79.10,0,1,0,96,100,-7239,3330,16448,2978.50,4,P-GPS,1,0,0,0,0,0,0,1619951761738,4294,4275,4294,4291,0,0,27,,,,,,,0,0,0,-4.00,-20.00,791.00,-87.00,0.00,629.00,6,11.00,0.00,2.32,0.00,0.00,0.00,0,,,100,100,0,2,0,0,0,2,0,,,,,0.0,4.9,0
55.940869,-4.406298,1.10,1.20,0.00,0.24,1.10,1.10,0.50,0.25,1813,2021-05-02 10:36:01.852,2021-05-02 11:36:01.852,17,0,0,16.434,55.940871,-4.406299,0.00,0.00,0.00,0.30,-1.80,79.00,0,1,0,96,100,-7149,3328,16434,2979.50,4,P-GPS,1,0,0,0,0,0,0,1619951761852,4294,4275,4294,4291,0,0,27,,,,,,,0,0,0,-3.00,-18.00,790.00,-87.00,0.00,629.00,6,11.00,0.00,2.39,0.00,0.00,0.00,0,,,100,100,0,2,0,0,0,2,0,,,,,0.0,5.0,0
55.940869,-4.406298,1.10,1.20,0.00,0.24,1.10,1.10,0.50,0.25,1916,2021-05-02 10:36:01.955,2021-05-02 11:36:01.955,17,0,0,16.434,55.940871,-4.406299,0.00,0.00,0.00,0.10,-1.90,79.10,0,1,0,96,100,-7149,3328,16434,2979.50,4,P-GPS,1,0,0,0,0,0,0,1619951761955,4294,4275,4294,4291,0,0,27,,,,,,,0,0,0,-1.00,-19.00,791.00,-87.00,0.00,629.00,6,11.00,0.00,2.39,0.00,0.00,0.00,0,,,100,100,0,2,0,0,0,2,0,,,,,0.0,5.0,0
55.940869,-4.406298,1.10,1.20,0.00,0.24,1.10,1.10,0.50,0.25,2006,2021-05-02 10:36:02.045,2021-05-02 11:36:02.045,17,0,0,16.434,55.940871,-4.406299,0.00,0.00,0.00,0.00,-1.90,79.10,0,1,0,96,100,-7149,3328,16434,2979.50,4,P-GPS,1,0,0,0,0,0,0,1619951762045,4294,4275,4294,4291,0,0,27,,,,,,,0,0,0,-0.00,-19.00,791.00,-87.00,0.00,629.00,6,11.00,0.00,2.37,0.00,0.00,0.00,0,,,100,100,0,2,0,0,0,2,0,,,,,0.0,5.0,0
55.940869,-4.406298,1.10,1.20,0.00,0.24,1.10,1.10,0.50,0.25,2109,2021-05-02 10:36:02.148,2021-05-02 11:36:02.148,17,0,0,16.434,55.940871,-4.406299,0.00,0.00,0.00,0.00,-2.00,79.00,0,1,0,96,100,-7149,3328,16434,2979.50,4,P-GPS,1,0,0,0,0,0,0,1619951762148,4294,4275,4294,4291,0,0,27,,,,,,,0,0,0,-0.00,-20.00,790.00,-87.00,0.00,629.00,6,11.00,0.00,2.37,0.00,0.00,0.00,0,,,100,100,0,2,0,0,0,2,0,,,,,0.0,5.2,0
55.940869,-4.406298,1.10,1.20,0.00,0.24,1.10,1.10,0.50,0.25,2213,2021-05-02 10:36:02.252,2021-05-02 11:36:02.252,17,0,0,16.434,55.940871,-4.406299,0.00,0.00,0.00,0.10,-2.00,79.00,0,1,0,96,100,-7149,3328,16434,2979.50,4,P-GPS,1,0,0,0,0,0,0,1619951762252,4294,4275,4294,4291,0,0,27,,,,,,,0,0,0,-1.00,-20.00,790.00,-87.00,0.00,629.00,6,11.00,0.00,2.37,0.00,0.00,0.00,0,,,100,100,0,2,0,0,0,2,0,,,,,0.0,5.2,0
55.940869,-4.406298,1.10,1.10,0.00,0.23,1.10,1.10,0.50,0.25,2428,2021-05-02 10:36:02.467,2021-05-02 11:36:02.467,17,0,0,16.453,55.940871,-4.406299,0.00,0.00,0.00,-0.20,-1.80,79.10,0,1,0,96,100,-6509,3324,16453,2979.50,4,P-GPS,1,0,0,0,0,0,0,1619951762467,4294,4275,4294,4291,0,0,27,,,,,,,0,0,0,2.00,-18.00,791.00,-87.00,0.00,629.00,6,11.00,0.00,2.34,0.00,0.00,0.00,0,,,100,100,0,2,0,0,0,2,0,,,,,0.0,5.2,0
55.940869,-4.406298,1.10,1.10,0.00,0.23,1.10,1.10,0.50,0.25,2621,2021-05-02 10:36:02.660,2021-05-02 11:36:02.660,17,0,0,16.453,55.940871,-4.406299,0.00,0.00,0.00,-0.20,-1.90,79.10,0,1,0,96,100,-6509,3324,16453,2979.50,4,P-GPS,1,0,0,0,0,0,0,1619951762660,4294,4275,4294,4291,0,0,27,,,,,,,0,0,0,2.00,-19.00,791.00,-87.00,0.00,629.00,6,11.00,0.00,2.27,0.00,0.00,0.00,0,,,100,100,0,2,0,0,0,2,0,,,,,0.0,5.2,0
55.940869,-4.406298,1.10,1.10,0.00,0.23,1.10,1.10,0.50,0.25,2807,2021-05-02 10:36:02.847,2021-05-02 11:36:02.846,17,0,0,16.453,55.940871,-4.406299,0.00,0.00,0.00,0.00,-1.60,79.10,0,1,0,96,100,-6509,3324,16453,2979.50,4,P-GPS,1,0,0,0,0,0,0,1619951762846,4294,4275,4294,4291,0,0,27,,,,,,,0,0,0,-0.00,-16.00,791.00,-87.00,0.00,629.00,6,11.00,0.00,2.27,0.00,0.00,0.00,0,,,100,100,0,2,0,0,0,2,0,,,,,0.0,5.2,0
55.940869,-4.406298,1.10,1.20,0.00,0.23,1.10,1.10,0.50,0.25,2899,2021-05-02 10:36:02.938,2021-05-02 11:36:02.938,17,0,0,16.453,55.940871,-4.406299,0.00,0.00,0.00,0.00,-1.70,79.20,0,1,0,96,100,-6509,3324,16453,2979.50,4,P-GPS,1,0,0,0,0,0,0,1619951762938,4294,4275,4294,4291,0,0,27,,,,,,,0,0,0,-0.00,-17.00,792.00,-87.00,0.00,629.00,6,11.00,0.00,2.26,0.00,0.00,0.00,0,,,100,100,0,2,0,0,0,2,0,,,,,0.0,5.2,0
55.940869,-4.406298,1.10,1.10,0.00,0.22,1.10,1.10,0.50,0.25,3000,2021-05-02 10:36:03.039,2021-05-02 11:36:03.039,17,0,0,16.453,55.940871,-4.406299,0.00,0.00,0.00,0.00,-1.60,79.20,0,1,0,96,100,-6509,3324,16453,2979.50,4,P-GPS,1,0,0,0,0,0,0,1619951763039,4294,4275,4294,4291,0,0,27,,,,,,,0,0,0,-0.00,-16.00,792.00,-87.00,0.00,629.00,6,11.00,0.00,2.21,0.00,0.00,0.00,0,,,100,100,0,2,0,0,0,2,0,,,,,0.0,5.2,0
55.940869,-4.406299,1.10,1.10,0.00,0.22,1.10,1.10,0.50,0.25,3096,2021-05-02 10:36:03.135,2021-05-02 11:36:03.135,17,0,0,16.453,55.940871,-4.406299,0.00,0.00,0.00,-0.20,-1.40,79.10,0,1,0,96,100,-6509,3324,16453,2979.50,4,P-GPS,1,0,0,0,0,0,0,1619951763135,4294,4275,4294,4291,0,0,27,,,,,,,0,0,0,2.00,-14.00,791.00,-87.00,0.00,629.00,6,11.00,0.00,2.19,0.00,0.00,0.00,0,,,100,100,0,2,0,0,0,2,0,,,,,0.0,5.2,0
55.940869,-4.406299,1.10,1.10,0.00,0.20,1.10,1.10,0.50,0.25,3199,2021-05-02 10:36:03.238,2021-05-02 11:36:03.238,17,0,0,16.411,55.940871,-4.406299,0.00,0.00,0.00,-0.30,-1.40,79.10,0,1,0,96,100,-6875,3323,16411,2979.50,4,P-GPS,1,0,0,0,0,0,0,1619951763238,4294,4275,4294,4291,0,0,27,,,,,,,0,0,0,3.00,-14.00,791.00,-87.00,0.00,629.00,6,11.00,0.00,2.02,0.00,0.00,0.00,0,,,100,100,0,2,0,0,0,2,0,,,,,0.0,5.2,0
55.940869,-4.406299,1.10,1.10,0.00,0.20,1.10,1.10,0.50,0.25,3313,2021-05-02 10:36:03.352,2021-05-02 11:36:03.352,17,0,0,16.411,55.940871,-4.406299,0.00,0.00,0.00,-0.40,-1.40,79.10,0,1,0,96,100,-6875,3323,16411,2979.50,4,P-GPS,1,0,0,0,0,0,0,1619951763352,4294,4275,4294,4291,0,0,27,,,,,,,0,0,0,4.00,-14.00,791.00,-87.00,0.00,629.00,6,11.00,0.00,1.99,0.00,0.00,0.00,0,,,100,100,0,2,0,0,0,2,0,,,,,0.0,5.2,0
55.940869,-4.406299,1.10,1.10,0.00,0.20,1.10,1.10,0.50,0.25,3418,2021-05-02 10:36:03.457,2021-05-02 11:36:03.457,17,0,0,16.411,55.940871,-4.406299,0.00,0.00,0.00,-0.50,-1.50,79.20,0,1,0,96,100,-6875,3323,16411,2979.50,4,P-GPS,1,0,0,0,0,0,0,1619951763457,4294,4275,4294,4291,0,0,27,,,,,,,0,0,0,5.00,-15.00,792.00,-87.00,0.00,629.00,6,11.00,0.00,2.02,0.00,0.00,0.00,0,,,100,100,0,2,0,0,0,2,0,,,,,0.0,5.2,0
55.940869,-4.406299,1.10,1.10,0.00,0.18,1.10,1.10,0.50,0.25,3604,2021-05-02 10:36:03.643,2021-05-02 11:36:03.643,17,0,0,16.411,55.940871,-4.406299,0.00,0.00,0.00,-0.70,-1.30,79.20,0,1,0,96,100,-6875,3323,16411,2979.50,4,P-GPS,1,0,0,0,0,0,0,1619951763643,4294,4275,4294,4291,0,0,27,,,,,,,0,0,0,7.00,-13.00,792.00,-87.00,0.00,629.00,6,11.00,0.00,1.85,0.00,0.00,0.00,0,,,100,100,0,2,0,0,0,2,0,,,,,0.0,5.2,0
55.940869,-4.406299,1.10,1.10,0.00,0.18,1.10,1.10,0.50,0.25,3699,2021-05-02 10:36:03.739,2021-05-02 11:36:03.739,17,0,0,16.411,55.940871,-4.406299,0.00,0.00,0.00,-0.60,-1.40,79.20,0,1,0,96,100,-6875,3323,16411,2979.50,4,P-GPS,1,0,0,0,0,0,0,1619951763738,4294,4275,4294,4291,0,0,27,,,,,,,0,0,0,6.00,-14.00,792.00,-87.00,0.00,629.00,6,11.00,0.00,1.82,0.00,0.00,0.00,0,,,100,100,0,2,0,0,0,2,0,,,,,0.0,5.2,0
55.940869,-4.406299,1.10,1.10,0.00,0.19,1.10,1.10,0.50,0.25,3803,2021-05-02 10:36:03.842,2021-05-02 11:36:03.842,17,0,0,16.411,55.940871,-4.406299,0.00,0.00,0.00,-0.60,-1.30,79.20,0,1,0,96,100,-6875,3323,16411,2979.50,4,P-GPS,1,0,0,0,0,0,0,1619951763842,4294,4275,4294,4291,0,0,27,,,,,,,0,0,0,6.00,-13.00,792.00,-87.00,0.00,629.00,6,11.00,0.00,1.87,0.00,0.00,0.00,0,,,100,100,0,2,0,0,0,2,0,,,,,0.0,5.2,0
55.940869,-4.406299,1.10,1.10,0.00,0.19,1.10,1.10,0.50,0.25,3899,2021-05-02 10:36:03.939,2021-05-02 11:36:03.938,17,0,0,16.411,55.940871,-4.406299,0.00,0.00,0.00,-0.30,-1.50,79.30,0,1,0,96,100,-6875,3323,16411,2979.50,4,P-GPS,1,0,0,0,123,0,0,1619951763938,4123,4074,4094,4120,0,0,27,,,,,,,0,0,0,3.00,-15.00,793.00,-87.00,0.00,629.00,6,11.00,0.00,1.86,0.00,0.00,0.00,0,,,100,100,0,2,0,0,0,2,0,,,,,0.0,5.2,0
55.940870,-4.406299,1.10,1.10,0.00,0.17,1.10,1.10,0.50,0.25,3999,2021-05-02 10:36:04.038,2021-05-02 11:36:04.038,17,0,0,16.411,55.940871,-4.406299,0.00,0.00,0.00,-0.30,-1.20,79.30,0,1,0,96,100,-6875,3323,16411,2979.50,4,P-GPS,1,0,0,0,137,0,0,1619951764038,4123,4074,4094,4120,0,0,27,,,,,,,0,0,0,3.00,-12.00,793.00,-87.00,0.00,629.00,6,11.00,0.00,1.73,0.00,0.00,0.00,0,,,100,100,0,2,0,0,0,2,0,,,,,0.0,5.2,0
55.940870,-4.406299,1.10,1.10,0.00,0.17,1.10,1.10,0.50,0.25,4095,2021-05-02 10:36:04.135,2021-05-02 11:36:04.134,17,0,0,16.411,55.940871,-4.406299,0.00,0.00,0.00,-0.20,-1.10,79.30,0,1,0,96,100,-6875,3323,16411,2979.50,4,P-GPS,1,0,0,0,158,0,0,1619951764134,4123,4074,4094,4120,0,0,27,,,,,,,0,0,0,2.00,-11.00,793.00,-87.00,0.00,629.00,6,11.00,0.00,1.71,0.00,0.00,0.00,0,,,100,100,0,2,0,0,0,2,0,,,,,0.0,5.2,0
55.940870,-4.406299,1.10,1.10,0.00,0.18,1.10,1.10,0.50,0.25,4205,2021-05-02 10:36:04.245,2021-05-02 11:36:04.245,17,0,0,16.417,55.940871,-4.406299,0.00,0.00,0.00,-0.10,-1.30,79.30,0,1,0,96,100,-6744,3321,16417,2979.50,4,P-GPS,1,0,0,0,189,0,0,1619951764244,4123,4074,4094,4120,0,0,27,,,,,,,0,0,0,1.00,-13.00,793.00,-87.00,0.00,629.00,6,11.00,0.00,1.76,0.00,0.00,0.00,0,,,100,100,0,2,0,0,0,2,0,,,,,0.0,5.2,0
55.940870,-4.406299,1.10,1.20,0.10,0.18,1.10,1.10,0.50,0.25,4304,2021-05-02 10:36:04.344,2021-05-02 11:36:04.343,17,0,0,16.417,55.940871,-4.406299,0.00,0.00,-0.10,-0.10,-1.70,79.20,0,1,0,96,100,-6744,3321,16417,2979.50,4,P-GPS,1,0,0,0,191,0,0,1619951764343,4123,4074,4094,4120,0,0,27,,,,,,,0,0,0,1.00,-17.00,792.00,-87.00,0.00,629.00,6,11.00,1.00,1.76,0.00,0.00,-1.00,0,,,100,100,0,2,0,0,0,2,0,,,,,0.0,5.2,0
55.940869,-4.406299,1.10,1.20,0.20,0.18,1.10,1.10,0.50,0.25,4402,2021-05-02 10:36:04.441,2021-05-02 11:36:04.441,17,0,0,16.417,55.940871,-4.406299,0.00,0.00,-0.20,-0.30,-2.00,79.20,0,1,0,96,100,-6744,3321,16417,2979.50,4,P-GPS,1,0,0,0,193,0,0,1619951764441,4123,4074,4094,4120,0,0,27,,,,,,,0,0,0,3.00,-20.00,792.00,-87.00,0.00,629.00,6,11.00,2.00,1.81,0.00,0.00,-2.00,0,,,100,100,0,2,0,0,0,2,0,,,,,0.0,5.2,0
55.940869,-4.406299,1.10,1.20,0.20,0.18,1.10,1.10,0.50,0.25,4499,2021-05-02 10:36:04.538,2021-05-02 11:36:04.538,17,0,0,16.417,55.940871,-4.406299,0.00,0.00,-0.20,-0.40,-1.90,79.10,0,1,0,96,100,-6744,3321,16417,2979.50,4,P-GPS,1,0,0,0,193,0,0,1619951764538,4123,4074,4094,4120,0,0,27,,,,,,,0,0,0,4.00,-19.00,791.00,-87.00,0.00,629.00,6,11.00,2.00,1.81,0.00,0.00,-2.00,0,,,100,100,0,2,0,0,0,2,0,,,,,0.0,5.2,0
55.940869,-4.406299,1.10,1.20,0.20,0.18,1.10,1.10,0.50,0.25,4600,2021-05-02 10:36:04.639,2021-05-02 11:36:04.639,17,0,0,16.417,55.940871,-4.406299,0.00,0.00,-0.20,-0.30,-2.00,79.00,0,1,0,96,100,-6744,3321,16417,2979.50,4,P-GPS,1,0,0,0,193,0,0,1619951764639,4123,4074,4094,4120,0,0,27,,,,,,,0,0,0,3.00,-20.00,790.00,-87.00,0.00,629.00,6,11.00,2.00,1.81,0.00,0.00,-2.00,0,,,100,100,0,2,0,0,0,2,0,,,,,0.0,5.2,0
55.940869,-4.406299,1.20,1.20,0.20,0.18,1.20,1.20,0.50,0.25,4700,2021-05-02 10:36:04.739,2021-05-02 11:36:04.739,17,0,0,16.417,55.940871,-4.406299,0.00,0.00,-0.20,-0.20,-1.80,79.00,0,1,0,96,100,-6744,3321,16417,2979.50,4,P-GPS,1,0,0,0,193,0,0,1619951764739,4123,4074,4094,4120,0,0,27,,,,,,,0,0,0,2.00,-18.00,790.00,-87.00,0.00,629.00,6,12.00,2.00,1.80,0.00,0.00,-2.00,0,,,100,100,0,2,0,0,0,2,0,,,,,0.0,5.2,0
55.940870,-4.406299,1.20,1.20,0.20,0.18,1.20,1.20,0.50,0.25,4800,2021-05-02 10:36:04.839,2021-05-02 11:36:04.839,17,0,0,16.417,55.940871,-4.406299,0.00,0.00,-0.20,-0.40,-1.80,78.90,0,1,0,96,100,-6744,3321,16417,2979.50,4,P-GPS,1,0,0,0,197,0,0,1619951764839,4123,4074,4094,4120,0,0,27,,,,,,,0,0,0,4.00,-18.00,789.00,-87.00,0.00,629.00,6,12.00,2.00,1.79,0.00,0.00,-2.00,0,,,100,100,0,2,0,0,0,2,0,,,,,0.0,5.2,0
55.940870,-4.406299,1.20,1.30,0.20,0.18,1.20,1.20,0.50,0.25,4900,2021-05-02 10:36:04.939,2021-05-02 11:36:04.939,17,0,0,16.417,55.940871,-4.406299,0.00,0.00,-0.20,-0.70,-1.80,79.00,0,1,0,96,100,-6744,3321,16417,2979.50,4,P-GPS,1,0,0,0,213,0,0,1619951764939,4123,4074,4094,4120,0,0,27,,,,,,,0,0,0,7.00,-18.00,790.00,-87.00,0.00,629.00,6,12.00,2.00,1.78,0.00,0.00,-2.00,0,,,100,100,0,2,0,0,0,2,0,,,,,0.0,5.3,0
55.940870,-4.406299,1.20,1.30,0.20,0.16,1.20,1.20,0.50,0.25,5002,2021-05-02 10:36:05.041,2021-05-02 11:36:05.041,17,0,0,16.417,55.940871,-4.406299,0.00,0.00,-0.20,-0.70,-1.90,79.00,0,1,0,96,100,-6744,3321,16417,2979.50,4,P-GPS,1,0,0,0,241,0,0,1619951765041,4123,4074,4094,4120,0,0,27,,,,,,,0,0,0,7.00,-19.00,790.00,-87.00,0.00,629.00,6,12.00,2.00,1.62,0.00,0.00,-2.00,0,,,100,100,0,2,0,0,0,2,0,,,,,0.0,5.3,0
55.940870,-4.406299,1.30,1.30,0.30,0.16,1.30,1.30,0.50,0.25,5099,2021-05-02 10:36:05.138,2021-05-02 11:36:05.138,17,0,0,16.417,55.940871,-4.406299,0.00,0.00,-0.30,-0.50,-1.80,79.10,0,1,0,96,100,-6744,3321,16417,2979.50,4,P-GPS,1,0,0,0,289,0,0,1619951765138,4123,4074,4094,4120,0,0,27,,,,,,,0,0,0,5.00,-18.00,791.00,-87.00,0.00,629.00,6,13.00,3.00,1.59,0.00,0.00,-3.00,0,,,100,100,0,2,0,0,0,2,0,,,,,0.0,5.3,0
55.940870,-4.406299,1.30,1.40,0.40,0.16,1.30,1.30,0.50,0.25,5200,2021-05-02 10:36:05.239,2021-05-02 11:36:05.239,17,0,0,16.417,55.940871,-4.406299,0.00,0.00,-0.40,-0.20,-1.60,79.10,0,1,0,96,100,-6744,3321,16417,2979.50,4,P-GPS,1,0,0,0,320,0,0,1619951765239,4123,4074,4094,4120,0,0,27,,,,,,,0,0,0,2.00,-16.00,791.00,-87.00,0.00,629.00,6,13.00,4.00,1.60,0.00,0.00,-4.00,0,,,100,100,0,2,0,0,0,2,0,,,,,0.0,5.3,0
55.940870,-4.406299,1.30,1.40,0.60,0.16,1.30,1.30,0.60,0.25,5304,2021-05-02 10:36:05.343,2021-05-02 11:36:05.343,17,0,0,16.386,55.940871,-4.406299,0.00,0.00,-0.60,-0.30,-1.50,79.00,0,1,0,96,100,-6995,3319,16386,2979.50,4,P-GPS,1,0,0,0,333,0,0,1619951765343,4123,4074,4094,4120,0,0,27,,,,,,,0,0,0,3.00,-15.00,790.00,-87.00,0.00,629.00,6,13.00,6.00,1.57,0.00,0.00,-6.00,0,,,100,100,0,2,0,0,0,2,0,,,,,0.0,5.3,0
55.940870,-4.406299,1.40,1.50,0.70,0.16,1.40,1.40,0.70,0.25,5403,2021-05-02 10:36:05.442,2021-05-02 11:36:05.442,17,0,0,16.386,55.940871,-4.406299,0.00,0.00,-0.70,-0.30,-1.70,79.00,0,1,0,96,100,-6995,3319,16386,2979.50,4,P-GPS,1,0,0,0,367,0,0,1619951765442,4123,4074,4094,4120,0,0,27,,,,,,,0,0,0,3.00,-17.00,790.00,-87.00,0.00,629.00,6,14.00,7.00,1.60,0.00,0.00,-7.00,0,,,100,100,0,2,0,0,0,2,0,,,,,0.0,5.3,0
55.940870,-4.406299,1.50,1.60,0.90,0.16,1.50,1.50,0.90,0.25,5505,2021-05-02 10:36:05.544,2021-05-02 11:36:05.544,17,0,0,16.386,55.940871,-4.406299,0.00,0.00,-0.90,0.00,-1.90,79.00,0,1,0,96,100,-6995,3319,16386,2979.50,4,P-GPS,1,0,0,0,367,0,0,1619951765544,4123,4074,4094,4120,0,0,27,,,,,,,0,0,0,-0.00,-19.00,790.00,-87.00,0.00,629.00,6,15.00,9.00,1.56,0.00,0.00,-9.00,0,,,100,100,0,2,0,0,0,2,0,,,,,0.0,5.3,0
55.940870,-4.406299,1.60,1.70,1.00,0.16,1.60,1.60,1.00,0.25,5606,2021-05-02 10:36:05.645,2021-05-02 11:36:05.645,17,0,0,16.386,55.940871,-4.406299,0.00,0.00,-1.00,0.30,-1.80,79.00,0,1,0,96,100,-6995,3319,16386,2979.50,4,P-GPS,1,0,0,0,366,0,0,1619951765645,4123,4074,4094,4120,0,0,27,,,,,,,0,0,0,-3.00,-18.00,790.00,-87.00,0.00,629.00,6,16.00,10.00,1.61,0.00,0.00,-10.00,0,,,100,100,0,2,0,0,0,2,0,,,,,0.0,5.3,0
55.940870,-4.406299,1.70,1.70,1.00,0.16,1.70,1.70,1.00,0.25,5702,2021-05-02 10:36:05.741,2021-05-02 11:36:05.741,17,0,0,16.386,55.940871,-4.406299,0.00,0.00,-1.00,0.50,-1.50,79.20,0,1,0,96,100,-6995,3319,16386,2979.50,4,P-GPS,1,0,0,0,366,0,0,1619951765741,4123,4074,4094,4120,0,0,27,,,,,,,0,0,0,-5.00,-15.00,792.00,-87.00,0.00,629.00,6,17.00,10.00,1.57,0.00,0.00,-10.00,0,,,100,100,0,2,0,0,0,2,0,,,,,0.0,5.3,0
55.940870,-4.406299,1.80,1.90,1.10,0.16,1.80,1.80,1.10,0.25,5808,2021-05-02 10:36:05.847,2021-05-02 11:36:05.847,17,0,0,16.386,55.940871,-4.406299,0.00,0.00,-1.10,0.10,-1.20,79.30,0,1,0,96,100,-6995,3319,16386,2979.50,4,P-GPS,1,0,0,0,366,0,0,1619951765847,4123,4074,4094,4120,0,0,27,,,,,,,0,0,0,-1.00,-12.00,793.00,-87.00,0.00,629.00,6,18.00,11.00,1.60,0.00,0.00,-11.00,0,,,100,100,0,2,0,0,0,2,0,,,,,0.0,5.3,0
55.940870,-4.406299,1.90,2.00,1.10,0.16,1.90,1.90,1.10,0.25,5902,2021-05-02 10:36:05.941,2021-05-02 11:36:05.941,17,0,0,16.386,55.940871,-4.406299,0.00,0.00,-1.10,-0.10,-1.30,79.30,0,1,0,96,100,-6995,3319,16386,2979.50,4,P-GPS,1,0,0,0,365,0,0,1619951765941,4123,4074,4094,4120,0,0,27,,,,,,,0,0,0,1.00,-13.00,793.00,-87.00,0.00,629.00,6,19.00,11.00,1.57,0.00,0.00,-11.00,0,,,100,100,0,2,0,0,0,2,0,,,,,0.0,5.3,0
55.940870,-4.406299,2.00,2.10,1.10,0.15,2.00,2.00,1.10,0.25,6002,2021-05-02 10:36:06.041,2021-05-02 11:36:06.041,17,0,0,16.386,55.940871,-4.406299,0.00,0.00,-1.10,-0.10,-1.50,79.30,0,1,0,96,100,-6995,3319,16386,2979.50,4,P-GPS,1,0,0,0,363,0,0,1619951766041,4123,4074,4094,4120,0,0,27,,,,,,,0,0,0,1.00,-15.00,793.00,-87.00,0.00,629.00,6,20.00,11.00,1.45,0.00,0.00,-11.00,0,,,100,100,0,2,0,0,0,2,0,,,,,0.0,5.3,0
55.940870,-4.406299,2.10,2.20,1.10,0.14,2.10,2.10,1.10,0.25,6103,2021-05-02 10:36:06.142,2021-05-02 11:36:06.142,17,0,0,16.386,55.940871,-4.406299,0.00,0.00,-1.10,-0.20,-1.50,79.30,0,1,0,96,100,-6995,3319,16386,2979.50,4,P-GPS,1,0,0,0,353,0,0,1619951766142,4123,4074,4094,4120,0,0,27,,,,,,,0,0,0,2.00,-15.00,793.00,-87.00,0.00,629.00,6,21.00,11.00,1.42,0.00,0.00,-11.00,0,,,100,100,0,2,0,0,0,2,0,,,,,0.0,5.3,0
55.940870,-4.406299,2.20,2.30,1.00,0.14,2.20,2.20,1.10,0.25,6206,2021-05-02 10:36:06.245,2021-05-02 11:36:06.245,17,0,0,16.386,55.940871,-4.406299,0.00,0.00,-1.00,-0.30,-1.60,79.30,0,1,0,96,100,-6995,3319,16386,2979.50,4,P-GPS,1,0,0,0,353,0,0,1619951766245,4123,4074,4094,4120,0,0,27,,,,,,,0,0,0,3.00,-16.00,793.00,-87.00,0.00,629.00,6,22.00,10.00,1.35,0.00,0.00,-10.00,0,,,100,100,0,2,0,0,0,2,0,,,,,0.0,5.3,0
55.940870,-4.406299,2.30,2.40,1.00,0.13,2.30,2.30,1.10,0.25,6304,2021-05-02 10:36:06.343,2021-05-02 11:36:06.343,17,0,0,16.386,55.940871,-4.406299,0.00,0.00,-1.00,-0.10,-1.60,79.20,0,1,0,96,100,-6995,3319,16386,2979.50,4,P-GPS,1,0,0,0,357,0,0,1619951766343,4123,4074,4094,4120,0,0,27,,,,,,,0,0,0,1.00,-16.00,792.00,-87.00,0.00,629.00,6,23.00,10.00,1.32,0.00,0.00,-10.00,0,,,100,100,0,2,0,0,0,2,0,,,,,0.0,5.3,0
55.940870,-4.406299,2.50,2.50,1.00,0.14,2.50,2.50,1.10,0.25,6403,2021-05-02 10:36:06.442,2021-05-02 11:36:06.442,17,0,0,16.386,55.940871,-4.406299,0.00,0.00,-1.00,0.00,-1.40,79.20,0,1,0,96,100,-6995,3319,16386,2979.50,4,P-GPS,1,0,0,0,365,0,0,1619951766442,4123,4074,4094,4120,0,0,27,,,,,,,0,0,0,-0.00,-14.00,792.00,-87.00,0.00,629.00,6,25.00,10.00,1.40,0.00,0.00,-10.00,0,,,100,100,0,2,0,0,0,2,0,,,,,0.0,5.3,0
55.940870,-4.406299,2.60,2.60,1.00,0.14,2.60,2.60,1.10,0.25,6500,2021-05-02 10:36:06.539,2021-05-02 11:36:06.539,17,0,0,16.386,55.940871,-4.406299,0.00,0.00,-1.00,0.00,-1.30,79.20,0,1,0,96,100,-6995,3319,16386,2979.50,4,P-GPS,1,0,0,0,367,0,0,1619951766539,4123,4074,4094,4120,0,0,27,,,,,,,0,0,0,-0.00,-13.00,792.00,-87.00,0.00,629.00,6,26.00,10.00,1.38,0.00,0.00,-10.00,0,,,100,100,0,2,0,0,0,2,0,,,,,0.0,5.3,0
55.940870,-4.406299,2.70,2.70,1.00,0.13,2.70,2.70,1.10,0.25,6602,2021-05-02 10:36:06.641,2021-05-02 11:36:06.641,17,0,0,16.386,55.940871,-4.406299,0.00,0.00,-1.00,-0.30,-1.50,79.10,0,1,0,96,100,-6995,3319,16386,2979.50,4,P-GPS,1,0,0,0,384,0,0,1619951766641,4123,4074,4094,4120,0,0,27,,,,,,,0,0,0,3.00,-15.00,791.00,-87.00,0.00,629.00,6,27.00,10.00,1.27,0.00,0.00,-10.00,0,,,100,100,0,2,0,0,0,2,0,,,,,0.0,5.3,0
55.940870,-4.406299,2.80,2.80,1.10,0.13,2.80,2.80,1.10,0.25,6703,2021-05-02 10:36:06.743,2021-05-02 11:36:06.743,17,0,0,16.386,55.940871,-4.406299,0.00,0.00,-1.10,-0.40,-1.50,79.10,0,1,0,96,100,-6995,3319,16386,2979.50,4,P-GPS,1,0,0,0,414,0,0,1619951766742,4123,4074,4094,4120,0,0,27,,,,,,,0,0,0,4.00,-15.00,791.00,-87.00,0.00,629.00,6,28.00,11.00,1.26,0.00,0.00,-11.00,0,,,100,100,0,2,0,0,0,2,0,,,,,0.0,5.3,0
55.940870,-4.406299,2.90,2.90,1.20,0.13,2.90,2.90,1.20,0.25,6806,2021-05-02 10:36:06.845,2021-05-02 11:36:06.845,17,0,0,16.307,55.940871,-4.406299,0.00,0.00,-1.20,-0.50,-1.60,79.10,0,1,0,96,100,-7903,3317,16307,2980.50,4,P-GPS,1,0,0,0,452,0,0,1619951766845,4123,4074,4094,4120,0,0,27,,,,,,,0,0,0,5.00,-16.00,791.00,-87.00,0.00,629.00,6,29.00,12.00,1.34,0.00,0.00,-12.00,0,,,100,100,0,2,0,0,0,2,0,,,,,0.0,0.0,0
55.940870,-4.406299,3.00,3.00,1.40,0.13,3.00,3.00,1.40,0.25,6905,2021-05-02 10:36:06.944,2021-05-02 11:36:06.944,17,0,0,16.307,55.940871,-4.406299,0.00,0.00,-1.40,-0.70,-1.70,79.10,0,1,0,96,100,-7903,3317,16307,2980.50,4,P-GPS,1,0,0,0,464,0,0,1619951766944,4123,4074,4094,4120,0,0,27,,,,,,,0,0,0,7.00,-17.00,791.00,-87.00,0.00,629.00,6,30.00,14.00,1.35,0.00,0.00,-14.00,0,,,100,100,0,2,0,0,0,2,0,,,,,0.0,0.0,0
55.940870,-4.406300,3.20,3.20,1.60,0.16,3.20,3.20,1.60,0.25,7017,2021-05-02 10:36:07.056,2021-05-02 11:36:07.056,17,0,0,16.307,55.940871,-4.406299,0.00,0.00,-1.60,-0.70,-1.70,79.20,0,1,0,96,100,-7903,3317,16307,2980.50,4,P-GPS,1,0,0,0,465,0,0,1619951767056,4123,4074,4094,4120,0,0,27,,,,,,,0,0,0,7.00,-17.00,792.00,-87.00,0.00,629.00,6,32.00,16.00,1.56,0.00,0.00,-16.00,0,,,100,100,0,2,0,0,0,2,0,,,,,0.0,0.0,0
55.940870,-4.406300,3.30,3.40,1.70,0.16,3.30,3.30,1.70,0.25,7103,2021-05-02 10:36:07.143,2021-05-02 11:36:07.142,17,0,0,16.307,55.940871,-4.406299,0.00,0.00,-1.70,-0.70,-1.80,79.20,0,1,0,96,100,-7903,3317,16307,2980.50,4,P-GPS,1,0,0,0,471,0,0,1619951767142,4123,4074,4094,4120,0,0,27,,,,,,,0,0,0,7.00,-18.00,792.00,-87.00,0.00,629.00,6,33.00,17.00,1.59,0.00,0.00,-17.00,0,,,100,100,0,2,0,0,0,2,0,,,,,0.0,0.0,0
55.940870,-4.406300,3.50,3.60,1.80,0.14,3.50,3.50,1.80,0.25,7204,2021-05-02 10:36:07.243,2021-05-02 11:36:07.243,17,0,0,16.307,55.940871,-4.406299,0.00,0.00,-1.80,-0.80,-2.10,79.20,0,1,0,96,100,-7903,3317,16307,2980.50,4,P-GPS,1,0,0,0,478,0,0,1619951767243,4123,4074,4094,4120,0,0,27,,,,,,,0,0,0,8.00,-21.00,792.00,-87.00,0.00,629.00,6,35.00,18.00,1.39,0.00,0.00,-18.00,0,,,100,100,0,2,0,0,0,2,0,,,,,0.0,0.0,0
55.940870,-4.406300,3.70,3.70,1.90,0.14,3.70,3.70,1.90,0.25,7310,2021-05-02 10:36:07.349,2021-05-02 11:36:07.349,17,0,0,16.161,55.940871,-4.406299,0.00,0.00,-1.90,-0.70,-2.30,79.20,0,1,0,96,100,-7804,3315,16161,2980.50,4,P-GPS,1,0,0,0,480,0,0,1619951767349,4123,4074,4094,4120,0,0,27,,,,,,,0,0,0,7.00,-23.00,792.00,-87.00,0.00,629.00,6,37.00,19.00,1.39,0.00,0.00,-19.00,0,,,100,100,0,2,0,0,0,2,0,,,,,0.0,0.0,0
55.940870,-4.406299,3.90,3.90,1.90,0.17,3.90,3.90,1.90,0.25,7404,2021-05-02 10:36:07.443,2021-05-02 11:36:07.443,17,0,0,16.161,55.940871,-4.406299,0.00,0.00,-1.90,-0.80,-2.30,79.20,0,1,0,96,100,-7804,3315,16161,2980.50,4,P-GPS,1,0,0,0,480,0,0,1619951767443,4123,4074,4094,4120,0,0,27,,,,,,,0,0,0,8.00,-23.00,792.00,-87.00,0.00,629.00,6,39.00,19.00,1.68,0.00,0.00,-19.00,0,,,100,100,0,2,0,0,0,2,0,,,,,0.0,0.0,0
55.940870,-4.406299,4.10,4.10,2.00,0.17,4.10,4.10,2.00,0.25,7501,2021-05-02 10:36:07.541,2021-05-02 11:36:07.540,17,0,0,16.161,55.940871,-4.406299,0.00,0.00,-2.00,-0.70,-2.30,79.20,0,1,0,96,100,-7804,3315,16161,2980.50,4,P-GPS,1,0,0,0,479,0,0,1619951767540,4123,4074,4094,4120,0,0,27,,,,,,,0,0,0,7.00,-23.00,792.00,-87.00,0.00,629.00,6,41.00,20.00,1.68,0.00,0.00,-20.00,0,,,100,100,0,2,0,0,0,2,0,,,,,0.0,0.0,0
55.940870,-4.406300,4.30,4.30,2.00,0.16,4.30,4.30,2.00,0.25,7604,2021-05-02 10:36:07.643,2021-05-02 11:36:07.643,17,0,0,16.161,55.940871,-4.406299,0.00,0.00,-2.00,-0.50,-1.80,79.20,0,1,0,96,100,-7804,3315,16161,2980.50,4,P-GPS,1,0,0,0,477,0,0,1619951767643,4123,4074,4094,4120,0,0,27,,,,,,,0,0,0,5.00,-18.00,792.00,-87.00,0.00,629.00,6,43.00,20.00,1.59,0.00,0.00,-20.00,0,,,100,100,0,2,0,0,0,2,0,,,,,0.0,0.0,0
55.940870,-4.406300,4.50,4.50,2.00,0.16,4.50,4.50,2.00,0.25,7695,2021-05-02 10:36:07.734,2021-05-02 11:36:07.734,17,0,0,16.161,55.940871,-4.406299,0.00,0.00,-2.00,-0.40,-1.30,79.30,0,1,0,96,100,-7804,3315,16161,2980.50,4,P-GPS,1,0,0,0,476,0,0,1619951767734,4123,4074,4094,4120,0,0,27,,,,,,,0,0,0,4.00,-13.00,793.00,-87.00,0.00,629.00,6,45.00,20.00,1.56,0.00,0.00,-20.00,0,,,100,100,0,2,0,0,0,2,0,,,,,0.0,0.0,0
55.940870,-4.406300,4.70,4.70,2.00,0.17,4.70,4.70,2.00,0.25,7819,2021-05-02 10:36:07.858,2021-05-02 11:36:07.858,17,0,0,16.161,55.940871,-4.406299,0.00,0.00,-2.00,-0.70,-1.50,79.30,0,1,0,96,100,-7804,3315,16161,2980.50,4,P-GPS,1,0,0,0,459,0,0,1619951767858,4123,4074,4094,4120,0,0,27,,,,,,,0,0,0,7.00,-15.00,793.00,-87.00,0.00,629.00,6,47.00,20.00,1.67,0.00,0.00,-20.00,0,,,100,100,0,2,0,0,0,2,0,,,,,0.0,0.0,0
55.940870,-4.406300,4.90,4.90,1.90,0.17,4.90,4.90,2.00,0.25,7909,2021-05-02 10:36:07.948,2021-05-02 11:36:07.948,17,0,0,16.161,55.940871,-4.406299,0.00,0.00,-1.90,-0.60,-1.70,79.30,0,1,0,96,100,-7804,3315,16161,2980.50,4,P-GPS,1,0,0,0,458,0,0,1619951767948,4123,4074,4094,4120,0,0,27,,,,,,,0,0,0,6.00,-17.00,793.00,-87.00,0.00,629.00,6,49.00,19.00,1.67,0.00,0.00,-19.00,0,,,100,100,0,2,0,0,0,2,0,,,,,0.0,0.0,0
55.940870,-4.406300,5.10,5.10,1.80,0.15,5.10,5.10,2.00,0.25,8002,2021-05-02 10:36:08.041,2021-05-02 11:36:08.041,17,0,0,16.161,55.940871,-4.406299,0.00,0.00,-1.80,-0.50,-1.50,79.20,0,1,0,96,100,-7804,3315,16161,2980.50,4,P-GPS,1,0,0,0,448,0,0,1619951768041,4123,4074,4094,4120,0,0,27,,,,,,,0,0,0,5.00,-15.00,792.00,-87.00,0.00,629.00,6,51.00,18.00,1.54,0.00,0.00,-18.00,0,,,100,100,0,2,0,0,0,2,0,,,,,0.0,0.0,0
55.940870,-4.406300,5.30,5.20,1.80,0.15,5.30,5.30,2.00,0.25,8109,2021-05-02 10:36:08.148,2021-05-02 11:36:08.148,17,0,0,16.161,55.940871,-4.406299,0.00,0.00,-1.80,-0.20,-1.40,79.20,0,1,0,96,100,-7804,3315,16161,2980.50,4,P-GPS,1,0,0,0,401,0,0,1619951768148,4123,4074,4094,4120,0,0,27,,,,,,,0,0,0,2.00,-14.00,792.00,-87.00,0.00,629.00,6,53.00,18.00,1.53,0.00,0.00,-18.00,0,,,100,100,0,2,0,0,0,2,0,,,,,0.0,0.0,0
55.940870,-4.406300,5.40,5.40,1.60,0.17,5.40,5.40,2.00,0.25,8204,2021-05-02 10:36:08.243,2021-05-02 11:36:08.243,17,0,0,16.161,55.940871,-4.406299,0.00,0.00,-1.60,-0.10,-1.40,79.20,0,1,0,96,100,-7804,3315,16161,2980.50,4,P-GPS,1,0,0,0,399,0,0,1619951768243,4123,4074,4094,4120,0,0,27,,,,,,,0,0,0,1.00,-14.00,792.00,-87.00,0.00,629.00,6,54.00,16.00,1.74,0.00,0.00,-16.00,0,,,100,100,0,2,0,0,0,2,0,,,,,0.0,0.0,0
55.940870,-4.406300,5.60,5.50,1.40,0.18,5.60,5.60,2.00,0.25,8305,2021-05-02 10:36:08.344,2021-05-02 11:36:08.344,17,0,0,16.161,55.940871,-4.406299,0.00,0.00,-1.40,0.00,-1.40,79.20,0,1,0,96,100,-7804,3315,16161,2980.50,4,P-GPS,1,0,0,0,390,0,0,1619951768344,4123,4074,4094,4120,0,0,27,,,,,,,0,0,0,-0.00,-14.00,792.00,-87.00,0.00,629.00,6,56.00,14.00,1.78,0.00,0.00,-14.00,0,,,100,100,0,2,0,0,0,2,0,,,,,0.0,0.0,0
55.940869,-4.406300,5.70,5.70,1.30,0.20,5.70,5.70,2.00,0.25,8404,2021-05-02 10:36:08.443,2021-05-02 11:36:08.443,17,0,0,16.161,55.940871,-4.406299,0.00,0.00,-1.30,0.00,-1.90,79.20,0,1,0,96,100,-7804,3315,16161,2980.50,4,P-GPS,1,0,0,0,355,0,0,1619951768443,4123,4074,4094,4120,0,0,27,,,,,,,0,0,0,-0.00,-19.00,792.00,-87.00,0.00,629.00,6,57.00,13.00,1.99,0.00,0.00,-13.00,0,,,100,100,0,2,0,0,0,2,0,,,,,0.0,0.0,0
55.940869,-4.406300,5.90,5.80,1.20,0.21,5.90,5.90,2.00,0.25,8511,2021-05-02 10:36:08.550,2021-05-02 11:36:08.550,17,0,0,16.161,55.940871,-4.406299,0.00,0.00,-1.20,-0.20,-2.40,79.20,0,1,0,96,100,-7804,3315,16161,2980.50,4,P-GPS,1,0,0,0,347,0,0,1619951768550,4123,4074,4094,4120,0,0,27,,,,,,,0,0,0,2.00,-24.00,792.00,-87.00,0.00,629.00,6,59.00,12.00,2.07,0.00,0.00,-12.00,0,,,100,100,0,2,0,0,0,2,0,,,,,0.0,0.0,0
55.940869,-4.406300,6.00,5.90,1.00,0.21,6.00,6.00,2.00,0.25,8607,2021-05-02 10:36:08.647,2021-05-02 11:36:08.646,17,0,0,16.161,55.940871,-4.406299,0.00,0.00,-1.00,-0.30,-2.50,79.10,0,1,0,96,100,-7804,3315,16161,2980.50,4,P-GPS,1,0,0,0,381,0,0,1619951768646,4123,4074,4094,4120,0,0,27,,,,,,,0,0,0,3.00,-25.00,791.00,-87.00,0.00,629.00,6,60.00,10.00,2.08,0.00,0.00,-10.00,0,,,100,100,0,2,0,0,0,2,0,,,,,0.0,0.0,0
55.940869,-4.406300,6.10,6.00,1.10,0.22,6.10,6.10,2.00,0.25,8706,2021-05-02 10:36:08.745,2021-05-02 11:36:08.745,17,0,0,16.161,55.940871,-4.406299,0.00,0.00,-1.10,-0.20,-2.30,79.10,0,1,0,96,100,-7804,3315,16161,2980.50,4,P-GPS,1,0,0,0,445,0,0,1619951768745,4123,4074,4094,4120,0,0,27,,,,,,,0,0,0,2.00,-23.00,791.00,-87.00,0.00,629.00,6,61.00,11.00,2.16,0.00,0.00,-11.00,0,,,100,100,0,2,0,0,0,2,0,,,,,0.0,0.0,0
55.940869,-4.406300,6.20,6.10,1.30,0.21,6.20,6.20,2.00,0.25,8809,2021-05-02 10:36:08.849,2021-05-02 11:36:08.848,17,0,0,16.338,55.940871,-4.406299,0.00,0.00,-1.30,0.00,-2.00,79.00,0,1,0,96,100,-6820,3313,16338,2980.50,4,P-GPS,1,0,0,0,448,0,0,1619951768848,4123,4074,4094,4120,0,0,27,,,,,,,0,0,0,-0.00,-20.00,790.00,-87.00,0.00,629.00,6,62.00,13.00,2.07,0.00,0.00,-13.00,0,,,100,100,0,2,0,0,0,2,0,,,,,0.0,0.0,0
55.940869,-4.406300,6.40,6.30,1.50,0.21,6.40,6.40,2.00,0.25,8897,2021-05-02 10:36:08.936,2021-05-02 11:36:08.936,17,0,0,16.338,55.940871,-4.406299,0.00,0.00,-1.50,0.10,-2.60,79.20,0,1,0,96,100,-6820,3313,16338,2980.50,4,P-GPS,1,0,0,0,448,0,0,1619951768936,4123,4074,4094,4120,0,0,27,,,,,,,0,0,0,-1.00,-26.00,792.00,-87.00,0.00,629.00,6,64.00,15.00,2.15,0.00,0.00,-15.00,0,,,100,100,0,2,0,0,0,2,0,,,,,0.0,0.0,0
55.940869,-4.406300,6.50,6.40,1.50,0.22,6.50,6.50,2.00,0.25,9005,2021-05-02 10:36:09.044,2021-05-02 11:36:09.044,17,0,0,16.338,55.940871,-4.406299,0.00,0.00,-1.50,0.30,-3.40,79.10,0,1,0,96,100,-6820,3313,16338,2980.50,4,P-GPS,1,0,0,0,442,0,0,1619951769044,4123,4074,4094,4120,0,0,27,,,,,,,0,0,0,-3.00,-34.00,791.00,-87.00,0.00,629.00,6,65.00,15.00,2.18,0.00,0.00,-15.00,0,,,100,100,0,2,0,0,0,2,0,,,,,0.0,0.0,0
55.940869,-4.406300,6.70,6.60,1.60,0.22,6.70,6.70,2.00,0.25,9108,2021-05-02 10:36:09.147,2021-05-02 11:36:09.147,17,0,0,16.338,55.940871,-4.406299,0.00,0.00,-1.60,0.50,-3.40,79.10,0,1,0,96,100,-6820,3313,16338,2980.50,4,P-GPS,1,0,0,0,406,0,0,1619951769147,4123,4074,4094,4120,0,0,27,,,,,,,0,0,0,-5.00,-34.00,791.00,-87.00,0.00,629.00,6,67.00,16.00,2.24,0.00,0.00,-16.00,0,,,100,100,0,2,0,0,0,2,0,,,,,0.0,0.0,0
55.940869,-4.406300,6.80,6.70,1.50,0.24,6.80,6.80,2.00,0.25,9197,2021-05-02 10:36:09.237,2021-05-02 11:36:09.237,17,0,0,16.338,55.940871,-4.406299,0.00,0.00,-1.50,0.10,-3.50,79.10,0,1,0,96,100,-6820,3313,16338,2980.50,4,P-GPS,1,0,0,0,389,0,0,1619951769236,4123,4074,4094,4120,0,0,27,,,,,,,0,0,0,-1.00,-35.00,791.00,-87.00,0.00,629.00,6,68.00,15.00,2.42,0.00,0.00,-15.00,0,,,100,100,0,2,0,0,0,2,0,,,,,0.0,0.0,0
55.940869,-4.406300,6.90,6.80,1.30,0.25,6.90,6.90,2.00,0.25,9310,2021-05-02 10:36:09.349,2021-05-02 11:36:09.349,17,0,0,16.338,55.940871,-4.406299,0.00,0.00,-1.30,-0.10,-3.30,79.20,0,1,0,96,100,-6820,3313,16338,2980.50,4,P-GPS,1,0,82,0,378,0,0,1619951769349,4123,4074,4094,4120,0,0,27,,,,,,,0,0,0,1.00,-33.00,792.00,-87.00,0.00,629.00,6,69.00,13.00,2.48,0.00,0.00,-13.00,0,,,100,100,0,2,0,0,0,2,0,,,,,0.0,0.0,0
55.940869,-4.406300,7.10,6.90,1.20,0.25,7.10,7.10,2.00,0.25,9407,2021-05-02 10:36:09.446,2021-05-02 11:36:09.446,17,0,0,16.338,55.940871,-4.406299,0.00,0.00,-1.20,-0.70,-3.00,79.20,0,1,0,96,100,-6820,3313,16338,2980.50,4,P-GPS,1,0,117,0,375,0,0,1619951769446,4123,4074,4094,4120,0,0,27,,,,,,,0,0,0,7.00,-30.00,792.00,-87.00,0.00,629.00,6,71.00,12.00,2.47,0.00,0.00,-12.00,0,,,100,100,0,2,0,0,0,2,0,,,,,0.0,0.0,0
55.940869,-4.406300,7.20,7.00,1.10,0.25,7.20,7.20,2.00,0.25,9495,2021-05-02 10:36:09.534,2021-05-02 11:36:09.534,17,0,0,16.338,55.940871,-4.406299,0.00,0.00,-1.10,-1.50,-3.00,79.20,0,1,0,96,100,-6820,3313,16338,2980.50,4,P-GPS,1,0,251,0,365,0,0,1619951769534,4123,4074,4094,4120,0,0,27,,,,,,,0,0,0,15.00,-30.00,792.00,-87.00,0.00,629.00,6,72.00,11.00,2.53,0.00,0.00,-11.00,0,,,100,100,0,2,0,0,0,2,0,,,,,0.0,0.0,0
55.940869,-4.406300,7.30,7.10,1.10,0.24,7.30,7.30,2.00,0.25,9598,2021-05-02 10:36:09.638,2021-05-02 11:36:09.638,17,0,0,16.338,55.940871,-4.406299,0.00,0.00,-1.10,-3.00,-3.00,79.20,0,1,0,96,100,-6820,3313,16338,2980.50,4,P-GPS,1,0,294,0,362,0,0,1619951769637,4123,4074,4094,4120,0,0,27,,,,,,,0,0,0,30.00,-30.00,792.00,-87.00,0.00,629.00,6,73.00,11.00,2.40,0.00,0.00,-11.00,0,,,100,100,0,2,0,0,0,2,0,,,,,0.0,0.0,0
55.940869,-4.406300,7.40,7.20,1.00,0.24,7.40,7.40,2.00,0.25,9703,2021-05-02 10:36:09.743,2021-05-02 11:36:09.742,17,0,0,16.338,55.940871,-4.406299,0.00,0.00,-1.00,-4.80,-2.80,79.20,0,1,0,96,100,-6820,3313,16338,2980.50,4,P-GPS,1,0,310,0,363,0,0,1619951769742,4123,4074,4094,4120,0,0,27,,,,,,,0,0,0,48.00,-28.00,792.00,-87.00,0.00,629.00,6,74.00,10.00,2.43,0.00,0.00,-10.00,0,,,100,100,0,2,0,0,0,2,0,,,,,0.0,0.0,0
55.940869,-4.406300,7.50,7.30,1.00,0.25,7.50,7.50,2.00,0.25,9797,2021-05-02 10:36:09.837,2021-05-02 11:36:09.836,17,0,0,16.216,55.940871,-4.406299,0.00,0.10,-1.00,-5.90,-2.70,79.30,0,1,0,96,100,-7448,3311,16216,2980.50,4,P-GPS,1,0,310,0,363,0,0,1619951769836,4123,4074,4094,4120,0,0,27,,,,,,,0,0,0,59.00,-27.00,793.00,-87.00,0.00,629.00,6,75.00,10.05,2.50,0.00,1.00,-10.00,0,,,100,100,0,2,0,0,0,2,0,,,,,0.0,0.0,0
55.940869,-4.406300,7.60,7.40,1.02,0.25,7.60,7.60,2.00,0.25,9907,2021-05-02 10:36:09.947,2021-05-02 11:36:09.946,17,0,0,16.216,55.940871,-4.406299,0.00,0.20,-1.00,-6.60,-2.80,79.40,0,1,0,96,100,-7448,3311,16216,2980.50,4,P-GPS,1,0,312,0,363,0,0,1619951769946,4123,4074,4094,4120,0,0,27,,,,,,,0,0,0,66.00,-28.00,794.00,-87.00,0.00,629.00,6,76.00,10.20,2.50,0.00,2.00,-10.00,0,,,100,100,0,2,0,0,0,2,0,,,,,0.0,0.0,0
55.940869,-4.406299,7.70,7.50,1.04,0.25,7.70,7.70,2.00,0.25,9994,2021-05-02 10:36:10.034,2021-05-02 11:36:10.033,17,0,0,16.216,55.940871,-4.406299,0.00,0.30,-1.00,-6.90,-3.00,79.40,0,1,0,96,100,-7448,3311,16216,2980.50,4,P-GPS,1,0,312,0,363,0,0,1619951770033,4123,4074,4094,4120,0,0,27,,,,,,,0,0,0,69.00,-30.00,794.00,-87.00,0.00,629.00,6,77.00,10.44,2.55,0.00,3.00,-10.00,0,,,100,100,0,2,0,0,0,2,0,,,,,0.0,0.0,0
55.940869,-4.406299,7.80,7.60,1.08,0.26,7.80,7.80,2.00,0.26,10109,2021-05-02 10:36:10.148,2021-05-02 11:36:10.148,17,0,0,16.216,55.940871,-4.406299,0.00,0.40,-1.00,-6.80,-3.00,79.30,0,1,0,96,100,-7448,3311,16216,2980.50,4,P-GPS,1,0,311,0,364,0,0,1619951770148,4123,4074,4094,4120,0,0,27,,,,,,,0,0,0,68.00,-30.00,793.00,-87.00,0.00,629.00,6,78.00,10.77,2.58,0.00,4.00,-10.00,0,,,100,100,0,2,0,0,0,2,0,,,,,0.0,0.0,0
55.940869,-4.406298,7.90,7.70,1.12,0.26,7.90,7.90,2.00,0.26,10206,2021-05-02 10:36:10.245,2021-05-02 11:36:10.245,17,0,0,16.216,55.940871,-4.406299,0.00,0.50,-1.00,-6.60,-2.70,79.30,0,1,0,96,100,-7448,3311,16216,2980.50,4,P-GPS,1,0,308,0,365,0,0,1619951770245,4123,4074,4094,4120,0,0,27,,,,,,,0,0,0,66.00,-27.00,793.00,-87.00,0.00,629.00,6,79.00,11.18,2.56,0.00,5.00,-10.00,0,,,100,100,0,2,0,0,0,2,0,,,,,0.0,0.0,0
55.940869,-4.406297,8.00,7.70,1.17,0.28,8.00,8.00,2.00,0.28,10297,2021-05-02 10:36:10.337,2021-05-02 11:36:10.336,17,0,0,16.216,55.940871,-4.406299,0.10,0.60,-1.00,-6.30,-2.40,79.30,0,1,0,96,100,-7448,3311,16216,2980.50,4,P-GPS,1,0,305,0,368,0,0,1619951770336,4123,4074,4094,4120,0,0,27,,,,,,,0,0,0,63.00,-24.00,793.00,-87.00,0.00,629.00,6,80.00,11.70,2.75,1.00,6.00,-10.00,0,,,100,100,0,2,0,0,0,2,0,,,,,0.0,0.0,0
55.940869,-4.406296,8.10,7.80,1.17,0.31,8.10,8.10,2.00,0.31,10398,2021-05-02 10:36:10.437,2021-05-02 11:36:10.437,17,0,0,16.216,55.940871,-4.406299,0.10,0.60,-1.00,-6.20,-2.40,79.40,0,1,0,96,100,-7448,3311,16216,2980.50,4,P-GPS,1,0,296,0,370,0,0,1619951770437,4123,4074,4094,4120,0,0,27,,,,,,,0,0,0,62.00,-24.00,794.00,-87.00,0.00,629.00,6,81.00,11.70,3.10,1.00,6.00,-10.00,0,,,100,100,0,2,0,0,0,2,0,,,,,0.0,0.0,0
55.940869,-4.406296,8.10,7.80,1.17,0.31,8.10,8.10,2.00,0.31,10496,2021-05-02 10:36:10.535,2021-05-02 11:36:10.535,17,0,0,16.216,55.940871,-4.406299,0.10,0.60,-1.00,-6.20,-2.40,79.40,0,1,0,96,100,-7448,3311,16216,2980.50,4,P-GPS,1,0,258,0,374,0,0,1619951770535,4123,4074,4094,4120,0,0,27,,,,,,,0,0,0,62.00,-24.00,794.00,-87.00,0.00,629.00,6,81.00,11.70,3.10,1.00,6.00,-10.00,0,,,100,100,0,2,0,0,0,2,0,,,,,0.0,0.0,0
55.940870,-4.406294,8.30,8.00,1.36,0.39,8.30,8.30,2.00,0.39,10618,2021-05-02 10:36:10.657,2021-05-02 11:36:10.657,17,0,0,16.216,55.940871,-4.406299,0.10,0.80,-1.10,-4.80,-2.70,79.40,0,1,0,96,100,-7448,3311,16216,2980.50,4,P-GPS,1,0,203,0,379,0,0,1619951770657,4123,4074,4094,4120,0,0,27,,,,,,,0,0,0,48.00,-27.00,794.00,-87.00,0.00,629.00,6,83.00,13.64,3.94,1.00,8.00,-11.00,0,,,100,100,0,2,0,0,0,2,0,,,,,0.0,0.0,0
55.940870,-4.406292,8.40,8.10,1.42,0.47,8.40,8.40,2.00,0.47,10706,2021-05-02 10:36:10.745,2021-05-02 11:36:10.745,17,0,0,16.216,55.940871,-4.406299,0.10,0.90,-1.10,-3.10,-2.30,79.30,0,1,0,96,100,-7448,3311,16216,2980.50,4,P-GPS,1,0,168,0,379,0,0,1619951770745,4123,4074,4094,4120,0,0,27,,,,,,,0,0,0,31.00,-23.00,793.00,-87.00,0.00,629.00,6,84.00,14.25,4.69,1.00,9.00,-11.00,0,,,100,100,0,2,0,0,0,2,0,,,,,0.0,0.0,0
55.940870,-4.406291,8.60,8.20,1.42,0.55,8.60,8.60,2.00,0.55,10794,2021-05-02 10:36:10.833,2021-05-02 11:36:10.833,17,0,0,16.216,55.940871,-4.406299,0.10,0.90,-1.10,-1.60,-1.90,79.20,0,1,0,96,100,-7448,3311,16216,2980.50,4,P-GPS,1,0,107,0,380,0,0,1619951770833,4123,4074,4094,4120,0,0,27,,,,,,,0,0,0,16.00,-19.00,792.00,-87.00,0.00,629.00,6,86.00,14.25,5.52,1.00,9.00,-11.00,0,,,100,100,0,2,0,0,0,2,0,,,,,0.0,0.0,0
55.940870,-4.406289,8.70,8.30,1.42,0.64,8.70,8.70,2.00,0.64,10900,2021-05-02 10:36:10.939,2021-05-02 11:36:10.939,17,0,0,16.216,55.940871,-4.406299,0.10,0.90,-1.10,-0.50,-2.10,79.10,0,1,0,96,100,-7448,3311,16216,2980.50,4,P-GPS,1,0,67,0,378,0,0,1619951770939,4123,4074,4094,4120,0,0,27,,,,,,,0,0,0,5.00,-21.00,791.00,-87.00,0.00,629.00,6,87.00,14.25,6.39,1.00,9.00,-11.00,0,,,100,100,0,2,0,0,0,2,0,,,,,0.0,0.0,0
55.940870,-4.406288,8.80,8.40,1.50,0.72,8.80,8.80,2.00,0.72,11000,2021-05-02 10:36:11.039,2021-05-02 11:36:11.039,17,0,0,16.216,55.940871,-4.406299,0.10,0.90,-1.20,0.10,-2.60,79.10,0,1,0,96,100,-7448,3311,16216,2980.50,4,P-GPS,1,0,23,0,375,0,0,1619951771039,4123,4074,4094,4120,0,0,27,,,,,,,0,0,0,-1.00,-26.00,791.00,-87.00,0.00,629.00,6,88.00,15.03,7.19,1.00,9.00,-12.00,0,,,100,100,0,2,0,0,0,2,0,,,,,0.0,0.0,0
55.940871,-4.406287,8.90,8.50,1.42,0.81,8.90,8.90,2.00,0.81,11097,2021-05-02 10:36:11.136,2021-05-02 11:36:11.136,17,0,0,16.216,55.940871,-4.406299,0.10,0.90,-1.10,1.40,-3.00,79.00,0,1,0,96,100,-7448,3311,16216,2980.50,4,P-GPS,1,0,3,0,370,0,0,1619951771136,4123,4074,4094,4120,0,0,27,,,,,,,0,0,0,-14.00,-30.00,790.00,-87.00,0.00,629.00,6,89.00,14.25,8.06,1.00,9.00,-11.00,0,,,100,100,0,2,0,0,0,2,0,,,,,0.0,0.0,0
55.940871,-4.406286,9.00,8.60,1.36,0.87,9.00,9.00,2.00,0.87,11196,2021-05-02 10:36:11.236,2021-05-02 11:36:11.236,17,0,0,16.216,55.940871,-4.406299,0.10,0.80,-1.10,5.10,-3.10,78.90,0,1,0,96,100,-7448,3311,16216,2980.50,4,P-GPS,1,0,0,0,369,0,0,1619951771235,4123,4074,4094,4120,0,0,27,,,,,,,0,0,0,-51.00,-31.00,789.00,-87.00,0.00,629.00,6,90.00,13.64,8.69,1.00,8.00,-11.00,0,,,100,100,0,2,0,0,0,2,0,,,,,0.0,0.0,0
55.940871,-4.406284,9.10,8.70,1.31,0.94,9.10,9.10,2.00,0.94,11308,2021-05-02 10:36:11.348,2021-05-02 11:36:11.347,17,0,0,16.216,55.940871,-4.406299,0.10,0.70,-1.10,6.90,-2.80,78.80,0,1,0,96,100,-7448,3309,16216,2980.50,4,P-GPS,1,0,0,0,369,0,0,1619951771347,4123,4074,4094,4120,0,0,27,,,,,,,0,0,0,-69.00,-28.00,788.00,-87.00,0.00,629.00,6,91.00,13.08,9.41,1.00,7.00,-11.00,0,,,100,100,0,2,0,0,0,2,0,,,,,0.0,0.0,0
55.940871,-4.406283,9.20,8.90,1.25,1.00,9.20,9.20,2.00,1.00,11409,2021-05-02 10:36:11.448,2021-05-02 11:36:11.448,17,0,0,16.216,55.940871,-4.406299,0.00,0.60,-1.10,7.00,-2.80,78.90,0,1,0,96,100,-7448,3309,16216,2980.50,4,P-GPS,1,0,0,0,369,0,0,1619951771448,4123,4074,4094,4120,0,0,27,,,,,,,0,0,0,-70.00,-28.00,789.00,-87.00,0.00,629.00,6,92.00,12.53,10.04,0.00,6.00,-11.00,0,,,100,100,0,2,0,0,0,2,0,,,,,0.0,0.0,0
55.940871,-4.406283,9.30,9.00,1.17,1.05,9.30,9.30,2.00,1.05,11505,2021-05-02 10:36:11.545,2021-05-02 11:36:11.544,17,0,0,16.216,55.940871,-4.406299,0.00,0.40,-1.10,6.00,-2.90,78.90,0,1,0,96,100,-7448,3309,16216,2980.50,4,P-GPS,1,0,0,0,335,0,0,1619951771544,4123,4074,4094,4120,0,0,27,,,,,,,0,0,0,-60.00,-29.00,789.00,-87.00,0.00,629.00,6,93.00,11.70,10.50,0.00,4.00,-11.00,0,,,100,100,0,2,0,0,0,2,0,,,,,0.0,0.0,0
55.940871,-4.406282,9.40,9.10,1.04,1.09,9.40,9.40,2.00,1.09,11596,2021-05-02 10:36:11.636,2021-05-02 11:36:11.635,17,0,0,16.216,55.940871,-4.406299,0.00,0.30,-1.00,4.50,-3.00,78.90,0,1,0,96,100,-7448,3309,16216,2980.50,4,P-GPS,1,0,0,0,252,0,0,1619951771635,4123,4074,4094,4120,0,0,27,,,,,,,0,0,0,-45.00,-30.00,789.00,-87.00,0.00,629.00,6,94.00,10.44,10.92,0.00,3.00,-10.00,0,,,100,100,0,2,0,0,0,2,0,,,,,0.0,0.0,0
55.940871,-4.406282,9.50,9.20,0.85,1.12,9.50,9.50,2.00,1.12,11706,2021-05-02 10:36:11.745,2021-05-02 11:36:11.745,17,0,0,16.216,55.940871,-4.406299,0.00,0.30,-0.80,3.80,-3.40,79.10,0,1,0,96,100,-7448,3309,16216,2980.50,4,P-GPS,1,0,0,0,0,0,0,1619951771745,4123,4074,4094,4120,0,0,27,,,,,,,0,0,0,-38.00,-34.00,791.00,-87.00,0.00,629.00,6,95.00,8.54,11.17,0.00,3.00,-8.00,0,,,100,100,0,2,0,0,0,2,0,,,,,0.0,0.0,0
55.940871,-4.406281,9.60,9.20,0.54,1.15,9.60,9.60,2.00,1.15,11805,2021-05-02 10:36:11.844,2021-05-02 11:36:11.844,17,0,0,16.216,55.940871,-4.406299,0.00,0.20,-0.50,3.60,-3.90,79.10,0,1,0,96,100,-7448,3309,16216,2980.50,4,P-GPS,1,0,0,0,0,0,0,1619951771844,4123,4074,4094,4120,0,0,27,,,,,,,0,0,0,-36.00,-39.00,791.00,-87.00,0.00,629.00,6,96.00,5.39,11.52,0.00,2.00,-5.00,0,,,100,100,0,2,0,0,0,2,0,,,,,0.0,0.0,0
55.940871,-4.406281,9.60,9.30,0.28,1.17,9.60,9.60,2.00,1.17,11899,2021-05-02 10:36:11.938,2021-05-02 11:36:11.938,17,0,0,16.216,55.940871,-4.406299,0.00,0.20,-0.20,3.20,-3.70,79.20,0,1,0,96,100,-7448,3309,16216,2980.50,4,P-GPS,1,0,0,0,0,0,0,1619951771938,4123,4074,4094,4120,0,0,27,,,,,,,0,0,0,-32.00,-37.00,792.00,-87.00,0.00,629.00,6,96.00,2.83,11.67,0.00,2.00,-2.00,0,,,100,100,0,2,0,0,0,2,0,,,,,0.0,0.0,0
55.940871,-4.406281,9.60,9.30,0.14,1.18,9.60,9.60,2.00,1.18,12014,2021-05-02 10:36:12.053,2021-05-02 11:36:12.053,17,0,0,16.216,55.940871,-4.406299,0.00,0.10,-0.10,2.50,-3.10,79.30,0,1,0,96,100,-7448,3309,16216,2980.50,4,P-GPS,1,0,0,0,0,0,0,1619951772053,4123,4074,4094,4120,0,0,27,,,,,,,0,0,0,-25.00,-31.00,793.00,-87.00,0.00,629.00,6,96.00,1.41,11.81,0.00,1.00,-1.00,0,,,100,100,0,2,0,0,0,2,0,,,,,0.0,0.0,0
55.940871,-4.406280,9.60,9.30,0.10,1.19,9.60,9.60,2.00,1.19,12107,2021-05-02 10:36:12.146,2021-05-02 11:36:12.146,17,0,0,16.216,55.940871,-4.406299,0.00,0.10,0.00,2.00,-2.90,79.30,0,1,0,96,100,-7448,3309,16216,2980.50,4,P-GPS,1,0,0,0,0,0,0,1619951772146,4123,4074,4094,4120,0,0,27,,,,,,,0,0,0,-20.00,-29.00,793.00,-87.00,0.00,629.00,6,96.00,1.00,11.87,0.00,1.00,0.00,0,,,100,100,0,2,0,0,0,2,0,,,,,0.0,0.0,0
55.940871,-4.406280,9.60,9.30,0.00,1.19,9.60,9.60,2.00,1.19,12197,2021-05-02 10:36:12.236,2021-05-02 11:36:12.236,17,0,0,16.216,55.940871,-4.406299,0.00,0.00,0.00,1.40,-3.00,79.50,0,1,0,96,100,-7448,3309,16216,2980.50,4,P-GPS,1,0,0,0,0,0,0,1619951772236,4123,4074,4094,4120,0,0,27,,,,,,,0,0,0,-14.00,-30.00,795.00,-87.00,0.00,629.00,6,96.00,0.00,11.93,0.00,0.00,0.00,0,,,100,100,0,2,0,0,0,2,0,,,,,0.0,0.0,0
55.940871,-4.406280,9.60,9.30,0.00,1.19,9.60,9.60,2.00,1.19,12322,2021-05-02 10:36:12.361,2021-05-02 11:36:12.361,17,0,0,16.290,55.940871,-4.406299,0.00,0.00,0.00,1.10,-3.00,79.50,0,1,0,96,100,-7367,3307,16290,2981.50,4,P-GPS,1,0,0,0,0,0,-127,1619951772361,4123,4074,4094,4120,0,0,27,,,,,,,0,0,0,-11.00,-30.00,795.00,-87.00,0.00,629.00,6,96.00,0.00,11.95,0.00,0.00,0.00,0,,,100,100,0,2,0,0,0,2,0,,,,,0.0,0.0,0
55.940871,-4.406280,9.60,9.30,0.00,1.20,9.60,9.60,2.00,1.20,12417,2021-05-02 10:36:12.456,2021-05-02 11:36:12.456,17,0,0,16.290,55.940871,-4.406299,0.00,0.00,0.00,0.80,-2.60,79.40,0,1,0,96,100,-7367,3307,16290,2981.50,4,P-GPS,1,0,0,0,0,0,-216,1619951772456,4123,4074,4094,4120,0,0,27,,,,,,,0,0,0,-8.00,-26.00,794.00,-89.00,0.00,629.00,6,96.00,0.00,11.99,0.00,0.00,0.00,0,,,100,100,0,2,0,0,0,2,0,,,,,0.0,0.0,0
55.940871,-4.406280,9.60,9.20,0.00,1.20,9.60,9.60,2.00,1.20,12505,2021-05-02 10:36:12.544,2021-05-02 11:36:12.544,17,0,0,16.290,55.940871,-4.406299,0.00,0.00,0.00,1.10,-2.20,79.10,0,1,0,96,100,-7367,3307,16290,2981.50,4,P-GPS,1,0,0,0,0,0,-323,1619951772544,4123,4074,4094,4120,0,0,27,,,,,,,0,0,0,-11.00,-22.00,791.00,-95.00,0.00,629.00,6,96.00,0.00,12.01,0.00,0.00,0.00,0,,,100,100,0,2,0,0,0,2,0,,,,,0.0,0.0,0
55.940871,-4.406280,9.60,9.20,0.00,1.20,9.60,9.60,2.00,1.20,12615,2021-05-02 10:36:12.654,2021-05-02 11:36:12.654,17,0,0,16.290,55.940871,-4.406299,0.00,0.00,0.00,1.40,-2.10,79.00,0,1,0,96,100,-7367,3307,16290,2981.50,4,P-GPS,1,0,0,0,0,0,-472,1619951772654,4123,4074,4094,4120,0,0,27,,,,,,,0,0,0,-14.00,-21.00,790.00,-104.00,0.00,629.00,6,96.00,0.00,12.01,0.00,0.00,0.00,0,,,100,100,0,2,0,0,0,2,0,,,,,0.0,0.0,0
55.940871,-4.406280,9.60,9.20,0.00,1.20,9.60,9.60,2.00,1.20,12705,2021-05-02 10:36:12.744,2021-05-02 11:36:12.744,17,0,0,16.290,55.940871,-4.406299,0.00,0.00,0.00,1.60,-2.20,79.00,0,1,0,96,100,-7367,3307,16290,2981.50,4,P-GPS,1,0,0,0,0,0,-517,1619951772744,4123,4074,4094,4120,0,0,27,,,,,,,0,0,0,-16.00,-22.00,790.00,-118.00,0.00,629.00,6,96.00,0.00,12.04,0.00,0.00,0.00,0,,,100,100,0,2,0,0,0,2,0,,,,,0.0,0.0,0
55.940871,-4.406280,9.60,9.20,0.00,1.21,9.60,9.60,2.00,1.21,12799,2021-05-02 10:36:12.838,2021-05-02 11:36:12.838,17,0,0,16.387,55.940871,-4.406299,0.00,0.00,0.00,1.60,-2.60,79.00,0,1,0,95,100,-6052,3305,16387,2981.50,4,P-GPS,1,0,0,0,0,0,-517,1619951772838,4123,4074,4094,4120,0,0,27,,,,,,,0,0,0,-16.00,-26.00,790.00,-135.00,0.00,629.00,6,96.00,0.00,12.09,0.00,0.00,0.00,0,,,100,100,0,2,0,0,0,2,0,,,,,0.0,0.0,0
55.940871,-4.406280,9.60,9.20,0.00,1.21,9.60,9.60,2.00,1.21,12899,2021-05-02 10:36:12.938,2021-05-02 11:36:12.938,17,0,0,16.387,55.940871,-4.406299,0.00,0.00,0.00,1.40,-2.80,79.10,0,1,0,95,100,-6052,3305,16387,2981.50,4,P-GPS,1,0,0,0,0,0,-538,1619951772938,4123,4074,4094,4120,0,0,27,,,,,,,0,0,0,-14.00,-28.00,791.00,-154.00,0.00,629.00,6,96.00,0.00,12.10,0.00,0.00,0.00,0,,,100,100,0,2,0,0,0,2,0,,,,,0.0,0.0,0
55.940871,-4.406280,9.60,9.20,0.00,1.22,9.60,9.60,2.00,1.22,13032,2021-05-02 10:36:13.072,2021-05-02 11:36:13.072,17,0,0,16.387,55.940871,-4.406299,0.00,0.00,0.00,1.30,-3.00,79.20,0,1,0,95,100,-6052,3305,16387,2981.50,4,P-GPS,1,0,0,0,0,0,-566,1619951773071,4123,4074,4094,4120,0,0,27,,,,,,,0,0,0,-13.00,-30.00,792.00,-173.00,0.00,629.00,6,96.00,0.00,12.21,0.00,0.00,0.00,0,,,100,100,0,2,0,0,0,2,0,,,,,0.0,0.0,0
55.940871,-4.406280,9.50,9.10,0.00,1.22,9.60,9.60,2.00,1.22,13203,2021-05-02 10:36:13.242,2021-05-02 11:36:13.242,17,0,0,16.387,55.940871,-4.406299,0.00,0.00,0.00,1.00,-3.10,79.30,0,1,0,95,100,-6052,3305,16387,2981.50,4,P-GPS,1,0,0,0,0,0,-439,1619951773242,4123,4074,4094,4120,0,0,27,,,,,,,0,0,0,-10.00,-31.00,793.00,-212.00,0.00,629.00,6,95.00,0.00,12.22,0.00,0.00,0.00,0,,,100,100,0,2,0,0,0,2,0,,,,,0.0,0.0,0
55.940871,-4.406280,9.50,9.10,0.00,1.22,9.60,9.60,2.00,1.22,13320,2021-05-02 10:36:13.359,2021-05-02 11:36:13.359,17,0,0,16.387,55.940871,-4.406299,0.00,0.00,0.00,0.70,-3.20,79.30,0,1,0,95,100,-6052,3305,16387,2981.50,4,P-GPS,1,0,0,0,0,0,-439,1619951773359,4123,4074,4094,4120,0,0,27,,,,,,,0,0,0,-7.00,-32.00,793.00,-229.00,0.00,629.00,6,95.00,0.00,12.22,0.00,0.00,0.00,0,,,100,100,0,2,0,0,0,2,0,,,,,0.0,0.0,0
55.940871,-4.406280,9.50,9.10,0.00,1.24,9.60,9.60,2.00,1.24,13436,2021-05-02 10:36:13.475,2021-05-02 11:36:13.475,17,0,0,16.387,55.940871,-4.406299,0.00,0.00,0.00,0.70,-2.90,79.20,0,1,0,95,100,-6052,3305,16387,2981.50,4,P-GPS,1,0,0,0,0,0,0,1619951773475,4123,4074,4094,4120,0,0,27,,,,,,,0,0,0,-7.00,-29.00,792.00,-258.00,0.00,629.00,6,95.00,0.00,12.39,0.00,0.00,0.00,0,,,100,100,0,2,0,0,0,2,0,,,,,0.0,0.0,0
55.940871,-4.406279,9.50,9.10,0.00,1.26,9.60,9.60,2.00,1.26,13613,2021-05-02 10:36:13.652,2021-05-02 11:36:13.652,17,0,0,16.387,55.940871,-4.406299,0.00,0.00,0.00,1.30,-3.00,79.30,0,1,0,95,100,-6052,3305,16387,2981.50,4,P-GPS,1,0,0,0,0,0,0,1619951773652,4123,4074,4094,4120,0,0,27,,,,,,,0,0,0,-13.00,-30.00,793.00,-267.00,0.00,629.00,6,95.00,0.00,12.62,0.00,0.00,0.00,0,,,100,100,0,2,0,0,0,2,0,,,,,0.0,0.0,0
55.940871,-4.406279,9.50,9.10,0.00,1.28,9.60,9.60,2.00,1.28,13815,2021-05-02 10:36:13.854,2021-05-02 11:36:13.854,17,0,0,16.273,55.940871,-4.406299,0.00,0.00,0.00,1.50,-3.00,79.20,0,1,0,95,100,-7078,3303,16273,2981.50,4,P-GPS,1,0,0,0,0,0,0,1619951773854,4091,4039,4056,4086,0,0,27,,,,,,,0,0,0,-15.00,-30.00,792.00,-270.00,0.00,629.00,6,95.00,0.00,12.84,0.00,0.00,0.00,0,,,100,100,0,2,0,0,0,2,0,,,,,0.0,0.0,0
55.940871,-4.406279,9.50,9.10,0.00,1.29,9.60,9.60,2.00,1.29,14007,2021-05-02 10:36:14.047,2021-05-02 11:36:14.046,17,0,0,16.273,55.940871,-4.406299,0.00,0.00,0.00,1.70,-2.60,79.20,0,1,0,95,100,-7078,3303,16273,2981.50,4,P-GPS,1,0,0,0,0,0,81,1619951774046,4091,4039,4056,4086,0,0,27,,,,,,,0,0,0,-17.00,-26.00,792.00,-269.00,0.00,629.00,6,95.00,0.00,12.90,0.00,0.00,0.00,0,,,100,100,0,2,0,0,0,2,0,,,,,0.0,0.0,0
55.940871,-4.406279,9.50,9.10,0.00,1.30,9.60,9.60,2.00,1.30,14109,2021-05-02 10:36:14.149,2021-05-02 11:36:14.149,17,0,0,16.273,55.940871,-4.406299,0.00,0.00,0.00,1.90,-2.30,79.10,0,1,0,95,100,-7078,3303,16273,2981.50,4,P-GPS,1,0,0,0,0,0,98,1619951774148,4091,4039,4056,4086,0,0,27,,,,,,,0,0,0,-19.00,-23.00,791.00,-267.00,0.00,629.00,6,95.00,0.00,12.98,0.00,0.00,0.00,0,,,100,100,0,2,0,0,0,2,0,,,,,0.0,0.0,0
55.940871,-4.406279,9.50,9.10,0.00,1.29,9.60,9.60,2.00,1.30,14203,2021-05-02 10:36:14.242,2021-05-02 11:36:14.242,17,0,0,16.273,55.940871,-4.406299,0.00,0.00,0.00,2.00,-1.80,79.00,0,1,0,95,100,-7078,3303,16273,2981.50,4,P-GPS,1,0,0,0,0,0,154,1619951774242,4091,4039,4056,4086,0,0,27,,,,,,,0,0,0,-20.00,-18.00,790.00,-264.00,0.00,629.00,6,95.00,0.00,12.93,0.00,0.00,0.00,0,,,100,100,0,2,0,0,0,2,0,,,,,0.0,0.0,0
55.940871,-4.406279,9.50,9.10,0.00,1.30,9.60,9.60,2.00,1.30,14303,2021-05-02 10:36:14.343,2021-05-02 11:36:14.343,17,0,0,16.273,55.940871,-4.406299,0.00,0.00,0.00,2.20,-1.40,79.00,0,1,0,95,100,-7078,3303,16273,2981.50,4,P-GPS,1,0,0,0,0,0,250,1619951774342,4091,4039,4056,4086,0,0,27,,,,,,,0,0,0,-22.00,-14.00,790.00,-260.00,0.00,629.00,6,95.00,0.00,13.00,0.00,0.00,0.00,0,,,100,100,0,2,0,0,0,2,0,,,,,0.0,0.0,0
55.940871,-4.406279,9.50,9.10,0.00,1.30,9.60,9.60,2.00,1.30,14407,2021-05-02 10:36:14.446,2021-05-02 11:36:14.446,17,0,0,16.273,55.940871,-4.406299,0.00,0.00,0.00,2.30,-1.90,79.00,0,1,0,95,100,-7078,3303,16273,2981.50,4,P-GPS,1,0,0,0,0,0,278,1619951774446,4091,4039,4056,4086,0,0,27,,,,,,,0,0,0,-23.00,-19.00,790.00,-254.00,0.00,629.00,6,95.00,0.00,13.05,0.00,0.00,0.00,0,,,100,100,0,2,0,0,0,2,0,,,,,0.0,0.0,0
55.940871,-4.406278,9.40,9.10,0.00,1.31,9.60,9.60,2.00,1.31,14497,2021-05-02 10:36:14.536,2021-05-02 11:36:14.536,17,0,0,16.273,55.940871,-4.406299,0.00,0.00,0.00,1.80,-2.20,79.00,0,1,0,95,100,-7078,3303,16273,2981.50,4,P-GPS,1,0,0,0,0,0,414,1619951774536,4091,4039,4056,4086,0,0,27,,,,,,,0,0,0,-18.00,-22.00,790.00,-244.00,0.00,629.00,6,94.00,0.00,13.10,0.00,0.00,0.00,0,,,100,100,0,2,0,0,0,2,0,,,,,0.0,0.0,0
55.940871,-4.406279,9.40,9.10,0.00,1.30,9.60,9.60,2.00,1.31,14597,2021-05-02 10:36:14.636,2021-05-02 11:36:14.636,17,0,0,16.273,55.940871,-4.406299,0.00,0.00,0.00,1.60,-2.40,79.10,0,1,0,95,100,-7078,3303,16273,2981.50,4,P-GPS,1,0,0,0,0,0,478,1619951774636,4091,4039,4056,4086,0,0,27,,,,,,,0,0,0,-16.00,-24.00,791.00,-234.00,0.00,629.00,6,94.00,0.00,13.05,0.00,0.00,0.00,0,,,100,100,0,2,0,0,0,2,0,,,,,0.0,0.0,0
55.940871,-4.406279,9.40,9.10,0.00,1.31,9.60,9.60,2.00,1.31,14696,2021-05-02 10:36:14.735,2021-05-02 11:36:14.735,17,0,0,16.273,55.940871,-4.406299,0.00,0.00,0.00,1.50,-3.00,79.10,0,1,0,95,100,-7078,3303,16273,2981.50,4,P-GPS,1,0,0,0,0,0,356,1619951774735,4091,4039,4056,4086,0,0,27,,,,,,,0,0,0,-15.00,-30.00,791.00,-218.00,0.00,629.00,6,94.00,0.00,13.09,0.00,0.00,0.00,0,,,100,100,0,2,0,0,0,2,0,,,,,0.0,0.0,0
55.940871,-4.406278,9.40,9.10,0.00,1.32,9.60,9.60,2.00,1.32,14798,2021-05-02 10:36:14.837,2021-05-02 11:36:14.837,17,0,0,16.273,55.940871,-4.406299,0.00,0.00,0.00,1.60,-3.40,79.10,0,1,0,95,100,-7078,3303,16273,2981.50,4,P-GPS,1,0,0,0,0,0,0,1619951774837,4091,4039,4056,4086,0,0,27,,,,,,,0,0,0,-16.00,-34.00,791.00,-202.00,0.00,629.00,6,94.00,0.00,13.15,0.00,0.00,0.00,0,,,100,100,0,2,0,0,0,2,0,,,,,0.0,0.0,0
55.940871,-4.406278,9.40,9.10,0.00,1.32,9.60,9.60,2.00,1.32,14897,2021-05-02 10:36:14.936,2021-05-02 11:36:14.936,17,0,0,16.273,55.940871,-4.406299,0.00,0.00,0.00,2.00,-3.70,79.10,0,1,0,95,100,-7078,3303,16273,2981.50,4,P-GPS,1,0,0,0,0,0,0,1619951774936,4091,4039,4056,4086,0,0,27,,,,,,,0,0,0,-20.00,-37.00,791.00,-189.00,0.00,629.00,6,94.00,0.00,13.19,0.00,0.00,0.00,0,,,100,100,0,2,0,0,0,2,0,,,,,0.0,0.0,0
55.940871,-4.406278,9.40,9.10,0.00,1.32,9.60,9.60,2.00,1.32,15010,2021-05-02 10:36:15.049,2021-05-02 11:36:15.049,17,0,0,16.273,55.940871,-4.406299,0.00,0.00,0.00,2.00,-3.90,79.10,0,1,0,95,100,-7078,3303,16273,2981.50,4,P-GPS,1,0,0,0,0,0,0,1619951775049,4091,4039,4056,4086,0,0,27,,,,,,,0,0,0,-20.00,-39.00,791.00,-182.00,0.00,629.00,6,94.00,0.00,13.17,0.00,0.00,0.00,0,,,100,100,0,2,0,0,0,2,0,,,,,0.0,0.0,0
55.940870,-4.406278,9.40,9.10,0.00,1.32,9.60,9.60,2.00,1.32,15111,2021-05-02 10:36:15.152,2021-05-02 11:36:15.150,17,0,0,16.273,55.940871,-4.406299,0.00,0.00,0.00,1.40,-3.90,79.10,0,1,0,95,100,-7078,3303,16273,2981.50,4,P-GPS,1,0,0,0,0,0,0,1619951775150,4091,4039,4056,4086,0,0,27,,,,,,,0,0,0,-14.00,-39.00,791.00,-181.00,0.00,629.00,6,94.00,0.00,13.17,0.00,0.00,0.00,0,,,100,100,0,2,0,0,0,2,0,,,,,0.0,0.0,0
