latitude,longitude,altitude(m),ultrasonicHeight(m),speed(mps),distance(m),max_altitude(m),max_ascent(m),max_speed(mps),max_distance(m),time(millisecond),datetime(utc),datetime(local),satellites,pressure(Pa),temperature(F),voltage(v),home_latitude,home_longitude,velocityX(mps),velocityY(mps),velocityZ(mps),pitch(deg),roll(deg),yaw(deg),powerlevel,isflying,istakingphoto,remainPowerPercent,remainLifePercent,currentCurrent,currentElectricity,currentVoltage,batteryTemperature,dischargeCount,flightmode,isMotorsOn,isTakingVideo,Rc_elevator,Rc_aileron,Rc_throttle,Rc_rudder,Rc_gyro,timestamp,Battery_Cell1,Battery_Cell2,Battery_Cell3,Battery_Cell4,Battery_Cell5,Battery_Cell6,Dronetype,AppVersion,Planename,FlyControllerSerialNumber,RemoteSerialNumber,BatterySerialNumber,CENTER_BATTERY.productDate,CENTER_BATTERY.serialNo,CENTER_BATTERY.fullCapacity,CENTER_BATTERY.productDateRaw,pitchRaw,rollRaw,yawRaw,gimbalPitchRaw,gimbalRollRaw,gimbalYawRaw,flyState,altitudeRaw,speedRaw,distanceRaw,velocityXRaw,velocityYRaw,velocityZRaw,data_reuse,App_Tip,App_Warning,downlinkSignalQuality,uplinkSignalQuality,transmissionChannel,rcModeSwitch,rcHome,rcPause,rcTransform,rcJoystickMode,appMode,FlyControllerSerialNumber_legacy,RemoteSerialNumber_legacy,BatterySerialNumber_legacy,Battery2SerialNumber,frontAvoidDist,backAvoidDist,isBrakingToAvoid
55.937810,-4.406064,13.30,0.00,0.00,17.87,13.30,13.30,0.00,17.87,0,2021-04-17 12:44:36.720,2021-04-17 13:44:36.719,19,0,0,0.000,55.937787,-4.406347,0.00,0.00,0.00,-0.40,5.30,144.10,0,1,0,0,0,0,0,0,2731.50,0,P-GPS,1,0,0,0,0,0,0,1618663476719,0,0,0,0,0,0,27,Litchi_4.18.0-g,,,,null,,0,0,0,4.00,53.00,1441.00,-426.00,0.00,1387.00,6,133.00,0.00,178.70,0.00,0.00,0.00,0,,,100,100,0,2,0,0,0,2,0,,,,null,0.0,0.0,0
55.937810,-4.406064,13.30,0.00,0.00,17.86,13.30,13.30,0.00,17.87,96,2021-04-17 12:44:36.815,2021-04-17 13:44:36.815,19,0,0,0.000,55.937787,-4.406347,0.00,0.00,0.00,-0.70,4.80,144.00,0,1,0,0,100,0,0,0,2731.50,1,P-GPS,1,0,0,0,0,0,0,1618663476815,0,0,0,0,0,0,27,Litchi_4.18.0-g,,,,null,,0,0,0,7.00,48.00,1440.00,-426.00,0.00,1387.00,6,133.00,0.00,178.63,0.00,0.00,0.00,0,,,100,100,0,2,0,0,0,2,0,,,,null,0.0,0.0,0
55.937810,-4.406065,13.30,0.00,0.00,17.85,13.30,13.30,0.00,17.87,201,2021-04-17 12:44:36.921,2021-04-17 13:44:36.920,19,0,0,0.000,55.937787,-4.406347,0.00,0.00,0.00,-1.20,4.60,144.10,0,1,0,0,100,0,0,0,2731.50,1,P-GPS,1,0,0,0,0,0,0,1618663476920,0,0,0,0,0,0,27,Litchi_4.18.0-g,,,,null,,0,0,0,12.00,46.00,1441.00,-426.00,0.00,1387.00,6,133.00,0.00,178.54,0.00,0.00,0.00,0,,,100,100,0,2,0,0,0,2,0,,,,null,0.0,0.0,0
55.937810,-4.406065,13.30,0.00,0.00,17.85,13.30,13.30,0.00,17.87,299,2021-04-17 12:44:37.018,2021-04-17 13:44:37.018,19,0,0,0.000,55.937787,-4.406347,0.00,0.00,0.00,-1.30,4.50,144.10,0,1,0,0,100,0,0,0,2731.50,1,P-GPS,1,0,0,0,0,0,0,1618663477018,0,0,0,0,0,0,27,Litchi_4.18.0-g,CJTMAVIC,163DFAS001K45C,0VECFAK0072T52,0P2AFB25340AEP,,0,0,0,13.00,45.00,1441.00,-426.00,0.00,1387.00,6,133.00,0.00,178.47,0.00,0.00,0.00,0,,,100,100,0,2,0,0,0,2,0,,,,null,0.0,0.0,0
55.937810,-4.406065,13.30,0.00,0.00,17.84,13.30,13.30,0.00,17.87,401,2021-04-17 12:44:37.120,2021-04-17 13:44:37.120,19,0,0,0.000,55.937787,-4.406347,0.00,0.00,0.00,-1.40,4.60,144.10,0,1,0,0,100,0,0,0,2731.50,1,P-GPS,1,0,0,0,0,0,0,1618663477120,0,0,0,0,0,0,27,,,,,,,0,0,0,14.00,46.00,1441.00,-426.00,0.00,1387.00,6,133.00,0.00,178.38,0.00,0.00,0.00,0,,,100,100,0,2,0,0,0,2,0,,,,,0.0,0.0,0
55.937810,-4.406065,13.30,0.00,0.00,17.83,13.30,13.30,0.00,17.87,510,2021-04-17 12:44:37.229,2021-04-17 13:44:37.229,19,0,0,0.000,55.937787,-4.406347,0.00,0.00,0.00,-1.40,4.30,144.10,0,1,0,0,100,0,0,0,2731.50,1,P-GPS,1,0,0,0,0,0,0,1618663477229,0,0,0,0,0,0,27,,,,,,,0,0,0,14.00,43.00,1441.00,-426.00,0.00,1387.00,6,133.00,0.00,178.30,0.00,0.00,0.00,0,,,100,100,0,2,0,0,0,2,0,,,,,0.0,0.0,0
55.937810,-4.406065,13.30,0.00,0.10,17.82,13.30,13.30,0.10,17.87,597,2021-04-17 12:44:37.316,2021-04-17 13:44:37.316,19,0,0,0.000,55.937787,-4.406347,0.00,-0.10,0.00,-0.90,4.10,144.10,0,1,0,0,100,0,0,0,2731.50,1,P-GPS,1,0,0,0,0,0,0,1618663477316,0,0,0,0,0,0,27,,,,,,,0,0,0,9.00,41.00,1441.00,-426.00,0.00,1387.00,6,133.00,1.00,178.20,0.00,-1.00,0.00,0,,,100,100,0,2,0,0,0,2,0,,,,,0.0,0.0,0
55.937810,-4.406065,13.30,0.00,0.10,17.81,13.30,13.30,0.10,17.87,698,2021-04-17 12:44:37.417,2021-04-17 13:44:37.417,19,0,0,0.000,55.937787,-4.406347,0.00,-0.10,0.00,-0.80,3.90,144.20,0,1,0,0,100,0,0,0,2731.50,1,P-GPS,1,0,0,0,0,0,0,1618663477417,0,0,0,0,0,0,27,,,,,,,0,0,0,8.00,39.00,1442.00,-426.00,0.00,1387.00,6,133.00,1.00,178.07,0.00,-1.00,0.00,0,,,100,100,0,2,0,0,0,2,0,,,,,0.0,0.0,0
55.937810,-4.406065,13.30,0.00,0.10,17.79,13.30,13.30,0.10,17.87,806,2021-04-17 12:44:37.525,2021-04-17 13:44:37.525,19,0,0,0.000,55.937787,-4.406347,0.00,-0.10,0.00,-1.40,3.40,144.10,0,1,0,0,100,0,0,0,2731.50,1,P-GPS,1,0,0,0,0,0,0,1618663477525,0,0,0,0,0,0,27,,,,,,,0,0,0,14.00,34.00,1441.00,-426.00,0.00,1387.00,6,133.00,1.00,177.94,0.00,-1.00,0.00,0,,,100,100,0,2,0,0,0,2,0,,,,,0.0,0.0,0
55.937810,-4.406066,13.30,0.00,0.10,17.78,13.30,13.30,0.10,17.87,909,2021-04-17 12:44:37.630,2021-04-17 13:44:37.628,19,0,0,0.000,55.937787,-4.406347,0.00,-0.10,0.00,-1.90,2.80,144.00,0,1,0,0,100,0,0,0,2731.50,1,P-GPS,1,0,0,0,0,0,0,1618663477628,0,0,0,0,0,0,27,,,,,,,0,0,0,19.00,28.00,1440.00,-426.00,0.00,1387.00,6,133.00,1.00,177.83,0.00,-1.00,0.00,0,,,100,100,0,2,0,0,0,2,0,,,,,0.0,0.0,0
55.937810,-4.406066,13.30,0.00,0.00,17.77,13.30,13.30,0.10,17.87,999,2021-04-17 12:44:37.719,2021-04-17 13:44:37.719,19,0,0,0.000,55.937787,-4.406347,0.00,0.00,0.00,-2.50,2.50,143.90,0,1,0,0,100,0,0,0,2731.50,1,P-GPS,1,0,0,0,0,0,0,1618663477718,0,0,0,0,0,0,27,,,,,,,0,0,0,25.00,25.00,1439.00,-426.00,0.00,1387.00,6,133.00,0.00,177.72,0.00,0.00,0.00,0,,,100,100,0,2,0,0,0,2,0,,,,,0.0,0.0,0
55.937810,-4.406066,13.30,0.00,0.00,17.76,13.30,13.30,0.10,17.87,1100,2021-04-17 12:44:37.819,2021-04-17 13:44:37.819,19,0,0,0.000,55.937787,-4.406347,0.00,0.00,0.00,-2.30,2.90,143.90,0,1,0,50,100,-7202,1713,0,2731.50,1,P-GPS,1,0,0,0,0,0,0,1618663477819,0,0,0,0,0,0,27,,,,,,,0,0,0,23.00,29.00,1439.00,-426.00,0.00,1387.00,6,133.00,0.00,177.61,0.00,0.00,0.00,0,,,100,100,0,2,0,0,0,2,0,,,,,0.0,0.0,0
55.937810,-4.406066,13.30,0.00,0.00,17.76,13.30,13.30,0.10,17.87,1203,2021-04-17 12:44:37.922,2021-04-17 13:44:37.922,19,0,0,0.000,55.937787,-4.406347,0.00,0.00,0.00,-1.80,3.10,143.90,0,1,0,50,100,-7202,1713,0,2731.50,1,P-GPS,1,0,0,0,0,0,0,1618663477922,0,0,0,0,0,0,27,,,,,,,0,0,0,18.00,31.00,1439.00,-426.00,0.00,1387.00,6,133.00,0.00,177.58,0.00,0.00,0.00,0,,,100,100,0,2,0,0,0,2,0,,,,,0.0,0.0,0
55.937810,-4.406066,13.30,0.00,0.00,17.76,13.30,13.30,0.10,17.87,1295,2021-04-17 12:44:38.015,2021-04-17 13:44:38.014,19,0,0,0.000,55.937787,-4.406347,0.00,0.00,0.00,-0.70,3.50,144.00,0,1,0,50,100,-7202,1713,0,2731.50,1,P-GPS,1,0,0,0,0,0,0,1618663478014,0,0,0,0,0,0,27,,,,,,,0,0,0,7.00,35.00,1440.00,-426.00,0.00,1387.00,6,133.00,0.00,177.57,0.00,0.00,0.00,0,,,100,100,0,2,0,0,0,2,0,,,,,0.0,0.0,0
55.937810,-4.406066,13.30,0.00,0.00,17.76,13.30,13.30,0.10,17.87,1396,2021-04-17 12:44:38.115,2021-04-17 13:44:38.115,19,0,0,0.000,55.937787,-4.406347,0.00,0.00,0.00,-0.60,4.10,144.00,0,1,0,50,100,-7202,1713,0,2731.50,1,P-GPS,1,0,0,0,0,0,0,1618663478115,0,0,0,0,0,0,27,,,,,,,0,0,0,6.00,41.00,1440.00,-426.00,0.00,1387.00,6,133.00,0.00,177.59,0.00,0.00,0.00,0,,,100,100,0,2,0,0,0,2,0,,,,,0.0,0.0,0
55.937810,-4.406066,13.30,0.00,0.00,17.76,13.30,13.30,0.10,17.87,1497,2021-04-17 12:44:38.216,2021-04-17 13:44:38.216,19,0,0,0.000,55.937787,-4.406347,0.00,0.00,0.00,-0.50,4.40,144.00,0,1,0,50,100,-7202,1713,0,2731.50,1,P-GPS,1,0,0,0,0,0,0,1618663478216,0,0,0,0,0,0,27,,,,,,,0,0,0,5.00,44.00,1440.00,-426.00,0.00,1387.00,6,133.00,0.00,177.59,0.00,0.00,0.00,0,,,100,100,0,2,0,0,0,2,0,,,,,0.0,0.0,0
55.937810,-4.406066,13.30,0.00,0.00,17.76,13.30,13.30,0.10,17.87,1600,2021-04-17 12:44:38.319,2021-04-17 13:44:38.319,19,0,0,0.000,55.937787,-4.406347,0.00,0.00,0.00,-0.10,4.40,144.00,0,1,0,50,100,-7202,1713,0,2731.50,1,P-GPS,1,0,0,0,0,0,0,1618663478319,0,0,0,0,0,0,27,,,,,,,0,0,0,1.00,44.00,1440.00,-426.00,0.00,1387.00,6,133.00,0.00,177.62,0.00,0.00,0.00,0,,,100,100,0,2,0,0,0,2,0,,,,,0.0,0.0,0
55.937810,-4.406066,13.30,0.00,0.00,17.77,13.30,13.30,0.10,17.87,1709,2021-04-17 12:44:38.429,2021-04-17 13:44:38.429,19,0,0,0.000,55.937787,-4.406347,0.00,0.00,0.00,-0.60,4.90,144.00,0,1,0,50,100,-7202,1713,0,2731.50,1,P-GPS,1,0,0,0,0,0,0,1618663478428,0,0,0,0,0,0,27,,,,,,,0,0,0,6.00,49.00,1440.00,-426.00,0.00,1387.00,6,133.00,0.00,177.69,0.00,0.00,0.00,0,,,100,100,0,2,0,0,0,2,0,,,,,0.0,0.0,0
55.937810,-4.406066,13.30,0.00,0.00,17.78,13.30,13.30,0.10,17.87,1901,2021-04-17 12:44:38.621,2021-04-17 13:44:38.621,19,0,0,0.000,55.937787,-4.406347,0.00,0.00,0.00,-1.00,5.00,143.90,0,1,0,50,100,-7202,1713,0,2731.50,1,P-GPS,1,0,0,0,0,0,0,1618663478620,0,0,0,0,0,0,27,,,,,,,0,0,0,10.00,50.00,1439.00,-426.00,0.00,1387.00,6,133.00,0.00,177.82,0.00,0.00,0.00,0,,,100,100,0,2,0,0,0,2,0,,,,,0.0,0.0,0
55.937810,-4.406066,13.30,0.00,0.00,17.79,13.30,13.30,0.10,17.87,2000,2021-04-17 12:44:38.720,2021-04-17 13:44:38.719,19,0,0,0.000,55.937787,-4.406347,0.00,0.00,0.00,-1.10,4.90,143.80,0,1,0,50,100,-7202,1713,0,2731.50,1,P-GPS,1,0,0,0,0,0,0,1618663478719,0,0,0,0,0,0,27,,,,,,,0,0,0,11.00,49.00,1438.00,-426.00,0.00,1387.00,6,133.00,0.00,177.87,0.00,0.00,0.00,0,,,100,100,0,2,0,0,0,2,0,,,,,0.0,0.0,0
55.937810,-4.406066,13.30,0.00,0.00,17.79,13.30,13.30,0.10,17.87,2096,2021-04-17 12:44:38.815,2021-04-17 13:44:38.815,19,0,0,15.031,55.937787,-4.406347,0.00,0.00,0.00,-1.10,5.00,143.70,0,1,0,50,100,-7344,1711,15031,3097.50,1,P-GPS,1,0,0,0,0,0,0,1618663478815,0,0,0,0,0,0,27,,,,,,,0,0,0,11.00,50.00,1437.00,-426.00,0.00,1387.00,6,133.00,0.00,177.89,0.00,0.00,0.00,0,,,100,100,0,2,0,0,0,2,0,,,,,0.0,0.0,0
55.937810,-4.406066,13.30,0.00,0.00,17.80,13.30,13.30,0.10,17.87,2208,2021-04-17 12:44:38.927,2021-04-17 13:44:38.927,19,0,0,15.031,55.937787,-4.406347,0.00,0.00,0.00,-1.10,5.20,143.70,0,1,0,50,100,-7344,1711,15031,3097.50,1,P-GPS,1,0,0,0,0,0,0,1618663478927,0,0,0,0,0,0,27,,,,,,,0,0,0,11.00,52.00,1437.00,-426.00,0.00,1387.00,6,133.00,0.00,177.95,0.00,0.00,0.00,0,,,100,100,0,2,0,0,0,2,0,,,,,0.0,0.0,0
55.937810,-4.406065,13.30,0.00,0.00,17.80,13.30,13.30,0.10,17.87,2305,2021-04-17 12:44:39.025,2021-04-17 13:44:39.024,19,0,0,15.031,55.937787,-4.406347,0.00,0.00,0.00,-1.10,5.30,143.80,0,1,0,50,100,-7344,1711,15031,3097.50,1,P-GPS,1,0,0,0,0,0,0,1618663479024,0,0,0,0,0,0,27,,,,,,,0,0,0,11.00,53.00,1438.00,-426.00,0.00,1387.00,6,133.00,0.00,177.96,0.00,0.00,0.00,0,,,100,100,0,2,0,0,0,2,0,,,,,0.0,0.0,0
55.937810,-4.406065,13.30,0.00,0.00,17.80,13.30,13.30,0.10,17.87,2407,2021-04-17 12:44:39.126,2021-04-17 13:44:39.126,19,0,0,15.031,55.937787,-4.406347,0.00,0.00,0.00,-1.20,5.60,143.80,0,1,0,50,100,-7344,1711,15031,3097.50,1,P-GPS,1,0,0,0,0,0,0,1618663479126,0,0,0,0,0,0,27,,,,,,,0,0,0,12.00,56.00,1438.00,-426.00,0.00,1387.00,6,133.00,0.00,178.03,0.00,0.00,0.00,0,,,100,100,0,2,0,0,0,2,0,,,,,0.0,0.0,0
55.937811,-4.406065,13.30,0.00,0.00,17.82,13.30,13.30,0.10,17.87,2508,2021-04-17 12:44:39.227,2021-04-17 13:44:39.227,19,0,0,15.031,55.937787,-4.406347,0.00,0.00,0.00,-1.00,6.10,143.80,0,1,0,50,100,-7344,1711,15031,3097.50,1,P-GPS,1,0,0,0,0,0,0,1618663479227,0,0,0,0,0,0,27,,,,,,,0,0,0,10.00,61.00,1438.00,-426.00,0.00,1387.00,6,133.00,0.00,178.19,0.00,0.00,0.00,0,,,100,100,0,2,0,0,0,2,0,,,,,0.0,0.0,0
55.937811,-4.406065,13.30,0.00,0.00,17.83,13.30,13.30,0.10,17.87,2600,2021-04-17 12:44:39.319,2021-04-17 13:44:39.319,19,0,0,15.031,55.937787,-4.406347,0.00,0.00,0.00,-0.80,6.20,143.80,0,1,0,50,100,-7344,1711,15031,3097.50,1,P-GPS,1,0,0,0,0,0,0,1618663479319,0,0,0,0,0,0,27,,,,,,,0,0,0,8.00,62.00,1438.00,-426.00,0.00,1387.00,6,133.00,0.00,178.28,0.00,0.00,0.00,0,,,100,100,0,2,0,0,0,2,0,,,,,0.0,0.0,0
55.937810,-4.406065,13.30,0.00,0.00,17.83,13.30,13.30,0.10,17.87,2707,2021-04-17 12:44:39.426,2021-04-17 13:44:39.426,19,0,0,15.031,55.937787,-4.406347,0.00,0.00,0.00,-0.20,6.10,144.00,0,1,0,50,100,-7344,1711,15031,3097.50,1,P-GPS,1,0,0,0,0,0,0,1618663479426,0,0,0,0,0,0,27,,,,,,,0,0,0,2.00,61.00,1440.00,-426.00,0.00,1387.00,6,133.00,0.00,178.27,0.00,0.00,0.00,0,,,100,100,0,2,0,0,0,2,0,,,,,0.0,0.0,0
55.937810,-4.406065,13.30,0.00,0.00,17.84,13.30,13.30,0.10,17.87,2807,2021-04-17 12:44:39.526,2021-04-17 13:44:39.526,19,0,0,15.031,55.937787,-4.406347,0.00,0.00,0.00,0.00,6.30,144.00,0,1,0,50,100,-7344,1711,15031,3097.50,1,P-GPS,1,0,0,0,0,0,0,1618663479526,0,0,0,0,0,0,27,,,,,,,0,0,0,-0.00,63.00,1440.00,-426.00,0.00,1387.00,6,133.00,0.00,178.36,0.00,0.00,0.00,0,,,100,100,0,2,0,0,0,2,0,,,,,0.0,0.0,0
55.937811,-4.406065,13.30,0.00,0.00,17.84,13.30,13.30,0.10,17.87,2905,2021-04-17 12:44:39.624,2021-04-17 13:44:39.624,19,0,0,15.031,55.937787,-4.406347,0.00,0.00,0.00,-0.20,6.60,144.00,0,1,0,50,100,-7344,1711,15031,3097.50,1,P-GPS,1,0,0,0,0,0,0,1618663479624,0,0,0,0,0,0,27,,,,,,,0,0,0,2.00,66.00,1440.00,-426.00,0.00,1387.00,6,133.00,0.00,178.42,0.00,0.00,0.00,0,,,100,100,0,2,0,0,0,2,0,,,,,0.0,0.0,0
55.937811,-4.406065,13.30,0.00,0.00,17.85,13.30,13.30,0.10,17.87,2993,2021-04-17 12:44:39.712,2021-04-17 13:44:39.712,19,0,0,15.031,55.937787,-4.406347,0.00,0.00,0.00,-0.60,6.50,143.90,0,1,0,50,100,-7344,1711,15031,3097.50,1,P-GPS,1,0,0,0,0,0,0,1618663479712,0,0,0,0,0,0,27,,,,,,,0,0,0,6.00,65.00,1439.00,-426.00,0.00,1387.00,6,133.00,0.00,178.49,0.00,0.00,0.00,0,,,100,100,0,2,0,0,0,2,0,,,,,0.0,0.0,0
55.937811,-4.406065,13.30,0.00,0.00,17.86,13.30,13.30,0.10,17.87,3097,2021-04-17 12:44:39.816,2021-04-17 13:44:39.816,19,0,0,15.024,55.937787,-4.406347,0.00,0.00,0.00,-0.70,6.20,143.90,0,1,0,50,100,-7360,1709,15024,3097.50,1,P-GPS,1,0,0,0,0,0,0,1618663479816,0,0,0,0,0,0,27,,,,,,,0,0,0,7.00,62.00,1439.00,-426.00,0.00,1387.00,6,133.00,0.00,178.58,0.00,0.00,0.00,0,,,100,100,0,2,0,0,0,2,0,,,,,0.0,0.0,0
55.937811,-4.406064,13.30,0.00,0.00,17.86,13.30,13.30,0.10,17.87,3195,2021-04-17 12:44:39.914,2021-04-17 13:44:39.914,19,0,0,15.024,55.937787,-4.406347,0.00,0.00,0.00,-0.10,6.00,144.00,0,1,0,50,100,-7360,1709,15024,3097.50,1,P-GPS,1,0,0,0,0,0,0,1618663479914,0,0,0,0,0,0,27,,,,,,,0,0,0,1.00,60.00,1440.00,-426.00,0.00,1387.00,6,133.00,0.00,178.64,0.00,0.00,0.00,0,,,100,100,0,2,0,0,0,2,0,,,,,0.0,0.0,0
55.937810,-4.406064,13.30,0.00,0.00,17.86,13.30,13.30,0.10,17.87,3297,2021-04-17 12:44:40.016,2021-04-17 13:44:40.016,19,0,0,15.024,55.937787,-4.406347,0.00,0.00,0.00,0.20,5.70,144.00,0,1,0,50,100,-7360,1709,15024,3097.50,1,P-GPS,1,0,0,0,0,0,0,1618663480016,0,0,0,0,0,0,27,,,,,,,0,0,0,-2.00,57.00,1440.00,-426.00,0.00,1387.00,6,133.00,0.00,178.64,0.00,0.00,0.00,0,,,100,100,0,2,0,0,0,2,0,,,,,0.0,0.0,0
55.937810,-4.406064,13.30,0.00,0.00,17.87,13.30,13.30,0.10,17.87,3410,2021-04-17 12:44:40.129,2021-04-17 13:44:40.129,19,0,0,15.024,55.937787,-4.406347,0.00,0.00,0.00,0.00,5.40,143.90,0,1,0,50,100,-7360,1709,15024,3097.50,1,P-GPS,1,0,0,0,0,0,0,1618663480129,0,0,0,0,0,0,27,,,,,,,0,0,0,-0.00,54.00,1439.00,-426.00,0.00,1387.00,6,133.00,0.00,178.66,0.00,0.00,0.00,0,,,100,100,0,2,0,0,0,2,0,,,,,0.0,0.0,0
55.937810,-4.406064,13.30,0.00,0.00,17.87,13.30,13.30,0.10,17.87,3507,2021-04-17 12:44:40.226,2021-04-17 13:44:40.226,19,0,0,15.024,55.937787,-4.406347,0.00,0.00,0.00,0.00,5.40,143.90,0,1,0,50,100,-7360,1709,15024,3097.50,1,P-GPS,1,0,0,0,0,0,0,1618663480226,0,0,0,0,0,0,27,,,,,,,0,0,0,-0.00,54.00,1439.00,-426.00,0.00,1387.00,6,133.00,0.00,178.67,0.00,0.00,0.00,0,,,100,100,0,2,0,0,0,2,0,,,,,0.0,0.0,0
55.937810,-4.406064,13.30,0.00,0.00,17.87,13.30,13.30,0.10,17.87,3640,2021-04-17 12:44:40.359,2021-04-17 13:44:40.359,19,0,0,15.024,55.937787,-4.406347,0.00,0.00,0.00,0.00,5.30,144.00,0,1,0,50,100,-7360,1709,15024,3097.50,1,P-GPS,1,0,0,0,0,0,0,1618663480359,0,0,0,0,0,0,27,,,,,,,0,0,0,-0.00,53.00,1440.00,-426.00,0.00,1387.00,6,133.00,0.00,178.68,0.00,0.00,0.00,0,,,100,100,0,2,0,0,0,2,0,,,,,0.0,0.0,0
55.937811,-4.406064,13.30,0.00,0.00,17.87,13.30,13.30,0.10,17.87,3808,2021-04-17 12:44:40.527,2021-04-17 13:44:40.527,19,0,0,15.024,55.937787,-4.406347,0.00,0.00,0.00,-0.50,5.70,143.90,0,1,0,50,100,-7360,1709,15024,3097.50,1,P-GPS,1,0,0,0,0,0,0,1618663480527,0,0,0,0,0,0,27,,,,,,,0,0,0,5.00,57.00,1439.00,-426.00,0.00,1387.00,6,133.00,0.00,178.67,0.00,0.00,0.00,0,,,100,100,0,2,0,0,0,2,0,,,,,0.0,0.0,0
55.937811,-4.406064,13.30,0.00,0.00,17.86,13.30,13.30,0.10,17.87,3916,2021-04-17 12:44:40.635,2021-04-17 13:44:40.635,19,0,0,15.024,55.937787,-4.406347,0.00,0.00,0.00,-0.50,6.00,143.90,0,1,0,50,100,-7360,1709,15024,3097.50,1,P-GPS,1,0,0,0,0,0,0,1618663480635,0,0,0,0,0,0,27,,,,,,,0,0,0,5.00,60.00,1439.00,-426.00,0.00,1387.00,6,133.00,0.00,178.64,0.00,0.00,0.00,0,,,100,100,0,2,0,0,0,2,0,,,,,0.0,0.0,0
55.937811,-4.406064,13.30,0.00,0.00,17.87,13.30,13.30,0.10,17.87,4010,2021-04-17 12:44:40.729,2021-04-17 13:44:40.729,19,0,0,15.024,55.937787,-4.406347,0.00,0.00,0.00,-0.60,6.00,144.00,0,1,0,50,100,-7360,1709,15024,3097.50,1,P-GPS,1,0,0,0,0,0,0,1618663480729,0,0,0,0,0,0,27,,,,,,,0,0,0,6.00,60.00,1440.00,-426.00,0.00,1387.00,6,133.00,0.00,178.66,0.00,0.00,0.00,0,,,100,100,0,2,0,0,0,2,0,,,,,0.0,0.0,0
55.937811,-4.406065,13.30,0.00,0.00,17.86,13.30,13.30,0.10,17.87,4109,2021-04-17 12:44:40.828,2021-04-17 13:44:40.828,19,0,0,15.034,55.937787,-4.406347,0.00,0.00,0.00,-0.60,6.00,143.90,0,1,0,50,100,-7319,1707,15034,3097.50,1,P-GPS,1,0,0,0,0,0,0,1618663480828,0,0,0,0,0,0,27,,,,,,,0,0,0,6.00,60.00,1439.00,-426.00,0.00,1387.00,6,133.00,0.00,178.56,0.00,0.00,0.00,0,,,100,100,0,2,0,0,0,2,0,,,,,0.0,0.0,0
55.937811,-4.406065,13.30,0.00,0.00,17.86,13.30,13.30,0.10,17.87,4212,2021-04-17 12:44:40.931,2021-04-17 13:44:40.931,19,0,0,15.034,55.937787,-4.406347,0.00,0.00,0.00,-0.80,6.10,143.90,0,1,0,50,100,-7319,1707,15034,3097.50,1,P-GPS,1,0,0,0,0,0,0,1618663480931,0,0,0,0,0,0,27,,,,,,,0,0,0,8.00,61.00,1439.00,-426.00,0.00,1387.00,6,133.00,0.00,178.57,0.00,0.00,0.00,0,,,100,100,0,2,0,0,0,2,0,,,,,0.0,0.0,0
55.937811,-4.406065,13.30,0.00,0.00,17.86,13.30,13.30,0.10,17.87,4308,2021-04-17 12:44:41.027,2021-04-17 13:44:41.027,19,0,0,15.034,55.937787,-4.406347,0.00,0.00,0.00,-0.20,6.20,144.00,0,1,0,50,100,-7319,1707,15034,3097.50,1,P-GPS,1,0,0,0,0,0,0,1618663481027,0,0,0,0,0,0,27,,,,,,,0,0,0,2.00,62.00,1440.00,-426.00,0.00,1387.00,6,133.00,0.00,178.60,0.00,0.00,0.00,0,,,100,100,0,2,0,0,0,2,0,,,,,0.0,0.0,0
55.937811,-4.406064,13.30,0.00,0.00,17.87,13.30,13.30,0.10,17.87,4497,2021-04-17 12:44:41.216,2021-04-17 13:44:41.216,19,0,0,15.034,55.937787,-4.406347,0.00,0.00,0.00,0.90,5.70,144.10,0,1,0,50,100,-7319,1707,15034,3097.50,1,P-GPS,1,0,0,0,0,0,0,1618663481216,0,0,0,0,0,0,27,,,,,,,0,0,0,-9.00,57.00,1441.00,-426.00,0.00,1387.00,6,133.00,0.00,178.72,0.00,0.00,0.00,0,,,100,100,0,2,0,0,0,2,0,,,,,0.0,0.0,0
55.937811,-4.406064,13.30,0.00,0.00,17.87,13.30,13.30,0.10,17.87,4614,2021-04-17 12:44:41.333,2021-04-17 13:44:41.333,19,0,0,15.034,55.937787,-4.406347,0.00,0.00,0.00,1.10,5.30,144.10,0,1,0,50,100,-7319,1707,15034,3097.50,1,P-GPS,1,0,0,0,0,0,0,1618663481333,0,0,0,0,0,0,27,,,,,,,0,0,0,-11.00,53.00,1441.00,-426.00,0.00,1387.00,6,133.00,0.00,178.74,0.00,0.00,0.00,0,,,100,100,0,2,0,0,0,2,0,,,,,0.0,0.0,0
55.937811,-4.406064,13.30,0.00,0.00,17.87,13.30,13.30,0.10,17.87,4712,2021-04-17 12:44:41.431,2021-04-17 13:44:41.431,19,0,0,15.034,55.937787,-4.406347,0.00,0.00,0.00,0.90,5.30,144.10,0,1,0,50,100,-7319,1707,15034,3097.50,1,P-GPS,1,0,0,0,0,0,0,1618663481431,3766,3757,3759,3744,0,0,27,,,,,,,0,0,0,-9.00,53.00,1441.00,-426.00,0.00,1387.00,6,133.00,0.00,178.70,0.00,0.00,0.00,0,,,100,100,0,2,0,0,0,2,0,,,,,0.0,0.0,0
55.937811,-4.406064,13.30,0.00,0.00,17.87,13.30,13.30,0.10,17.87,4805,2021-04-17 12:44:41.524,2021-04-17 13:44:41.524,19,0,0,15.034,55.937787,-4.406347,0.00,0.00,0.00,1.40,5.60,144.20,0,1,0,50,100,-7319,1707,15034,3097.50,1,P-GPS,1,0,0,0,0,0,0,1618663481524,3766,3757,3759,3744,0,0,27,,,,,,,0,0,0,-14.00,56.00,1442.00,-426.00,0.00,1387.00,6,133.00,0.00,178.72,0.00,0.00,0.00,0,,,100,100,0,2,0,0,0,2,0,,,,,0.0,0.0,0
55.937810,-4.406064,13.30,0.00,0.00,17.87,13.30,13.30,0.10,17.87,4901,2021-04-17 12:44:41.620,2021-04-17 13:44:41.620,19,0,0,15.034,55.937787,-4.406347,0.00,0.00,0.00,2.20,5.80,144.30,0,1,0,50,100,-7319,1707,15034,3097.50,1,P-GPS,1,0,0,0,0,0,0,1618663481620,3766,3757,3759,3744,0,0,27,,,,,,,0,0,0,-22.00,58.00,1443.00,-426.00,0.00,1387.00,6,133.00,0.00,178.74,0.00,0.00,0.00,0,,,100,100,0,2,0,0,0,2,0,,,,,0.0,0.0,0
55.937810,-4.406064,13.30,0.00,0.00,17.87,13.30,13.30,0.10,17.87,5012,2021-04-17 12:44:41.731,2021-04-17 13:44:41.731,19,0,0,15.034,55.937787,-4.406347,0.00,0.00,0.00,2.40,5.80,144.30,0,1,0,50,100,-7319,1707,15034,3097.50,1,P-GPS,1,0,0,0,0,0,0,1618663481731,3766,3757,3759,3744,0,0,27,,,,,,,0,0,0,-24.00,58.00,1443.00,-426.00,0.00,1387.00,6,133.00,0.00,178.73,0.00,0.00,0.00,0,,,100,100,0,2,0,0,0,2,0,,,,,0.0,0.0,0
55.937810,-4.406064,13.30,0.00,0.00,17.86,13.30,13.30,0.10,17.87,5196,2021-04-17 12:44:41.915,2021-04-17 13:44:41.915,19,0,0,15.025,55.937787,-4.406347,0.00,0.00,0.00,1.10,5.00,144.20,0,1,0,50,100,-7413,1705,15025,3097.50,1,P-GPS,1,0,0,0,0,0,0,1618663481915,3766,3757,3759,3744,0,0,27,,,,,,,0,0,0,-11.00,50.00,1442.00,-426.00,0.00,1387.00,6,133.00,0.00,178.61,0.00,0.00,0.00,0,,,100,100,0,2,0,0,0,2,0,,,,,0.0,0.0,0
55.937810,-4.406064,13.30,0.00,0.00,17.86,13.30,13.30,0.10,17.87,5297,2021-04-17 12:44:42.016,2021-04-17 13:44:42.016,19,0,0,15.025,55.937787,-4.406347,0.00,0.00,0.00,1.30,4.90,144.10,0,1,0,50,100,-7413,1705,15025,3097.50,1,P-GPS,1,0,0,0,0,0,0,1618663482016,3766,3757,3759,3744,0,0,27,,,,,,,0,0,0,-13.00,49.00,1441.00,-426.00,0.00,1387.00,6,133.00,0.00,178.58,0.00,0.00,0.00,0,,,100,100,0,2,0,0,0,2,0,,,,,0.0,0.0,0
55.937810,-4.406065,13.30,0.00,0.00,17.85,13.30,13.30,0.10,17.87,5397,2021-04-17 12:44:42.116,2021-04-17 13:44:42.116,19,0,0,15.025,55.937787,-4.406347,0.00,0.00,0.00,1.40,4.80,144.10,0,1,0,50,100,-7413,1705,15025,3097.50,1,P-GPS,1,0,0,0,0,0,0,1618663482116,3766,3757,3759,3744,0,0,27,,,,,,,0,0,0,-14.00,48.00,1441.00,-426.00,0.00,1387.00,6,133.00,0.00,178.51,0.00,0.00,0.00,0,,,100,100,0,2,0,0,0,2,0,,,,,0.0,0.0,0
55.937810,-4.406064,13.30,0.00,0.00,17.86,13.30,13.30,0.10,17.87,5491,2021-04-17 12:44:42.210,2021-04-17 13:44:42.210,19,0,0,15.025,55.937787,-4.406347,0.00,0.00,0.00,1.10,4.70,144.10,0,1,0,50,100,-7413,1705,15025,3097.50,1,P-GPS,1,0,0,0,0,0,0,1618663482210,3766,3757,3759,3744,0,0,27,,,,,,,0,0,0,-11.00,47.00,1441.00,-426.00,0.00,1387.00,6,133.00,0.00,178.61,0.00,0.00,0.00,0,,,100,100,0,2,0,0,0,2,0,,,,,0.0,0.0,0
55.937810,-4.406065,13.30,0.00,0.00,17.86,13.30,13.30,0.10,17.87,5600,2021-04-17 12:44:42.319,2021-04-17 13:44:42.319,19,0,0,15.025,55.937787,-4.406347,0.00,0.00,0.00,-0.20,4.30,144.00,0,1,0,50,100,-7413,1705,15025,3097.50,1,P-GPS,1,0,0,0,0,0,0,1618663482319,3766,3757,3759,3744,0,0,27,,,,,,,0,0,0,2.00,43.00,1440.00,-426.00,0.00,1387.00,6,133.00,0.00,178.56,0.00,0.00,0.00,0,,,100,100,0,2,0,0,0,2,0,,,,,0.0,0.0,0
55.937810,-4.406065,13.30,0.00,0.00,17.85,13.30,13.30,0.10,17.87,5702,2021-04-17 12:44:42.421,2021-04-17 13:44:42.421,19,0,0,15.025,55.937787,-4.406347,0.00,0.00,0.00,-0.10,4.60,143.80,0,1,0,50,100,-7413,1705,15025,3097.50,1,P-GPS,1,0,0,0,0,0,0,1618663482421,3766,3757,3759,3744,0,0,27,,,,,,,0,0,0,1.00,46.00,1438.00,-426.00,0.00,1387.00,6,133.00,0.00,178.54,0.00,0.00,0.00,0,,,100,100,0,2,0,0,0,2,0,,,,,0.0,0.0,0
55.937810,-4.406065,13.30,0.00,0.00,17.85,13.30,13.30,0.10,17.87,5809,2021-04-17 12:44:42.528,2021-04-17 13:44:42.528,19,0,0,15.025,55.937787,-4.406347,0.00,0.00,0.00,0.70,4.90,143.80,0,1,0,50,100,-7413,1705,15025,3097.50,1,P-GPS,1,0,0,0,0,0,0,1618663482528,3766,3757,3759,3744,0,0,27,,,,,,,0,0,0,-7.00,49.00,1438.00,-426.00,0.00,1387.00,6,133.00,0.00,178.54,0.00,0.00,0.00,0,,,100,100,0,2,0,0,0,2,0,,,,,0.0,0.0,0
55.937810,-4.406065,13.30,0.00,0.00,17.85,13.30,13.30,0.10,17.87,5895,2021-04-17 12:44:42.614,2021-04-17 13:44:42.614,19,0,0,15.025,55.937787,-4.406347,0.00,0.00,0.00,1.40,4.70,143.90,0,1,0,50,100,-7413,1705,15025,3097.50,1,P-GPS,1,0,0,0,0,0,0,1618663482614,3766,3757,3759,3744,0,0,27,,,,,,,0,0,0,-14.00,47.00,1439.00,-426.00,0.00,1387.00,6,133.00,0.00,178.50,0.00,0.00,0.00,0,,,100,100,0,2,0,0,0,2,0,,,,,0.0,0.0,0
55.937810,-4.406065,13.30,0.00,0.00,17.85,13.30,13.30,0.10,17.87,5991,2021-04-17 12:44:42.710,2021-04-17 13:44:42.710,19,0,0,15.025,55.937787,-4.406347,0.00,0.00,0.00,1.80,4.40,144.10,0,1,0,50,100,-7413,1705,15025,3097.50,1,P-GPS,1,0,0,0,0,0,0,1618663482710,3766,3757,3759,3744,0,0,27,,,,,,,0,0,0,-18.00,44.00,1441.00,-426.00,0.00,1387.00,6,133.00,0.00,178.49,0.00,0.00,0.00,0,,,100,100,0,2,0,0,0,2,0,,,,,0.0,0.0,0
55.937810,-4.406064,13.30,0.00,0.00,17.85,13.30,13.30,0.10,17.87,6098,2021-04-17 12:44:42.817,2021-04-17 13:44:42.817,19,0,0,15.031,55.937787,-4.406347,0.00,0.00,0.00,1.90,4.50,144.20,0,1,0,50,100,-7272,1703,15031,3097.50,1,P-GPS,1,0,0,0,0,0,0,1618663482817,3766,3757,3759,3744,0,0,27,,,,,,,0,0,0,-19.00,45.00,1442.00,-426.00,0.00,1387.00,6,133.00,0.00,178.55,0.00,0.00,0.00,0,,,100,100,0,2,0,0,0,2,0,,,,,0.0,0.0,0
55.937810,-4.406064,13.30,0.00,0.00,17.85,13.30,13.30,0.10,17.87,6205,2021-04-17 12:44:42.924,2021-04-17 13:44:42.924,19,0,0,15.031,55.937787,-4.406347,0.00,0.00,0.00,1.80,5.10,144.30,0,1,0,50,100,-7272,1703,15031,3097.50,1,P-GPS,1,0,0,0,0,0,0,1618663482924,3766,3757,3759,3744,0,0,27,,,,,,,0,0,0,-18.00,51.00,1443.00,-426.00,0.00,1387.00,6,133.00,0.00,178.54,0.00,0.00,0.00,0,,,100,100,0,2,0,0,0,2,0,,,,,0.0,0.0,0
55.937810,-4.406064,13.30,0.00,0.00,17.85,13.30,13.30,0.10,17.87,6291,2021-04-17 12:44:43.010,2021-04-17 13:44:43.010,19,0,0,15.031,55.937787,-4.406347,0.00,0.00,0.00,1.90,5.30,144.30,0,1,0,50,100,-7272,1703,15031,3097.50,1,P-GPS,1,0,0,0,0,0,0,1618663483010,3766,3757,3759,3744,0,0,27,,,,,,,0,0,0,-19.00,53.00,1443.00,-426.00,0.00,1387.00,6,133.00,0.00,178.51,0.00,0.00,0.00,0,,,100,100,0,2,0,0,0,2,0,,,,,0.0,0.0,0
55.937810,-4.406064,13.30,0.00,0.00,17.85,13.30,13.30,0.10,17.87,6398,2021-04-17 12:44:43.117,2021-04-17 13:44:43.117,19,0,0,15.031,55.937787,-4.406347,0.00,0.00,0.00,1.60,5.40,144.20,0,1,0,50,100,-7272,1703,15031,3097.50,1,P-GPS,1,0,0,0,0,0,0,1618663483117,3766,3757,3759,3744,0,0,27,,,,,,,0,0,0,-16.00,54.00,1442.00,-426.00,0.00,1387.00,6,133.00,0.00,178.51,0.00,0.00,0.00,0,,,100,100,0,2,0,0,0,2,0,,,,,0.0,0.0,0
55.937810,-4.406065,13.30,0.00,0.00,17.85,13.30,13.30,0.10,17.87,6508,2021-04-17 12:44:43.227,2021-04-17 13:44:43.227,19,0,0,15.031,55.937787,-4.406347,0.00,0.00,0.00,1.30,5.40,144.20,0,1,0,50,100,-7272,1703,15031,3097.50,1,P-GPS,1,0,0,0,0,0,0,1618663483227,3766,3757,3759,3744,0,0,27,,,,,,,0,0,0,-13.00,54.00,1442.00,-426.00,0.00,1387.00,6,133.00,0.00,178.45,0.00,0.00,0.00,0,,,100,100,0,2,0,0,0,2,0,,,,,0.0,0.0,0
55.937810,-4.406065,13.30,0.00,0.00,17.84,13.30,13.30,0.10,17.87,6610,2021-04-17 12:44:43.329,2021-04-17 13:44:43.329,19,0,0,15.031,55.937787,-4.406347,0.00,0.00,0.00,1.60,5.30,144.20,0,1,0,50,100,-7272,1703,15031,3097.50,1,P-GPS,1,0,0,0,0,0,0,1618663483329,3766,3757,3759,3744,0,0,27,,,,,,,0,0,0,-16.00,53.00,1442.00,-426.00,0.00,1387.00,6,133.00,0.00,178.44,0.00,0.00,0.00,0,,,100,100,0,2,0,0,0,2,0,,,,,0.0,0.0,0
55.937810,-4.406065,13.30,0.00,0.00,17.85,13.30,13.30,0.10,17.87,6699,2021-04-17 12:44:43.418,2021-04-17 13:44:43.418,19,0,0,15.031,55.937787,-4.406347,0.00,0.00,0.00,1.90,5.50,144.20,0,1,0,50,100,-7272,1703,15031,3097.50,1,P-GPS,1,0,0,0,0,0,0,1618663483418,3766,3757,3759,3744,0,0,27,,,,,,,0,0,0,-19.00,55.00,1442.00,-426.00,0.00,1387.00,6,133.00,0.00,178.46,0.00,0.00,0.00,0,,,100,100,0,2,0,0,0,2,0,,,,,0.0,0.0,0
55.937810,-4.406065,13.30,0.00,0.00,17.85,13.30,13.30,0.10,17.87,6807,2021-04-17 12:44:43.526,2021-04-17 13:44:43.526,19,0,0,15.031,55.937787,-4.406347,0.00,0.00,0.00,1.70,5.60,144.20,0,1,0,50,100,-7272,1703,15031,3097.50,1,P-GPS,1,0,0,0,0,0,0,1618663483526,3766,3757,3759,3744,0,0,27,,,,,,,0,0,0,-17.00,56.00,1442.00,-426.00,0.00,1387.00,6,133.00,0.00,178.46,0.00,0.00,0.00,0,,,100,100,0,2,0,0,0,2,0,,,,,0.0,0.0,0
55.937810,-4.406065,13.30,0.00,0.00,17.84,13.30,13.30,0.10,17.87,7000,2021-04-17 12:44:43.719,2021-04-17 13:44:43.719,19,0,0,15.031,55.937787,-4.406347,0.00,0.00,0.00,2.20,5.70,144.10,0,1,0,50,100,-7272,1703,15031,3097.50,1,P-GPS,1,0,0,0,0,0,0,1618663483719,3766,3757,3759,3744,0,0,27,,,,,,,0,0,0,-22.00,57.00,1441.00,-426.00,0.00,1387.00,6,133.00,0.00,178.43,0.00,0.00,0.00,0,,,100,100,0,2,0,0,0,2,0,,,,,0.0,0.0,0
55.937810,-4.406065,13.30,0.00,0.00,17.84,13.30,13.30,0.10,17.87,7096,2021-04-17 12:44:43.816,2021-04-17 13:44:43.815,19,0,0,15.050,55.937787,-4.406347,0.00,0.00,0.00,1.50,5.30,144.10,0,1,0,50,100,-6913,1701,15050,3097.50,1,P-GPS,1,0,0,0,0,0,0,1618663483815,3766,3757,3759,3744,0,0,27,,,,,,,0,0,0,-15.00,53.00,1441.00,-426.00,0.00,1387.00,6,133.00,0.00,178.41,0.00,0.00,0.00,0,,,100,100,0,2,0,0,0,2,0,,,,,0.0,0.0,0
55.937810,-4.406065,13.30,0.00,0.00,17.84,13.30,13.30,0.10,17.87,7189,2021-04-17 12:44:43.908,2021-04-17 13:44:43.908,19,0,0,15.050,55.937787,-4.406347,0.00,0.00,0.00,0.70,5.10,144.00,0,1,0,50,100,-6913,1701,15050,3097.50,1,P-GPS,1,0,0,0,0,0,0,1618663483908,3766,3757,3759,3744,0,0,27,,,,,,,0,0,0,-7.00,51.00,1440.00,-426.00,0.00,1387.00,6,133.00,0.00,178.37,0.00,0.00,0.00,0,,,100,100,0,2,0,0,0,2,0,,,,,0.0,0.0,0
55.937810,-4.406065,13.30,0.00,0.00,17.84,13.30,13.30,0.10,17.87,7290,2021-04-17 12:44:44.009,2021-04-17 13:44:44.009,19,0,0,15.050,55.937787,-4.406347,0.00,0.00,0.00,0.00,4.80,143.90,0,1,0,50,100,-6913,1701,15050,3097.50,1,P-GPS,1,0,0,0,0,0,0,1618663484009,3766,3757,3759,3744,0,0,27,,,,,,,0,0,0,-0.00,48.00,1439.00,-426.00,0.00,1387.00,6,133.00,0.00,178.37,0.00,0.00,0.00,0,,,100,100,0,2,0,0,0,2,0,,,,,0.0,0.0,0
55.937810,-4.406065,13.30,0.00,0.00,17.83,13.30,13.30,0.10,17.87,7409,2021-04-17 12:44:44.128,2021-04-17 13:44:44.128,19,0,0,15.050,55.937787,-4.406347,0.00,0.00,0.00,1.90,5.30,144.00,0,1,0,50,100,-6913,1701,15050,3097.50,1,P-GPS,1,0,0,0,0,0,0,1618663484128,3766,3757,3759,3744,0,0,27,,,,,,,0,0,0,-19.00,53.00,1440.00,-426.00,0.00,1387.00,6,133.00,0.00,178.34,0.00,0.00,0.00,0,,,100,100,0,2,0,0,0,2,0,,,,,0.0,0.0,0
55.937810,-4.406065,13.30,0.00,0.10,17.83,13.30,13.30,0.10,17.87,7611,2021-04-17 12:44:44.334,2021-04-17 13:44:44.334,19,0,0,15.050,55.937787,-4.406347,0.10,0.00,0.00,1.80,5.90,144.20,0,1,0,50,100,-6913,1701,15050,3097.50,1,P-GPS,1,0,0,0,0,0,0,1618663484330,3766,3757,3759,3744,0,0,27,,,,,,,0,0,0,-18.00,59.00,1442.00,-426.00,0.00,1387.00,6,133.00,1.00,178.27,1.00,0.00,0.00,0,,,100,100,0,2,0,0,0,2,0,,,,,0.0,0.0,0
55.937810,-4.406065,13.30,0.00,0.10,17.82,13.30,13.30,0.10,17.87,7715,2021-04-17 12:44:44.434,2021-04-17 13:44:44.434,19,0,0,15.050,55.937787,-4.406347,0.10,0.00,0.00,0.70,6.10,144.20,0,1,0,50,100,-6913,1701,15050,3097.50,1,P-GPS,1,0,0,0,0,0,0,1618663484434,3766,3757,3759,3744,0,0,27,,,,,,,0,0,0,-7.00,61.00,1442.00,-426.00,0.00,1387.00,6,133.00,1.00,178.21,1.00,0.00,0.00,0,,,100,100,0,2,0,0,0,2,0,,,,,0.0,0.0,0
55.937811,-4.406065,13.30,0.00,0.14,17.81,13.30,13.30,0.14,17.87,7800,2021-04-17 12:44:44.519,2021-04-17 13:44:44.519,19,0,0,15.050,55.937787,-4.406347,0.10,-0.10,0.00,-0.70,6.10,144.10,0,1,0,50,100,-6913,1701,15050,3097.50,1,P-GPS,1,0,0,0,0,0,0,1618663484519,3766,3757,3759,3744,0,0,27,,,,,,,0,0,0,7.00,61.00,1441.00,-426.00,0.00,1387.00,6,133.00,1.41,178.14,1.00,-1.00,0.00,0,,,100,100,0,2,0,0,0,2,0,,,,,0.0,0.0,0
55.937811,-4.406066,13.30,0.00,0.10,17.80,13.30,13.30,0.14,17.87,7901,2021-04-17 12:44:44.620,2021-04-17 13:44:44.620,19,0,0,15.050,55.937787,-4.406347,0.10,0.00,0.00,-1.80,6.20,144.00,0,1,0,50,100,-6913,1701,15050,3097.50,1,P-GPS,1,0,0,0,0,0,0,1618663484620,3766,3757,3759,3744,0,0,27,,,,,,,0,0,0,18.00,62.00,1440.00,-426.00,0.00,1387.00,6,133.00,1.00,178.01,1.00,0.00,0.00,0,,,100,100,0,2,0,0,0,2,0,,,,,0.0,0.0,0
55.937811,-4.406066,13.30,0.00,0.10,17.79,13.30,13.30,0.14,17.87,7989,2021-04-17 12:44:44.708,2021-04-17 13:44:44.708,19,0,0,15.050,55.937787,-4.406347,0.10,0.00,0.00,-2.30,6.20,143.90,0,1,0,50,100,-6913,1701,15050,3097.50,1,P-GPS,1,0,0,0,0,0,0,1618663484708,3766,3757,3759,3744,0,0,27,,,,,,,0,0,0,23.00,62.00,1439.00,-426.00,0.00,1387.00,6,133.00,1.00,177.93,1.00,0.00,0.00,0,,,100,100,0,2,0,0,0,2,0,,,,,0.0,0.0,0
55.937811,-4.406066,13.30,0.00,0.10,17.79,13.30,13.30,0.14,17.87,8112,2021-04-17 12:44:44.831,2021-04-17 13:44:44.831,19,0,0,15.024,55.937787,-4.406347,0.10,0.00,0.00,-2.50,6.20,143.90,0,1,0,50,100,-7242,1699,15024,3098.50,1,P-GPS,1,0,0,0,0,0,0,1618663484831,3766,3757,3759,3744,0,0,27,,,,,,,0,0,0,25.00,62.00,1439.00,-426.00,0.00,1387.00,6,133.00,1.00,177.92,1.00,0.00,0.00,0,,,100,100,0,2,0,0,0,2,0,,,,,0.0,0.0,0
55.937811,-4.406066,13.30,0.00,0.10,17.79,13.30,13.30,0.14,17.87,8212,2021-04-17 12:44:44.931,2021-04-17 13:44:44.931,19,0,0,15.024,55.937787,-4.406347,0.10,0.00,0.00,-2.40,6.20,144.00,0,1,0,50,100,-7242,1699,15024,3098.50,1,P-GPS,1,0,0,0,0,0,0,1618663484931,3766,3757,3759,3744,0,0,27,,,,,,,0,0,0,24.00,62.00,1440.00,-426.00,0.00,1387.00,6,133.00,1.00,177.88,1.00,0.00,0.00,0,,,100,100,0,2,0,0,0,2,0,,,,,0.0,0.0,0
55.937812,-4.406066,13.30,0.00,0.10,17.79,13.30,13.30,0.14,17.87,8411,2021-04-17 12:44:45.130,2021-04-17 13:44:45.130,19,0,0,15.024,55.937787,-4.406347,0.10,0.00,0.00,-2.00,6.00,144.00,0,1,0,50,100,-7242,1699,15024,3098.50,1,P-GPS,1,0,0,0,0,0,0,1618663485130,3766,3757,3759,3744,0,0,27,,,,,,,0,0,0,20.00,60.00,1440.00,-426.00,0.00,1387.00,6,133.00,1.00,177.86,1.00,0.00,0.00,0,,,100,100,0,2,0,0,0,2,0,,,,,0.0,0.0,0
55.937812,-4.406066,13.30,0.00,0.00,17.78,13.30,13.30,0.14,17.87,8590,2021-04-17 12:44:45.309,2021-04-17 13:44:45.309,19,0,0,15.024,55.937787,-4.406347,0.00,0.00,0.00,-2.30,6.00,144.00,0,1,0,50,100,-7242,1699,15024,3098.50,1,P-GPS,1,0,0,0,0,0,0,1618663485309,3766,3757,3759,3744,0,0,27,,,,,,,0,0,0,23.00,60.00,1440.00,-426.00,0.00,1387.00,6,133.00,0.00,177.80,0.00,0.00,0.00,0,,,100,100,0,2,0,0,0,2,0,,,,,0.0,0.0,0
55.937812,-4.406066,13.30,0.00,0.00,17.78,13.30,13.30,0.14,17.87,8697,2021-04-17 12:44:45.416,2021-04-17 13:44:45.416,19,0,0,15.024,55.937787,-4.406347,0.00,0.00,0.00,-2.10,6.30,143.90,0,1,0,50,100,-7242,1699,15024,3098.50,1,P-GPS,1,0,0,0,0,0,0,1618663485416,3766,3757,3759,3744,0,0,27,,,,,,,0,0,0,21.00,63.00,1439.00,-426.00,0.00,1387.00,6,133.00,0.00,177.79,0.00,0.00,0.00,0,,,100,100,0,2,0,0,0,2,0,,,,,0.0,0.0,0
55.937812,-4.406066,13.30,0.00,0.00,17.78,13.30,13.30,0.14,17.87,8791,2021-04-17 12:44:45.510,2021-04-17 13:44:45.510,19,0,0,15.024,55.937787,-4.406347,0.00,0.00,0.00,-1.50,6.70,144.00,0,1,0,50,100,-7242,1699,15024,3098.50,1,P-GPS,1,0,0,0,0,0,0,1618663485510,3766,3757,3759,3744,0,0,27,,,,,,,0,0,0,15.00,67.00,1440.00,-426.00,0.00,1387.00,6,133.00,0.00,177.82,0.00,0.00,0.00,0,,,100,100,0,2,0,0,0,2,0,,,,,0.0,0.0,0
55.937812,-4.406066,13.30,0.00,0.00,17.79,13.30,13.30,0.14,17.87,8890,2021-04-17 12:44:45.610,2021-04-17 13:44:45.609,19,0,0,15.024,55.937787,-4.406347,0.00,0.00,0.00,-1.20,6.80,144.00,0,1,0,50,100,-7242,1699,15024,3098.50,1,P-GPS,1,0,0,0,0,0,0,1618663485609,3766,3757,3759,3744,0,0,27,,,,,,,0,0,0,12.00,68.00,1440.00,-426.00,0.00,1387.00,6,133.00,0.00,177.87,0.00,0.00,0.00,0,,,100,100,0,2,0,0,0,2,0,,,,,0.0,0.0,0
55.937812,-4.406066,13.30,0.00,0.00,17.79,13.30,13.30,0.14,17.87,8992,2021-04-17 12:44:45.711,2021-04-17 13:44:45.711,19,0,0,15.024,55.937787,-4.406347,0.00,0.00,0.00,-1.30,6.90,143.80,0,1,0,50,100,-7242,1699,15024,3098.50,1,P-GPS,1,0,0,0,0,0,0,1618663485711,3766,3757,3759,3744,0,0,27,,,,,,,0,0,0,13.00,69.00,1438.00,-426.00,0.00,1387.00,6,133.00,0.00,177.91,0.00,0.00,0.00,0,,,100,100,0,2,0,0,0,2,0,,,,,0.0,0.0,0
55.937812,-4.406066,13.30,0.00,0.00,17.80,13.30,13.30,0.14,17.87,9096,2021-04-17 12:44:45.816,2021-04-17 13:44:45.816,19,0,0,15.019,55.937787,-4.406347,0.00,0.00,0.00,-1.10,6.70,143.90,0,1,0,49,100,-7398,1697,15019,3098.50,1,P-GPS,1,0,0,0,0,0,0,1618663485815,3766,3757,3759,3744,0,0,27,,,,,,,0,0,0,11.00,67.00,1439.00,-426.00,0.00,1387.00,6,133.00,0.00,177.99,0.00,0.00,0.00,0,,,100,100,0,2,0,0,0,2,0,,,,,0.0,0.0,0
55.937812,-4.406066,13.30,0.00,0.00,17.81,13.30,13.30,0.14,17.87,9212,2021-04-17 12:44:45.931,2021-04-17 13:44:45.931,19,0,0,15.019,55.937787,-4.406347,0.00,0.00,0.00,-0.70,6.90,143.80,0,1,0,49,100,-7398,1697,15019,3098.50,1,P-GPS,1,0,0,0,0,0,0,1618663485931,3766,3757,3759,3744,0,0,27,,,,,,,0,0,0,7.00,69.00,1438.00,-426.00,0.00,1387.00,6,133.00,0.00,178.06,0.00,0.00,0.00,0,,,100,100,0,2,0,0,0,2,0,,,,,0.0,0.0,0
55.937812,-4.406065,13.30,0.00,0.00,17.82,13.30,13.30,0.14,17.87,9307,2021-04-17 12:44:46.026,2021-04-17 13:44:46.026,19,0,0,15.019,55.937787,-4.406347,0.00,0.00,0.00,-0.20,7.10,144.00,0,1,0,49,100,-7398,1697,15019,3098.50,1,P-GPS,1,0,0,0,0,0,0,1618663486026,3766,3757,3759,3744,0,0,27,,,,,,,0,0,0,2.00,71.00,1440.00,-426.00,0.00,1387.00,6,133.00,0.00,178.19,0.00,0.00,0.00,0,,,100,100,0,2,0,0,0,2,0,,,,,0.0,0.0,0
55.937812,-4.406065,13.30,0.00,0.00,17.83,13.30,13.30,0.14,17.87,9396,2021-04-17 12:44:46.115,2021-04-17 13:44:46.115,19,0,0,15.019,55.937787,-4.406347,0.00,0.00,0.00,0.20,6.60,144.10,0,1,0,49,100,-7398,1697,15019,3098.50,1,P-GPS,1,0,0,0,0,0,0,1618663486115,3766,3757,3759,3744,0,0,27,,,,,,,0,0,0,-2.00,66.00,1441.00,-426.00,0.00,1387.00,6,133.00,0.00,178.26,0.00,0.00,0.00,0,,,100,100,0,2,0,0,0,2,0,,,,,0.0,0.0,0
55.937812,-4.406065,13.30,0.00,0.00,17.82,13.30,13.30,0.14,17.87,9488,2021-04-17 12:44:46.207,2021-04-17 13:44:46.207,19,0,0,15.019,55.937787,-4.406347,0.00,0.00,0.00,0.00,6.80,144.10,0,1,0,49,100,-7398,1697,15019,3098.50,1,P-GPS,1,0,0,0,0,0,0,1618663486207,3766,3757,3759,3744,0,0,27,,,,,,,0,0,0,-0.00,68.00,1441.00,-426.00,0.00,1387.00,6,133.00,0.00,178.25,0.00,0.00,0.00,0,,,100,100,0,2,0,0,0,2,0,,,,,0.0,0.0,0
55.937812,-4.406065,13.30,0.00,0.00,17.83,13.30,13.30,0.14,17.87,9598,2021-04-17 12:44:46.317,2021-04-17 13:44:46.317,19,0,0,15.019,55.937787,-4.406347,0.00,0.00,0.00,-0.10,7.20,144.10,0,1,0,49,100,-7398,1697,15019,3098.50,1,P-GPS,1,0,0,0,0,0,0,1618663486317,3766,3757,3759,3744,0,0,27,,,,,,,0,0,0,1.00,72.00,1441.00,-426.00,0.00,1387.00,6,133.00,0.00,178.31,0.00,0.00,0.00,0,,,100,100,0,2,0,0,0,2,0,,,,,0.0,0.0,0
55.937812,-4.406065,13.30,0.00,0.00,17.84,13.30,13.30,0.14,17.87,9685,2021-04-17 12:44:46.404,2021-04-17 13:44:46.404,19,0,0,15.019,55.937787,-4.406347,0.00,0.00,0.00,-0.50,7.60,144.00,0,1,0,49,100,-7398,1697,15019,3098.50,1,P-GPS,1,0,0,0,0,0,0,1618663486404,3766,3757,3759,3744,0,0,27,,,,,,,0,0,0,5.00,76.00,1440.00,-426.00,0.00,1387.00,6,133.00,0.00,178.44,0.00,0.00,0.00,0,,,100,100,0,2,0,0,0,2,0,,,,,0.0,0.0,0
55.937812,-4.406065,13.30,0.00,0.00,17.85,13.30,13.30,0.14,17.87,9784,2021-04-17 12:44:46.503,2021-04-17 13:44:46.503,19,0,0,15.019,55.937787,-4.406347,0.00,0.00,0.00,-0.70,7.80,144.00,0,1,0,49,100,-7398,1697,15019,3098.50,1,P-GPS,1,0,0,0,0,0,0,1618663486503,3766,3757,3759,3744,0,0,27,,,,,,,0,0,0,7.00,78.00,1440.00,-426.00,0.00,1387.00,6,133.00,0.00,178.51,0.00,0.00,0.00,0,,,100,100,0,2,0,0,0,2,0,,,,,0.0,0.0,0
55.937812,-4.406065,13.30,0.00,0.00,17.86,13.30,13.30,0.14,17.87,9885,2021-04-17 12:44:46.604,2021-04-17 13:44:46.604,19,0,0,15.019,55.937787,-4.406347,0.00,0.00,0.00,-0.80,8.00,144.00,0,1,0,49,100,-7398,1697,15019,3098.50,1,P-GPS,1,0,0,0,0,0,0,1618663486604,3766,3757,3759,3744,0,0,27,,,,,,,0,0,0,8.00,80.00,1440.00,-426.00,0.00,1387.00,6,133.00,0.00,178.57,0.00,0.00,0.00,0,,,100,100,0,2,0,0,0,2,0,,,,,0.0,0.0,0
55.937812,-4.406065,13.30,0.00,0.00,17.86,13.30,13.30,0.14,17.87,9986,2021-04-17 12:44:46.705,2021-04-17 13:44:46.705,19,0,0,15.019,55.937787,-4.406347,0.00,0.00,0.00,-0.90,7.90,144.00,0,1,0,49,100,-7398,1697,15019,3098.50,1,P-GPS,1,0,0,0,0,0,0,1618663486705,3766,3757,3759,3744,0,0,27,,,,,,,0,0,0,9.00,79.00,1440.00,-426.00,0.00,1387.00,6,133.00,0.00,178.63,0.00,0.00,0.00,0,,,100,100,0,2,0,0,0,2,0,,,,,0.0,0.0,0
55.937812,-4.406065,13.30,0.00,0.00,17.87,13.30,13.30,0.14,17.87,10110,2021-04-17 12:44:46.829,2021-04-17 13:44:46.829,19,0,0,15.016,55.937787,-4.406347,0.00,0.00,0.00,-0.80,7.90,144.00,0,1,0,49,100,-7369,1695,15016,3097.50,1,P-GPS,1,0,0,0,0,0,0,1618663486829,3766,3757,3759,3744,0,0,27,,,,,,,0,0,0,8.00,79.00,1440.00,-426.00,0.00,1387.00,6,133.00,0.00,178.67,0.00,0.00,0.00,0,,,100,100,0,2,0,0,0,2,0,,,,,0.0,0.0,0
55.937812,-4.406065,13.30,0.00,0.00,17.87,13.30,13.30,0.14,17.87,10212,2021-04-17 12:44:46.931,2021-04-17 13:44:46.931,19,0,0,15.016,55.937787,-4.406347,0.00,0.00,0.00,-0.70,8.00,144.10,0,1,0,49,100,-7369,1695,15016,3097.50,1,P-GPS,1,0,0,0,0,0,0,1618663486931,3766,3757,3759,3744,0,0,27,,,,,,,0,0,0,7.00,80.00,1441.00,-426.00,0.00,1387.00,6,133.00,0.00,178.73,0.00,0.00,0.00,0,,,100,100,0,2,0,0,0,2,0,,,,,0.0,0.0,0
55.937812,-4.406064,13.30,0.00,0.00,17.89,13.30,13.30,0.14,17.89,10306,2021-04-17 12:44:47.025,2021-04-17 13:44:47.025,19,0,0,15.016,55.937787,-4.406347,0.00,0.00,0.00,-0.70,8.20,144.00,0,1,0,49,100,-7369,1695,15016,3097.50,1,P-GPS,1,0,0,0,0,0,0,1618663487025,3766,3757,3759,3744,0,0,27,,,,,,,0,0,0,7.00,82.00,1440.00,-426.00,0.00,1387.00,6,133.00,0.00,178.89,0.00,0.00,0.00,0,,,100,100,0,2,0,0,0,2,0,,,,,0.0,0.0,0
55.937812,-4.406064,13.30,0.00,0.00,17.90,13.30,13.30,0.14,17.90,10486,2021-04-17 12:44:47.205,2021-04-17 13:44:47.205,19,0,0,15.016,55.937787,-4.406347,0.00,0.00,0.00,-1.00,8.40,144.00,0,1,0,49,100,-7369,1695,15016,3097.50,1,P-GPS,1,0,0,0,0,0,0,1618663487205,3766,3757,3759,3744,0,0,27,,,,,,,0,0,0,10.00,84.00,1440.00,-426.00,0.00,1387.00,6,133.00,0.00,178.98,0.00,0.00,0.00,0,,,100,100,0,2,0,0,0,2,0,,,,,0.0,0.0,0
55.937812,-4.406064,13.30,0.00,0.00,17.90,13.30,13.30,0.14,17.90,10595,2021-04-17 12:44:47.314,2021-04-17 13:44:47.314,19,0,0,15.016,55.937787,-4.406347,0.00,0.00,0.00,-1.00,8.40,144.10,0,1,0,49,100,-7369,1695,15016,3097.50,1,P-GPS,1,0,0,0,0,0,0,1618663487314,3766,3757,3759,3744,0,0,27,,,,,,,0,0,0,10.00,84.00,1441.00,-426.00,0.00,1387.00,6,133.00,0.00,179.02,0.00,0.00,0.00,0,,,100,100,0,2,0,0,0,2,0,,,,,0.0,0.0,0
55.937812,-4.406064,13.30,0.00,0.00,17.91,13.30,13.30,0.14,17.91,10711,2021-04-17 12:44:47.430,2021-04-17 13:44:47.430,19,0,0,15.016,55.937787,-4.406347,0.00,0.00,0.00,-0.90,8.40,144.10,0,1,0,49,100,-7369,1695,15016,3097.50,1,P-GPS,1,0,0,0,0,0,0,1618663487430,3766,3757,3759,3744,0,0,27,,,,,,,0,0,0,9.00,84.00,1441.00,-426.00,0.00,1387.00,6,133.00,0.00,179.09,0.00,0.00,0.00,0,,,100,100,0,2,0,0,0,2,0,,,,,0.0,0.0,0
55.937812,-4.406064,13.30,0.00,0.00,17.91,13.30,13.30,0.14,17.91,10792,2021-04-17 12:44:47.511,2021-04-17 13:44:47.511,19,0,0,15.016,55.937787,-4.406347,0.00,0.00,0.00,-0.80,8.40,144.00,0,1,0,49,100,-7369,1695,15016,3097.50,1,P-GPS,1,0,0,0,0,0,0,1618663487511,3766,3757,3759,3744,0,0,27,,,,,,,0,0,0,8.00,84.00,1440.00,-426.00,0.00,1387.00,6,133.00,0.00,179.13,0.00,0.00,0.00,0,,,100,100,0,2,0,0,0,2,0,,,,,0.0,0.0,0
55.937812,-4.406064,13.30,0.00,0.00,17.92,13.30,13.30,0.14,17.92,10889,2021-04-17 12:44:47.609,2021-04-17 13:44:47.608,19,0,0,15.016,55.937787,-4.406347,0.00,0.00,0.00,-0.80,8.50,144.00,0,1,0,49,100,-7369,1695,15016,3097.50,1,P-GPS,1,0,0,0,0,0,0,1618663487608,3766,3757,3759,3744,0,0,27,,,,,,,0,0,0,8.00,85.00,1440.00,-426.00,0.00,1387.00,6,133.00,0.00,179.22,0.00,0.00,0.00,0,,,100,100,0,2,0,0,0,2,0,,,,,0.0,0.0,0
55.937812,-4.406064,13.30,0.00,0.00,17.93,13.30,13.30,0.14,17.93,10988,2021-04-17 12:44:47.707,2021-04-17 13:44:47.707,19,0,0,15.016,55.937787,-4.406347,0.00,0.00,0.00,-0.80,8.60,144.00,0,1,0,49,100,-7369,1695,15016,3097.50,1,P-GPS,1,0,0,0,0,0,0,1618663487707,3766,3757,3759,3744,0,0,27,,,,,,,0,0,0,8.00,86.00,1440.00,-426.00,0.00,1387.00,6,133.00,0.00,179.27,0.00,0.00,0.00,0,,,100,100,0,2,0,0,0,2,0,,,,,0.0,0.0,0
55.937812,-4.406064,13.30,0.00,0.00,17.93,13.30,13.30,0.14,17.93,11083,2021-04-17 12:44:47.802,2021-04-17 13:44:47.802,19,0,0,15.017,55.937787,-4.406347,0.00,0.00,0.00,-0.70,8.60,144.00,0,1,0,49,100,-7358,1693,15017,3098.50,1,P-GPS,1,0,0,0,0,0,0,1618663487802,3766,3757,3759,3744,0,0,27,,,,,,,0,0,0,7.00,86.00,1440.00,-426.00,0.00,1387.00,6,133.00,0.00,179.28,0.00,0.00,0.00,0,,,100,100,0,2,0,0,0,2,0,,,,,0.0,0.0,0
55.937812,-4.406064,13.30,0.00,0.00,17.93,13.30,13.30,0.14,17.93,11188,2021-04-17 12:44:47.908,2021-04-17 13:44:47.907,19,0,0,15.017,55.937787,-4.406347,0.00,0.00,0.00,-0.70,8.60,144.00,0,1,0,49,100,-7358,1693,15017,3098.50,1,P-GPS,1,0,0,0,0,0,0,1618663487907,3766,3757,3759,3744,0,0,27,,,,,,,0,0,0,7.00,86.00,1440.00,-426.00,0.00,1387.00,6,133.00,0.00,179.32,0.00,0.00,0.00,0,,,100,100,0,2,0,0,0,2,0,,,,,0.0,0.0,0
55.937812,-4.406064,13.30,0.00,0.00,17.94,13.30,13.30,0.14,17.94,11285,2021-04-17 12:44:48.005,2021-04-17 13:44:48.005,19,0,0,15.017,55.937787,-4.406347,0.00,0.00,0.00,-0.50,8.80,144.10,0,1,0,49,100,-7358,1693,15017,3098.50,1,P-GPS,1,0,0,0,0,0,0,1618663488004,3766,3757,3759,3744,0,0,27,,,,,,,0,0,0,5.00,88.00,1441.00,-426.00,0.00,1387.00,6,133.00,0.00,179.43,0.00,0.00,0.00,0,,,100,100,0,2,0,0,0,2,0,,,,,0.0,0.0,0
55.937812,-4.406064,13.30,0.00,0.00,17.95,13.30,13.30,0.14,17.95,11388,2021-04-17 12:44:48.108,2021-04-17 13:44:48.107,19,0,0,15.017,55.937787,-4.406347,0.00,0.00,0.00,-0.60,8.80,144.10,0,1,0,49,100,-7358,1693,15017,3098.50,1,P-GPS,1,0,0,0,0,0,0,1618663488107,3766,3757,3759,3744,0,0,27,,,,,,,0,0,0,6.00,88.00,1441.00,-426.00,0.00,1387.00,6,133.00,0.00,179.48,0.00,0.00,0.00,0,,,100,100,0,2,0,0,0,2,0,,,,,0.0,0.0,0
55.937812,-4.406063,13.30,0.00,0.00,17.96,13.30,13.30,0.14,17.96,11484,2021-04-17 12:44:48.203,2021-04-17 13:44:48.203,19,0,0,15.017,55.937787,-4.406347,0.00,0.00,0.00,-0.60,8.60,144.00,0,1,0,49,100,-7358,1693,15017,3098.50,1,P-GPS,1,0,0,0,0,0,0,1618663488203,3766,3757,3759,3744,0,0,27,,,,,,,0,0,0,6.00,86.00,1440.00,-426.00,0.00,1387.00,6,133.00,0.00,179.58,0.00,0.00,0.00,0,,,100,100,0,2,0,0,0,2,0,,,,,0.0,0.0,0
55.937812,-4.406063,13.30,0.00,0.00,17.96,13.30,13.30,0.14,17.96,11584,2021-04-17 12:44:48.303,2021-04-17 13:44:48.303,19,0,0,15.017,55.937787,-4.406347,0.00,0.00,0.00,-0.40,8.70,144.00,0,1,0,49,100,-7358,1693,15017,3098.50,1,P-GPS,1,0,0,0,0,0,0,1618663488303,3766,3757,3759,3744,0,0,27,,,,,,,0,0,0,4.00,87.00,1440.00,-426.00,0.00,1387.00,6,133.00,0.00,179.63,0.00,0.00,0.00,0,,,100,100,0,2,0,0,0,2,0,,,,,0.0,0.0,0
55.937812,-4.406063,13.30,0.00,0.00,17.98,13.30,13.30,0.14,17.98,11689,2021-04-17 12:44:48.408,2021-04-17 13:44:48.408,19,0,0,15.017,55.937787,-4.406347,0.00,0.00,0.00,-0.10,9.00,144.00,0,1,0,49,100,-7358,1693,15017,3098.50,1,P-GPS,1,0,0,0,0,0,0,1618663488408,3766,3757,3759,3744,0,0,27,,,,,,,0,0,0,1.00,90.00,1440.00,-426.00,0.00,1387.00,6,133.00,0.00,179.75,0.00,0.00,0.00,0,,,100,100,0,2,0,0,0,2,0,,,,,0.0,0.0,0
55.937813,-4.406063,13.30,0.00,0.00,17.98,13.30,13.30,0.14,17.98,11801,2021-04-17 12:44:48.520,2021-04-17 13:44:48.520,19,0,0,15.017,55.937787,-4.406347,0.00,0.00,0.00,-0.10,9.10,144.00,0,1,0,49,100,-7358,1693,15017,3098.50,1,P-GPS,1,0,0,0,0,0,0,1618663488520,3766,3757,3759,3744,0,0,27,,,,,,,0,0,0,1.00,91.00,1440.00,-426.00,0.00,1387.00,6,133.00,0.00,179.81,0.00,0.00,0.00,0,,,100,100,0,2,0,0,0,2,0,,,,,0.0,0.0,0
55.937813,-4.406063,13.30,0.00,0.00,17.98,13.30,13.30,0.14,17.98,11887,2021-04-17 12:44:48.606,2021-04-17 13:44:48.606,19,0,0,15.017,55.937787,-4.406347,0.00,0.00,0.00,0.00,8.90,144.00,0,1,0,49,100,-7358,1693,15017,3098.50,1,P-GPS,1,0,0,0,0,0,0,1618663488606,3766,3757,3759,3744,0,0,27,,,,,,,0,0,0,-0.00,89.00,1440.00,-426.00,0.00,1387.00,6,133.00,0.00,179.82,0.00,0.00,0.00,0,,,100,100,0,2,0,0,0,2,0,,,,,0.0,0.0,0
55.937813,-4.406063,13.30,0.00,0.00,17.99,13.30,13.30,0.14,17.99,11984,2021-04-17 12:44:48.703,2021-04-17 13:44:48.703,19,0,0,15.017,55.937787,-4.406347,0.00,0.00,0.00,0.10,8.90,144.00,0,1,0,49,100,-7358,1693,15017,3098.50,1,P-GPS,1,0,0,0,0,0,0,1618663488703,3766,3757,3759,3744,0,0,27,,,,,,,0,0,0,-1.00,89.00,1440.00,-426.00,0.00,1387.00,6,133.00,0.00,179.86,0.00,0.00,0.00,0,,,100,100,0,2,0,0,0,2,0,,,,,0.0,0.0,0
55.937813,-4.406063,13.30,0.00,0.00,18.00,13.30,13.30,0.14,18.00,12085,2021-04-17 12:44:48.805,2021-04-17 13:44:48.804,19,0,0,15.007,55.937787,-4.406347,0.00,0.00,0.00,0.00,8.60,143.90,0,1,0,49,100,-7546,1691,15007,3098.50,1,P-GPS,1,0,0,0,0,0,0,1618663488804,3766,3757,3759,3744,0,0,27,,,,,,,0,0,0,-0.00,86.00,1439.00,-426.00,0.00,1387.00,6,133.00,0.00,180.00,0.00,0.00,0.00,0,,,100,100,0,2,0,0,0,2,0,,,,,0.0,0.0,0
55.937813,-4.406063,13.30,0.00,0.00,18.00,13.30,13.30,0.14,18.00,12189,2021-04-17 12:44:48.908,2021-04-17 13:44:48.908,19,0,0,15.007,55.937787,-4.406347,0.00,0.00,0.00,-0.20,8.70,143.90,0,1,0,49,100,-7546,1691,15007,3098.50,1,P-GPS,1,0,0,0,0,0,0,1618663488908,3766,3757,3759,3744,0,0,27,,,,,,,0,0,0,2.00,87.00,1439.00,-426.00,0.00,1387.00,6,133.00,0.00,180.03,0.00,0.00,0.00,0,,,100,100,0,2,0,0,0,2,0,,,,,0.0,0.0,0
55.937813,-4.406063,13.30,0.00,0.00,18.01,13.30,13.30,0.14,18.01,12284,2021-04-17 12:44:49.003,2021-04-17 13:44:49.003,19,0,0,15.007,55.937787,-4.406347,0.00,0.00,0.00,-0.20,8.80,143.90,0,1,0,49,100,-7546,1691,15007,3098.50,1,P-GPS,1,0,0,0,0,0,0,1618663489003,3766,3757,3759,3744,0,0,27,,,,,,,0,0,0,2.00,88.00,1439.00,-426.00,0.00,1387.00,6,133.00,0.00,180.06,0.00,0.00,0.00,0,,,100,100,0,2,0,0,0,2,0,,,,,0.0,0.0,0
55.937813,-4.406063,13.30,0.00,0.00,18.01,13.30,13.30,0.14,18.01,12385,2021-04-17 12:44:49.104,2021-04-17 13:44:49.104,19,0,0,15.007,55.937787,-4.406347,0.00,0.00,0.00,-0.10,8.60,144.00,0,1,0,49,100,-7546,1691,15007,3098.50,1,P-GPS,1,0,0,0,0,0,0,1618663489104,3766,3757,3759,3744,0,0,27,,,,,,,0,0,0,1.00,86.00,1440.00,-426.00,0.00,1387.00,6,133.00,0.00,180.08,0.00,0.00,0.00,0,,,100,100,0,2,0,0,0,2,0,,,,,0.0,0.0,0
55.937812,-4.406062,13.30,0.00,0.00,18.02,13.30,13.30,0.14,18.02,12484,2021-04-17 12:44:49.203,2021-04-17 13:44:49.203,19,0,0,15.007,55.937787,-4.406347,0.00,0.00,0.00,0.00,8.60,144.00,0,1,0,49,100,-7546,1691,15007,3098.50,1,P-GPS,1,0,0,0,0,0,0,1618663489203,3766,3757,3759,3744,0,0,27,,,,,,,0,0,0,-0.00,86.00,1440.00,-426.00,0.00,1387.00,6,133.00,0.00,180.16,0.00,0.00,0.00,0,,,100,100,0,2,0,0,0,2,0,,,,,0.0,0.0,0
55.937812,-4.406062,13.30,0.00,0.00,18.02,13.30,13.30,0.14,18.02,12585,2021-04-17 12:44:49.304,2021-04-17 13:44:49.304,19,0,0,15.007,55.937787,-4.406347,0.00,0.00,0.00,0.00,8.70,144.00,0,1,0,49,100,-7546,1691,15007,3098.50,1,P-GPS,1,0,0,0,0,0,0,1618663489304,3766,3757,3759,3744,0,0,27,,,,,,,0,0,0,-0.00,87.00,1440.00,-426.00,0.00,1387.00,6,133.00,0.00,180.20,0.00,0.00,0.00,0,,,100,100,0,2,0,0,0,2,0,,,,,0.0,0.0,0
55.937812,-4.406062,13.30,0.00,0.00,18.02,13.30,13.30,0.14,18.02,12681,2021-04-17 12:44:49.400,2021-04-17 13:44:49.400,19,0,0,15.007,55.937787,-4.406347,0.00,0.00,0.00,0.00,8.70,144.00,0,1,0,49,100,-7546,1691,15007,3098.50,1,P-GPS,1,0,0,0,-184,0,0,1618663489400,3766,3757,3759,3744,0,0,27,,,,,,,0,0,0,-0.00,87.00,1440.00,-426.00,0.00,1387.00,6,133.00,0.00,180.20,0.00,0.00,0.00,0,,,100,100,0,2,0,0,0,2,0,,,,,0.0,0.0,0
55.937812,-4.406062,13.30,0.00,0.00,18.02,13.30,13.30,0.14,18.02,12782,2021-04-17 12:44:49.501,2021-04-17 13:44:49.501,19,0,0,15.007,55.937787,-4.406347,0.00,0.00,0.30,0.70,9.40,144.20,0,1,0,49,100,-7546,1691,15007,3098.50,1,P-GPS,1,0,0,0,-364,0,0,1618663489501,3766,3757,3759,3744,0,0,27,,,,,,,0,0,0,-7.00,94.00,1442.00,-426.00,0.00,1387.00,6,133.00,0.00,180.21,0.00,0.00,3.00,0,,,100,100,0,2,0,0,0,2,0,,,,,0.0,0.0,0
55.937813,-4.406062,13.30,0.00,0.30,18.03,13.30,13.30,0.30,18.03,12901,2021-04-17 12:44:49.620,2021-04-17 13:44:49.620,19,0,0,15.007,55.937787,-4.406347,0.00,0.00,0.30,-0.10,10.30,144.10,0,1,0,49,100,-7546,1691,15007,3098.50,1,P-GPS,1,0,0,0,-417,0,0,1618663489620,3766,3757,3759,3744,0,0,27,,,,,,,0,0,0,1.00,103.00,1441.00,-426.00,0.00,1387.00,6,133.00,3.00,180.27,0.00,0.00,3.00,0,,,100,100,0,2,0,0,0,2,0,,,,,0.0,0.0,0
55.937813,-4.406062,13.20,0.00,0.60,18.03,13.30,13.30,0.60,18.03,12991,2021-04-17 12:44:49.710,2021-04-17 13:44:49.710,19,0,0,15.007,55.937787,-4.406347,0.00,0.00,0.60,-0.90,10.20,143.90,0,1,0,49,100,-7546,1691,15007,3098.50,1,P-GPS,1,0,0,0,-239,0,0,1618663489710,3766,3757,3759,3744,0,0,27,,,,,,,0,0,0,9.00,102.00,1439.00,-426.00,0.00,1387.00,6,132.00,6.00,180.31,0.00,0.00,6.00,0,,,100,100,0,2,0,0,0,2,0,,,,,0.0,0.0,0
55.937813,-4.406063,13.20,0.00,0.70,18.01,13.30,13.30,0.70,18.03,13087,2021-04-17 12:44:49.806,2021-04-17 13:44:49.806,19,0,0,15.028,55.937787,-4.406347,0.00,0.00,0.70,-1.30,9.10,143.90,0,1,0,49,100,-7286,1686,15028,3098.50,1,P-GPS,1,0,0,0,0,0,0,1618663489806,3766,3757,3759,3744,0,0,27,,,,,,,0,0,0,13.00,91.00,1439.00,-426.00,0.00,1387.00,6,132.00,7.00,180.13,0.00,0.00,7.00,0,,,100,100,0,2,0,0,0,2,0,,,,,0.0,0.0,0
55.937813,-4.406063,13.10,0.00,0.40,18.01,13.30,13.30,0.70,18.03,13186,2021-04-17 12:44:49.905,2021-04-17 13:44:49.905,19,0,0,15.028,55.937787,-4.406347,0.00,0.00,0.40,-0.90,7.80,144.00,0,1,0,49,100,-7286,1686,15028,3098.50,1,P-GPS,1,0,0,0,0,0,0,1618663489905,3766,3757,3759,3744,0,0,27,,,,,,,0,0,0,9.00,78.00,1440.00,-426.00,0.00,1387.00,6,131.00,4.00,180.11,0.00,0.00,4.00,0,,,100,100,0,2,0,0,0,2,0,,,,,0.0,0.0,0
55.937813,-4.406063,13.10,0.00,0.20,18.00,13.30,13.30,0.70,18.03,13288,2021-04-17 12:44:50.008,2021-04-17 13:44:50.007,19,0,0,15.028,55.937787,-4.406347,0.00,0.00,0.20,-0.80,7.60,144.10,0,1,0,49,100,-7286,1686,15028,3098.50,1,P-GPS,1,0,0,0,0,0,0,1618663490007,3766,3757,3759,3744,0,0,27,,,,,,,0,0,0,8.00,76.00,1441.00,-426.00,0.00,1387.00,6,131.00,2.00,180.02,0.00,0.00,2.00,0,,,100,100,0,2,0,0,0,2,0,,,,,0.0,0.0,0
55.937813,-4.406063,13.10,0.00,0.10,18.00,13.30,13.30,0.70,18.03,13386,2021-04-17 12:44:50.105,2021-04-17 13:44:50.105,19,0,0,15.028,55.937787,-4.406347,0.00,0.00,0.10,-0.50,8.10,144.10,0,1,0,49,100,-7286,1686,15028,3098.50,1,P-GPS,1,0,0,0,0,0,0,1618663490105,3766,3757,3759,3744,0,0,27,,,,,,,0,0,0,5.00,81.00,1441.00,-426.00,0.00,1387.00,6,131.00,1.00,180.00,0.00,0.00,1.00,0,,,100,100,0,2,0,0,0,2,0,,,,,0.0,0.0,0
55.937813,-4.406063,13.00,0.00,0.00,17.98,13.30,13.30,0.70,18.03,13489,2021-04-17 12:44:50.208,2021-04-17 13:44:50.208,19,0,0,15.028,55.937787,-4.406347,0.00,0.00,0.00,-0.50,8.40,144.10,0,1,0,49,100,-7286,1686,15028,3098.50,1,P-GPS,1,0,0,0,0,0,0,1618663490208,3766,3757,3759,3744,0,0,27,,,,,,,0,0,0,5.00,84.00,1441.00,-426.00,0.00,1387.00,6,130.00,0.00,179.80,0.00,0.00,0.00,0,,,100,100,0,2,0,0,0,2,0,,,,,0.0,0.0,0
55.937813,-4.406063,13.00,0.00,0.00,17.97,13.30,13.30,0.70,18.03,13589,2021-04-17 12:44:50.308,2021-04-17 13:44:50.308,19,0,0,15.028,55.937787,-4.406347,0.00,0.00,0.00,-1.20,8.60,144.00,0,1,0,49,100,-7286,1686,15028,3098.50,1,P-GPS,1,0,0,0,0,0,0,1618663490308,3766,3757,3759,3744,0,0,27,,,,,,,0,0,0,12.00,86.00,1440.00,-426.00,0.00,1387.00,6,130.00,0.00,179.74,0.00,0.00,0.00,0,,,100,100,0,2,0,0,0,2,0,,,,,0.0,0.0,0
55.937813,-4.406064,13.00,0.00,0.00,17.93,13.30,13.30,0.70,18.03,13689,2021-04-17 12:44:50.408,2021-04-17 13:44:50.408,19,0,0,15.028,55.937787,-4.406347,0.00,0.00,0.00,-1.40,8.60,144.00,0,1,0,49,100,-7286,1686,15028,3098.50,1,P-GPS,1,0,-177,0,0,0,0,1618663490408,3766,3757,3759,3744,0,0,27,,,,,,,0,0,0,14.00,86.00,1440.00,-426.00,0.00,1387.00,6,130.00,0.00,179.31,0.00,0.00,0.00,0,,,100,100,0,2,0,0,0,2,0,,,,,0.0,0.0,0
55.937813,-4.406064,13.00,0.00,0.00,17.92,13.30,13.30,0.70,18.03,13790,2021-04-17 12:44:50.509,2021-04-17 13:44:50.509,19,0,0,15.028,55.937787,-4.406347,0.00,0.00,0.00,-0.50,8.40,144.10,0,1,0,49,100,-7286,1686,15028,3098.50,1,P-GPS,1,0,-340,0,0,0,0,1618663490509,3766,3757,3759,3744,0,0,27,,,,,,,0,0,0,5.00,84.00,1441.00,-426.00,0.00,1387.00,6,130.00,0.00,179.22,0.00,0.00,0.00,0,,,100,100,0,2,0,0,0,2,0,,,,,0.0,0.0,0
55.937813,-4.406064,13.00,0.00,0.00,17.92,13.30,13.30,0.70,18.03,13917,2021-04-17 12:44:50.636,2021-04-17 13:44:50.636,19,0,0,15.028,55.937787,-4.406347,0.00,0.00,0.00,2.40,8.40,144.40,0,1,0,49,100,-7286,1686,15028,3098.50,1,P-GPS,1,0,-471,0,0,0,0,1618663490636,3766,3757,3759,3744,0,0,27,,,,,,,0,0,0,-24.00,84.00,1444.00,-426.00,0.00,1387.00,6,130.00,0.00,179.16,0.00,0.00,0.00,0,,,100,100,0,2,0,0,0,2,0,,,,,0.0,0.0,0
55.937813,-4.406065,13.00,0.00,0.28,17.89,13.30,13.30,0.70,18.03,14090,2021-04-17 12:44:50.809,2021-04-17 13:44:50.809,19,0,0,15.028,55.937787,-4.406347,0.20,-0.20,0.00,13.80,8.30,145.30,0,1,0,49,100,-7286,1686,15028,3098.50,1,P-GPS,1,0,-660,0,0,0,0,1618663490809,3766,3757,3759,3744,0,0,27,,,,,,,0,0,0,-138.00,83.00,1453.00,-426.00,0.00,1387.00,6,130.00,2.83,178.88,2.00,-2.00,0.00,0,,,100,100,0,2,0,0,0,2,0,,,,,0.0,0.0,0
55.937813,-4.406065,13.00,0.00,0.58,17.86,13.30,13.30,0.70,18.03,14192,2021-04-17 12:44:50.911,2021-04-17 13:44:50.911,19,0,0,15.028,55.937787,-4.406347,0.50,-0.30,0.00,19.50,8.30,145.70,0,1,0,49,100,-7286,1686,15028,3098.50,1,P-GPS,1,0,-660,0,0,0,0,1618663490911,3766,3757,3759,3744,0,0,27,,,,,,,0,0,0,-195.00,83.00,1457.00,-426.00,0.00,1387.00,6,130.00,5.83,178.60,5.00,-3.00,0.00,0,,,100,100,0,2,0,0,0,2,0,,,,,0.0,0.0,0
55.937814,-4.406066,13.00,0.00,1.00,17.81,13.30,13.30,1.00,18.03,14292,2021-04-17 12:44:51.011,2021-04-17 13:44:51.011,19,0,0,15.028,55.937787,-4.406347,0.80,-0.60,0.00,22.10,8.20,145.90,0,1,0,49,100,-7286,1686,15028,3098.50,1,P-GPS,1,0,-660,0,0,0,0,1618663491011,3766,3757,3759,3744,0,0,27,,,,,,,0,0,0,-221.00,82.00,1459.00,-426.00,0.00,1387.00,6,130.00,10.00,178.13,8.00,-6.00,0.00,0,,,100,100,0,2,0,0,0,2,0,,,,,0.0,0.0,0
55.937815,-4.406067,13.00,0.00,1.36,17.75,13.30,13.30,1.36,18.03,14386,2021-04-17 12:44:51.105,2021-04-17 13:44:51.105,19,0,0,15.028,55.937787,-4.406347,1.10,-0.80,0.00,22.60,7.90,145.80,0,1,0,49,100,-7286,1686,15028,3098.50,1,P-GPS,1,0,-660,0,0,0,0,1618663491105,3766,3757,3759,3744,0,0,27,,,,,,,0,0,0,-226.00,79.00,1458.00,-426.00,0.00,1387.00,6,130.00,13.60,177.55,11.00,-8.00,0.00,0,,,100,100,0,2,0,0,0,2,0,,,,,0.0,0.0,0
55.937816,-4.406069,13.00,0.00,1.72,17.69,13.30,13.30,1.72,18.03,14485,2021-04-17 12:44:51.204,2021-04-17 13:44:51.204,19,0,0,15.028,55.937787,-4.406347,1.40,-1.00,0.00,22.60,7.80,145.80,0,1,0,49,100,-7286,1686,15028,3098.50,1,P-GPS,1,0,-641,0,0,0,0,1618663491204,3766,3757,3759,3744,0,0,27,,,,,,,0,0,0,-226.00,78.00,1458.00,-426.00,0.00,1387.00,6,130.00,17.20,176.88,14.00,-10.00,0.00,0,,,100,100,0,2,0,0,0,2,0,,,,,0.0,0.0,0
55.937818,-4.406071,13.00,0.00,2.08,17.60,13.30,13.30,2.08,18.03,14590,2021-04-17 12:44:51.309,2021-04-17 13:44:51.309,19,0,0,15.028,55.937787,-4.406347,1.70,-1.20,0.00,22.50,7.90,145.70,0,1,0,49,100,-7286,1686,15028,3098.50,1,P-GPS,1,0,-576,0,0,0,0,1618663491309,3766,3757,3759,3744,0,0,27,,,,,,,0,0,0,-225.00,79.00,1457.00,-426.00,0.00,1387.00,6,130.00,20.81,176.01,17.00,-12.00,0.00,0,,,100,100,0,2,0,0,0,2,0,,,,,0.0,0.0,0
55.937819,-4.406073,13.10,0.00,2.44,17.52,13.30,13.30,2.44,18.03,14684,2021-04-17 12:44:51.403,2021-04-17 13:44:51.403,19,0,0,15.028,55.937787,-4.406347,2.00,-1.40,0.00,21.90,8.80,145.80,0,1,0,49,100,-7286,1686,15028,3098.50,1,P-GPS,1,0,-576,0,0,0,0,1618663491403,3756,3746,3746,3728,0,0,27,,,,,,,0,0,0,-219.00,88.00,1458.00,-426.00,0.00,1387.00,6,131.00,24.41,175.21,20.00,-14.00,0.00,0,,,100,100,0,2,0,0,0,2,0,,,,,0.0,0.0,0
55.937821,-4.406075,13.10,0.00,2.80,17.41,13.30,13.30,2.80,18.03,14791,2021-04-17 12:44:51.510,2021-04-17 13:44:51.510,19,0,0,15.028,55.937787,-4.406347,2.30,-1.60,0.00,20.90,9.20,145.70,0,1,0,49,100,-7286,1686,15028,3098.50,1,P-GPS,1,0,-573,0,0,0,0,1618663491510,3756,3746,3746,3728,0,0,27,,,,,,,0,0,0,-209.00,92.00,1457.00,-426.00,0.00,1387.00,6,131.00,28.02,174.12,23.00,-16.00,0.00,0,,,100,100,0,2,0,0,0,2,0,,,,,0.0,0.0,0
55.937824,-4.406078,13.10,0.00,3.16,17.29,13.30,13.30,3.16,18.03,14927,2021-04-17 12:44:51.647,2021-04-17 13:44:51.646,19,0,0,15.028,55.937787,-4.406347,2.60,-1.80,0.00,19.50,9.20,145.60,0,1,0,49,100,-7286,1686,15028,3098.50,1,P-GPS,1,0,-519,0,0,0,0,1618663491646,3756,3746,3746,3728,0,0,27,,,,,,,0,0,0,-195.00,92.00,1456.00,-426.00,0.00,1387.00,6,131.00,31.62,172.92,26.00,-18.00,0.00,0,,,100,100,0,2,0,0,0,2,0,,,,,0.0,0.0,0
55.937829,-4.406085,13.10,0.00,3.66,17.04,13.30,13.30,3.66,18.03,15097,2021-04-17 12:44:51.817,2021-04-17 13:44:51.816,19,0,0,15.000,55.937787,-4.406347,3.00,-2.10,0.00,10.20,8.70,144.70,0,1,0,49,100,-7581,1684,15000,3098.50,1,P-GPS,1,0,-282,0,0,0,0,1618663491816,3756,3746,3746,3728,0,0,27,,,,,,,0,0,0,-102.00,87.00,1447.00,-426.00,0.00,1387.00,6,131.00,36.62,170.43,30.00,-21.00,0.00,0,,,100,100,0,2,0,0,0,2,0,,,,,0.0,0.0,0
55.937831,-4.406088,13.10,0.00,3.66,16.92,13.30,13.30,3.66,18.03,15196,2021-04-17 12:44:51.916,2021-04-17 13:44:51.915,19,0,0,15.000,55.937787,-4.406347,3.00,-2.10,0.00,4.90,8.80,144.20,0,1,0,49,100,-7581,1684,15000,3098.50,1,P-GPS,1,0,-303,0,0,0,0,1618663491915,3756,3746,3746,3728,0,0,27,,,,,,,0,0,0,-49.00,88.00,1442.00,-426.00,0.00,1387.00,6,131.00,36.62,169.16,30.00,-21.00,0.00,0,,,100,100,0,2,0,0,0,2,0,,,,,0.0,0.0,0
