latitude,longitude,altitude(m),ultrasonicHeight(m),speed(mps),distance(m),max_altitude(m),max_ascent(m),max_speed(mps),max_distance(m),time(millisecond),datetime(utc),datetime(local),satellites,pressure(Pa),temperature(F),voltage(v),home_latitude,home_longitude,velocityX(mps),velocityY(mps),velocityZ(mps),pitch(deg),roll(deg),yaw(deg),powerlevel,isflying,istakingphoto,remainPowerPercent,remainLifePercent,currentCurrent,currentElectricity,currentVoltage,batteryTemperature,dischargeCount,flightmode,isMotorsOn,isTakingVideo,Rc_elevator,Rc_aileron,Rc_throttle,Rc_rudder,Rc_gyro,timestamp,Battery_Cell1,Battery_Cell2,Battery_Cell3,Battery_Cell4,Battery_Cell5,Battery_Cell6,Dronetype,AppVersion,Planename,FlyControllerSerialNumber,RemoteSerialNumber,BatterySerialNumber,CENTER_BATTERY.productDate,CENTER_BATTERY.serialNo,CENTER_BATTERY.fullCapacity,CENTER_BATTERY.productDateRaw,pitchRaw,rollRaw,yawRaw,gimbalPitchRaw,gimbalRollRaw,gimbalYawRaw,flyState,altitudeRaw,speedRaw,distanceRaw,velocityXRaw,velocityYRaw,velocityZRaw,data_reuse,App_Tip,App_Warning,downlinkSignalQuality,uplinkSignalQuality,transmissionChannel,rcModeSwitch,rcHome,rcPause,rcTransform,rcJoystickMode,appMode,FlyControllerSerialNumber_legacy,RemoteSerialNumber_legacy,BatterySerialNumber_legacy,Battery2SerialNumber,frontAvoidDist,backAvoidDist,isBrakingToAvoid
55.935611,-4.404110,0.40,0.50,0.51,0.17,0.40,0.40,0.51,0.17,0,2021-04-11 15:27:53.167,2021-04-11 16:27:53.167,16,0,0,16.611,55.935610,-4.404112,0.00,0.10,-0.50,-1.30,-3.10,-47.40,0,1,0,91,100,-4746,3259,16611,2932.50,0,TakeOff,1,0,0,0,0,0,0,1618154873166,4143,4124,4136,4109,0,0,27,Litchi_4.18.0-g,CJTMAVIC,163DFAS001K45C,0VECFAK0072T52,0P2AFAL5340E87,,0,0,0,13.00,-31.00,-474.00,184.00,0.00,-478.00,11,4.00,5.10,1.68,0.00,1.00,-5.00,0,,,100,100,0,2,0,0,0,2,0,,,,null,0.0,7.8,0
55.935611,-4.404110,0.50,0.60,0.51,0.18,0.50,0.50,0.51,0.18,88,2021-04-11 15:27:53.254,2021-04-11 16:27:53.254,16,0,0,16.611,55.935610,-4.404112,0.00,0.10,-0.50,-2.50,-2.30,-47.30,0,1,0,91,100,-4746,3259,16611,2932.50,0,TakeOff,1,0,0,0,0,0,0,1618154873254,4143,4124,4136,4109,0,0,27,,,,,,,0,0,0,25.00,-23.00,-473.00,184.00,0.00,-478.00,11,5.00,5.10,1.77,0.00,1.00,-5.00,0,,,100,100,0,2,0,0,0,2,0,,,,,0.0,7.8,0
55.935611,-4.404110,0.60,0.60,0.51,0.17,0.60,0.60,0.51,0.18,204,2021-04-11 15:27:53.370,2021-04-11 16:27:53.370,16,0,0,16.611,55.935610,-4.404112,0.00,0.10,-0.50,-3.20,-1.80,-47.20,0,1,0,91,100,-4746,3259,16611,2932.50,0,TakeOff,1,0,0,0,0,0,0,1618154873370,4143,4124,4136,4109,0,0,27,,,,,,,0,0,0,32.00,-18.00,-472.00,184.00,0.00,-478.00,11,6.00,5.10,1.65,0.00,1.00,-5.00,0,,,100,100,0,2,0,0,0,2,0,,,,,0.0,5.4,0
55.935611,-4.404110,0.60,0.70,0.51,0.17,0.60,0.60,0.51,0.18,310,2021-04-11 15:27:53.476,2021-04-11 16:27:53.476,16,0,0,16.611,55.935610,-4.404112,0.00,0.10,-0.50,-3.30,-1.70,-47.20,0,1,0,91,100,-4746,3259,16611,2932.50,0,TakeOff,1,0,0,0,0,0,0,1618154873476,4143,4124,4136,4109,0,0,27,,,,,,,0,0,0,33.00,-17.00,-472.00,184.00,0.00,-478.00,11,6.00,5.10,1.75,0.00,1.00,-5.00,0,,,100,100,0,2,0,0,0,2,0,,,,,0.0,5.4,0
55.935611,-4.404110,0.70,0.70,0.51,0.16,0.70,0.70,0.51,0.18,401,2021-04-11 15:27:53.567,2021-04-11 16:27:53.567,16,0,0,16.611,55.935610,-4.404112,0.00,0.10,-0.50,-3.20,-2.10,-47.30,0,1,0,91,100,-4746,3259,16611,2932.50,0,TakeOff,1,0,0,0,0,0,0,1618154873567,4143,4124,4136,4109,0,0,27,,,,,,,0,0,0,32.00,-21.00,-473.00,184.00,0.00,-478.00,11,7.00,5.10,1.59,0.00,1.00,-5.00,0,,,100,100,0,2,0,0,0,2,0,,,,,0.0,4.9,0
55.935611,-4.404109,0.70,0.80,0.51,0.17,0.70,0.70,0.51,0.18,503,2021-04-11 15:27:53.669,2021-04-11 16:27:53.669,16,0,0,16.611,55.935610,-4.404112,0.00,0.10,-0.50,-3.20,-2.30,-47.30,0,1,0,91,100,-4746,3259,16611,2932.50,0,TakeOff,1,0,0,0,0,0,0,1618154873669,4143,4124,4136,4109,0,0,27,,,,,,,0,0,0,32.00,-23.00,-473.00,184.00,0.00,-478.00,11,7.00,5.10,1.69,0.00,1.00,-5.00,0,,,100,100,0,2,0,0,0,2,0,,,,,0.0,4.9,0
55.935611,-4.404110,0.80,0.80,0.51,0.16,0.80,0.80,0.51,0.18,604,2021-04-11 15:27:53.770,2021-04-11 16:27:53.770,16,0,0,16.611,55.935610,-4.404112,0.00,0.10,-0.50,-3.50,-2.20,-47.30,0,1,0,91,100,-4746,3259,16611,2932.50,0,TakeOff,1,0,0,0,0,0,0,1618154873770,4143,4124,4136,4109,0,0,27,,,,,,,0,0,0,35.00,-22.00,-473.00,184.00,0.00,-478.00,11,8.00,5.10,1.59,0.00,1.00,-5.00,0,,,100,100,0,2,0,0,0,2,0,,,,,0.0,13.5,0
55.935611,-4.404109,0.80,0.90,0.51,0.17,0.80,0.80,0.51,0.18,702,2021-04-11 15:27:53.868,2021-04-11 16:27:53.868,16,0,0,16.611,55.935610,-4.404112,0.00,0.10,-0.50,-3.60,-2.30,-47.20,0,1,0,91,100,-4746,3259,16611,2932.50,0,TakeOff,1,0,0,0,0,0,0,1618154873868,4143,4124,4136,4109,0,0,27,,,,,,,0,0,0,36.00,-23.00,-472.00,184.00,0.00,-478.00,11,8.00,5.10,1.65,0.00,1.00,-5.00,0,,,100,100,0,2,0,0,0,2,0,,,,,0.0,13.5,0
55.935611,-4.404109,0.90,0.90,0.41,0.18,0.90,0.90,0.51,0.18,790,2021-04-11 15:27:53.956,2021-04-11 16:27:53.956,16,0,0,16.611,55.935610,-4.404112,0.00,0.10,-0.40,-3.70,-2.40,-47.30,0,1,0,91,100,-4746,3259,16611,2932.50,0,TakeOff,1,0,0,0,0,0,0,1618154873956,4143,4124,4136,4109,0,0,27,,,,,,,0,0,0,37.00,-24.00,-473.00,184.00,0.00,-478.00,11,9.00,4.12,1.75,0.00,1.00,-4.00,0,,,100,100,0,2,0,0,0,2,0,,,,,0.0,14.1,0
55.935611,-4.404109,0.90,1.00,0.41,0.18,0.90,0.90,0.51,0.18,903,2021-04-11 15:27:54.069,2021-04-11 16:27:54.069,16,0,0,16.611,55.935610,-4.404112,0.00,0.10,-0.40,-3.50,-2.50,-47.30,0,1,0,91,100,-4746,3259,16611,2932.50,0,TakeOff,1,0,0,0,0,0,0,1618154874069,4143,4124,4136,4109,0,0,27,,,,,,,0,0,0,35.00,-25.00,-473.00,184.00,0.00,-478.00,11,9.00,4.12,1.82,0.00,1.00,-4.00,0,,,100,100,0,2,0,0,0,2,0,,,,,0.0,14.1,0
55.935610,-4.404109,1.00,1.00,0.50,0.19,1.00,1.00,0.51,0.19,1001,2021-04-11 15:27:54.167,2021-04-11 16:27:54.167,16,0,0,16.611,55.935610,-4.404112,0.00,0.00,-0.50,-3.40,-2.70,-47.30,0,1,0,91,100,-4746,3259,16611,2932.50,0,TakeOff,1,0,0,0,0,0,0,1618154874167,4143,4124,4136,4109,0,0,27,,,,,,,0,0,0,34.00,-27.00,-473.00,184.00,0.00,-478.00,11,10.00,5.00,1.88,0.00,0.00,-5.00,0,,,100,100,0,2,0,0,0,2,0,,,,,0.0,7.8,0
55.935610,-4.404109,1.00,1.10,0.50,0.19,1.00,1.00,0.51,0.19,1102,2021-04-11 15:27:54.268,2021-04-11 16:27:54.268,16,0,0,16.281,55.935610,-4.404112,0.00,0.00,-0.50,-3.50,-2.60,-47.30,0,1,0,90,100,-6935,3255,16281,2932.50,0,TakeOff,1,0,0,0,0,0,0,1618154874268,4143,4124,4136,4109,0,0,27,,,,,,,0,0,0,35.00,-26.00,-473.00,184.00,0.00,-478.00,6,10.00,5.00,1.93,0.00,0.00,-5.00,0,,,100,100,0,2,0,0,0,2,0,,,,,0.0,7.8,0
55.935610,-4.404109,1.10,1.20,0.30,0.20,1.10,1.10,0.51,0.20,1204,2021-04-11 15:27:54.370,2021-04-11 16:27:54.370,16,0,0,16.281,55.935610,-4.404112,0.00,0.00,-0.30,-3.80,-2.80,-47.30,0,1,0,90,100,-6935,3255,16281,2932.50,0,P-GPS,1,0,0,0,0,0,0,1618154874370,4143,4124,4136,4109,0,0,27,,,,,,,0,0,0,38.00,-28.00,-473.00,184.00,0.00,-478.00,6,11.00,3.00,2.00,0.00,0.00,-3.00,0,,,100,100,0,2,0,0,0,2,0,,,,,0.0,7.8,0
55.935610,-4.404109,1.10,1.20,0.20,0.20,1.10,1.10,0.51,0.20,1302,2021-04-11 15:27:54.468,2021-04-11 16:27:54.468,16,0,0,16.281,55.935610,-4.404112,0.00,0.00,-0.20,-3.90,-2.70,-47.30,0,1,0,90,100,-6935,3255,16281,2932.50,0,P-GPS,1,0,0,0,0,0,0,1618154874468,4143,4124,4136,4109,0,0,27,,,,,,,0,0,0,39.00,-27.00,-473.00,184.00,0.00,-478.00,6,11.00,2.00,2.04,0.00,0.00,-2.00,0,,,100,100,0,2,0,0,0,2,0,,,,,0.0,7.8,0
55.935611,-4.404109,1.10,1.20,0.10,0.21,1.10,1.10,0.51,0.21,1406,2021-04-11 15:27:54.573,2021-04-11 16:27:54.572,16,0,0,16.281,55.935610,-4.404112,0.00,0.00,-0.10,-3.40,-2.70,-47.30,0,1,0,90,100,-6935,3255,16281,2932.50,0,P-GPS,1,0,0,0,0,0,0,1618154874572,4143,4124,4136,4109,0,0,27,,,,,,,0,0,0,34.00,-27.00,-473.00,184.00,0.00,-478.00,6,11.00,1.00,2.05,0.00,0.00,-1.00,0,,,100,100,0,2,0,0,0,2,0,,,,,0.0,7.8,0
55.935611,-4.404109,1.10,1.20,0.00,0.21,1.10,1.10,0.51,0.21,1503,2021-04-11 15:27:54.670,2021-04-11 16:27:54.669,16,0,0,16.281,55.935610,-4.404112,0.00,0.00,0.00,-2.90,-2.80,-47.50,0,1,0,90,100,-6935,3255,16281,2932.50,0,P-GPS,1,0,0,0,0,0,0,1618154874669,4143,4124,4136,4109,0,0,27,,,,,,,0,0,0,29.00,-28.00,-475.00,184.00,0.00,-478.00,6,11.00,0.00,2.07,0.00,0.00,0.00,0,,,100,100,0,2,0,0,0,2,0,,,,,0.0,7.8,0
55.935611,-4.404109,1.10,1.20,0.00,0.22,1.10,1.10,0.51,0.22,1603,2021-04-11 15:27:54.769,2021-04-11 16:27:54.769,16,0,0,16.281,55.935610,-4.404112,0.00,0.00,0.00,-2.70,-2.70,-47.50,0,1,0,90,100,-6935,3255,16281,2932.50,0,P-GPS,1,0,0,0,0,0,0,1618154874769,4143,4124,4136,4109,0,0,27,,,,,,,0,0,0,27.00,-27.00,-475.00,184.00,0.00,-478.00,6,11.00,0.00,2.19,0.00,0.00,0.00,0,,,100,100,0,2,0,0,0,2,0,,,,,0.0,7.8,0
55.935611,-4.404108,1.10,1.20,0.00,0.22,1.10,1.10,0.51,0.22,1700,2021-04-11 15:27:54.866,2021-04-11 16:27:54.866,16,0,0,16.281,55.935610,-4.404112,0.00,0.00,0.00,-2.80,-2.50,-47.40,0,1,0,90,100,-6935,3255,16281,2932.50,0,P-GPS,1,0,0,0,0,0,0,1618154874866,4143,4124,4136,4109,0,0,27,,,,,,,0,0,0,28.00,-25.00,-474.00,184.00,0.00,-478.00,6,11.00,0.00,2.22,0.00,0.00,0.00,0,,,100,100,0,2,0,0,0,2,0,,,,,0.0,7.8,0
55.935611,-4.404108,1.10,1.20,0.00,0.24,1.10,1.10,0.51,0.24,1791,2021-04-11 15:27:54.957,2021-04-11 16:27:54.957,16,0,0,16.281,55.935610,-4.404112,0.00,0.00,0.00,-2.50,-2.50,-47.40,0,1,0,90,100,-6935,3255,16281,2932.50,0,P-GPS,1,0,0,0,16,0,0,1618154874957,4143,4124,4136,4109,0,0,27,,,,,,,0,0,0,25.00,-25.00,-474.00,184.00,0.00,-478.00,6,11.00,0.00,2.40,0.00,0.00,0.00,0,,,100,100,0,2,0,0,0,2,0,,,,,0.0,7.8,0
55.935611,-4.404108,1.10,1.20,0.00,0.25,1.10,1.10,0.51,0.25,1903,2021-04-11 15:27:55.069,2021-04-11 16:27:55.069,16,0,0,16.281,55.935610,-4.404112,0.00,0.00,0.00,-2.30,-2.90,-47.40,0,1,0,90,100,-6935,3255,16281,2932.50,0,P-GPS,1,0,0,0,127,0,0,1618154875069,4143,4124,4136,4109,0,0,27,,,,,,,0,0,0,23.00,-29.00,-474.00,184.00,0.00,-478.00,6,11.00,0.00,2.46,0.00,0.00,0.00,0,,,100,100,0,2,0,0,0,2,0,,,,,0.0,7.8,0
55.935611,-4.404108,1.10,1.20,0.00,0.27,1.10,1.10,0.51,0.27,2002,2021-04-11 15:27:55.169,2021-04-11 16:27:55.168,16,0,0,16.281,55.935610,-4.404112,0.00,0.00,0.00,-2.50,-2.90,-47.40,0,1,0,90,100,-6935,3255,16281,2932.50,0,P-GPS,1,0,0,0,210,0,0,1618154875168,4143,4124,4136,4109,0,0,27,,,,,,,0,0,0,25.00,-29.00,-474.00,184.00,0.00,-478.00,6,11.00,0.00,2.66,0.00,0.00,0.00,0,,,100,100,0,2,0,0,0,2,0,,,,,0.0,7.6,0
55.935611,-4.404108,1.10,1.20,0.00,0.27,1.10,1.10,0.51,0.27,2101,2021-04-11 15:27:55.268,2021-04-11 16:27:55.267,16,0,0,16.271,55.935610,-4.404112,0.00,0.00,0.00,-2.30,-2.80,-47.40,0,1,0,90,100,-6663,3253,16271,2932.50,0,P-GPS,1,0,0,0,288,0,0,1618154875267,4143,4124,4136,4109,0,0,27,,,,,,,0,0,0,23.00,-28.00,-474.00,184.00,0.00,-478.00,6,11.00,0.00,2.73,0.00,0.00,0.00,0,,,100,100,0,2,0,0,0,2,0,,,,,0.0,7.6,0
55.935612,-4.404108,1.10,1.20,0.10,0.30,1.10,1.10,0.51,0.30,2202,2021-04-11 15:27:55.368,2021-04-11 16:27:55.368,16,0,0,16.271,55.935610,-4.404112,0.00,0.00,-0.10,-2.00,-2.60,-47.30,0,1,0,90,100,-6663,3253,16271,2932.50,0,P-GPS,1,0,0,0,360,0,0,1618154875368,4143,4124,4136,4109,0,0,27,,,,,,,0,0,0,20.00,-26.00,-473.00,184.00,0.00,-478.00,6,11.00,1.00,2.95,0.00,0.00,-1.00,0,,,100,100,0,2,0,0,0,2,0,,,,,0.0,7.6,0
55.935612,-4.404108,1.20,1.30,0.80,0.32,1.20,1.20,0.80,0.32,2399,2021-04-11 15:27:55.565,2021-04-11 16:27:55.565,16,0,0,16.271,55.935610,-4.404112,0.00,0.00,-0.80,-2.40,-2.40,-47.10,0,1,0,90,100,-6663,3253,16271,2932.50,0,P-GPS,1,0,0,0,469,0,0,1618154875565,4143,4124,4136,4109,0,0,27,,,,,,,0,0,0,24.00,-24.00,-471.00,184.00,0.00,-478.00,6,12.00,8.00,3.20,0.00,0.00,-8.00,0,,,100,100,0,2,0,0,0,2,0,,,,,0.0,7.6,0
55.935612,-4.404108,1.30,1.40,1.20,0.33,1.30,1.30,1.20,0.33,2497,2021-04-11 15:27:55.663,2021-04-11 16:27:55.663,16,0,0,16.271,55.935610,-4.404112,0.00,0.00,-1.20,-2.40,-2.20,-47.20,0,1,0,90,100,-6663,3253,16271,2932.50,0,P-GPS,1,0,0,0,469,0,0,1618154875663,4143,4124,4136,4109,0,0,27,,,,,,,0,0,0,24.00,-22.00,-472.00,184.00,0.00,-478.00,6,13.00,12.00,3.25,0.00,0.00,-12.00,0,,,100,100,0,2,0,0,0,2,0,,,,,0.0,7.6,0
55.935612,-4.404108,1.40,1.60,1.50,0.33,1.40,1.40,1.50,0.33,2596,2021-04-11 15:27:55.762,2021-04-11 16:27:55.762,16,0,0,16.271,55.935610,-4.404112,0.00,0.00,-1.50,-2.30,-2.10,-47.20,0,1,0,90,100,-6663,3253,16271,2932.50,0,P-GPS,1,0,0,0,469,0,0,1618154875762,4143,4124,4136,4109,0,0,27,,,,,,,0,0,0,23.00,-21.00,-472.00,184.00,0.00,-478.00,6,14.00,15.00,3.25,0.00,0.00,-15.00,0,,,100,100,0,2,0,0,0,2,0,,,,,0.0,7.6,0
55.935612,-4.404108,1.60,1.70,1.70,0.33,1.60,1.60,1.70,0.33,2705,2021-04-11 15:27:55.871,2021-04-11 16:27:55.871,16,0,0,16.271,55.935610,-4.404112,0.00,0.00,-1.70,-2.30,-1.90,-47.20,0,1,0,90,100,-6663,3253,16271,2932.50,0,P-GPS,1,0,0,0,469,0,0,1618154875871,4143,4124,4136,4109,0,0,27,,,,,,,0,0,0,23.00,-19.00,-472.00,184.00,0.00,-478.00,6,16.00,17.00,3.27,0.00,0.00,-17.00,0,,,100,100,0,2,0,0,0,2,0,,,,,0.0,7.6,0
55.935612,-4.404109,2.00,2.10,1.90,0.29,2.00,2.00,1.90,0.33,2908,2021-04-11 15:27:56.074,2021-04-11 16:27:56.074,16,0,0,16.271,55.935610,-4.404112,0.00,0.00,-1.90,-2.50,-1.30,-47.40,0,1,0,90,100,-6663,3253,16271,2932.50,0,P-GPS,1,0,0,0,468,0,0,1618154876074,4143,4124,4136,4109,0,0,27,,,,,,,0,0,0,25.00,-13.00,-474.00,184.00,0.00,-478.00,6,20.00,19.00,2.94,0.00,0.00,-19.00,0,,,100,100,0,2,0,0,0,2,0,,,,,0.0,7.6,0
55.935612,-4.404108,2.20,2.30,1.90,0.36,2.20,2.20,1.90,0.36,3040,2021-04-11 15:27:56.207,2021-04-11 16:27:56.207,16,0,0,16.262,55.935610,-4.404112,0.00,0.00,-1.90,-2.40,-1.30,-47.50,0,1,0,90,100,-6145,3252,16262,2932.50,0,P-GPS,1,0,0,0,468,0,0,1618154876206,4143,4124,4136,4109,0,0,27,,,,,,,0,0,0,24.00,-13.00,-475.00,184.00,0.00,-478.00,6,22.00,19.00,3.59,0.00,0.00,-19.00,0,,,100,100,0,2,0,0,0,2,0,,,,,0.0,7.7,0
55.935613,-4.404107,2.60,2.70,1.90,0.45,2.60,2.60,1.90,0.45,3202,2021-04-11 15:27:56.368,2021-04-11 16:27:56.368,16,0,0,16.262,55.935610,-4.404112,0.00,0.00,-1.90,-1.70,-1.00,-47.60,0,1,0,90,100,-6145,3252,16262,2932.50,0,P-GPS,1,0,0,0,469,0,0,1618154876368,4143,4124,4136,4109,0,0,27,,,,,,,0,0,0,17.00,-10.00,-476.00,184.00,0.00,-478.00,6,26.00,19.00,4.48,0.00,0.00,-19.00,0,,,100,100,0,2,0,0,0,2,0,,,,,0.0,7.7,0
55.935613,-4.404108,3.00,3.00,1.90,0.43,3.00,3.00,1.90,0.45,3402,2021-04-11 15:27:56.568,2021-04-11 16:27:56.568,16,0,0,16.262,55.935610,-4.404112,0.00,0.00,-1.90,-1.50,-1.50,-47.50,0,1,0,90,100,-6145,3252,16262,2932.50,0,P-GPS,1,0,0,0,468,0,0,1618154876568,4143,4124,4136,4109,0,0,27,,,,,,,0,0,0,15.00,-15.00,-475.00,184.00,0.00,-478.00,6,30.00,19.00,4.32,0.00,0.00,-19.00,0,,,100,100,0,2,0,0,0,2,0,,,,,0.0,7.7,0
55.935613,-4.404108,3.20,3.20,1.90,0.45,3.20,3.20,1.90,0.45,3501,2021-04-11 15:27:56.667,2021-04-11 16:27:56.667,16,0,0,16.262,55.935610,-4.404112,0.00,0.00,-1.90,-1.60,-2.00,-47.50,0,1,0,90,100,-6145,3252,16262,2932.50,0,P-GPS,1,0,0,0,468,0,0,1618154876667,4143,4124,4136,4109,0,0,27,,,,,,,0,0,0,16.00,-20.00,-475.00,184.00,0.00,-478.00,6,32.00,19.00,4.51,0.00,0.00,-19.00,0,,,100,100,0,2,0,0,0,2,0,,,,,0.0,7.8,0
55.935613,-4.404108,3.40,3.40,1.90,0.42,3.40,3.40,1.90,0.45,3602,2021-04-11 15:27:56.768,2021-04-11 16:27:56.768,16,0,0,16.262,55.935610,-4.404112,0.00,0.00,-1.90,-2.40,-2.10,-47.50,0,1,0,90,100,-6145,3252,16262,2932.50,0,P-GPS,1,0,0,0,468,0,0,1618154876768,4143,4124,4136,4109,0,0,27,,,,,,,0,0,0,24.00,-21.00,-475.00,184.00,0.00,-478.00,6,34.00,19.00,4.20,0.00,0.00,-19.00,0,,,100,100,0,2,0,0,0,2,0,,,,,0.0,7.8,0
55.935613,-4.404108,3.60,3.60,1.90,0.43,3.60,3.60,1.90,0.45,3703,2021-04-11 15:27:56.869,2021-04-11 16:27:56.869,16,0,0,16.262,55.935610,-4.404112,0.00,0.00,-1.90,-2.60,-1.80,-47.60,0,1,0,90,100,-6145,3252,16262,2932.50,0,P-GPS,1,0,0,0,465,0,0,1618154876869,4143,4124,4136,4109,0,0,27,,,,,,,0,0,0,26.00,-18.00,-476.00,184.00,0.00,-478.00,6,36.00,19.00,4.33,0.00,0.00,-19.00,0,,,100,100,0,2,0,0,0,2,0,,,,,0.0,0.0,0
55.935613,-4.404108,3.80,3.80,1.90,0.45,3.80,3.80,1.90,0.45,3806,2021-04-11 15:27:56.972,2021-04-11 16:27:56.972,16,0,0,16.262,55.935610,-4.404112,0.00,0.00,-1.90,-2.70,-2.00,-47.60,0,1,0,90,100,-6145,3252,16262,2932.50,0,P-GPS,1,0,0,0,455,0,0,1618154876972,4143,4124,4136,4109,0,0,27,,,,,,,0,0,0,27.00,-20.00,-476.00,184.00,0.00,-478.00,6,38.00,19.00,4.45,0.00,0.00,-19.00,0,,,100,100,0,2,0,0,0,2,0,,,,,0.0,0.0,0
55.935613,-4.404108,4.00,3.90,1.90,0.46,4.00,4.00,1.90,0.46,3902,2021-04-11 15:27:57.068,2021-04-11 16:27:57.068,16,0,0,16.262,55.935610,-4.404112,0.00,0.00,-1.90,-2.70,-2.30,-47.60,0,1,0,90,100,-6145,3252,16262,2932.50,0,P-GPS,1,0,0,0,349,0,0,1618154877068,4143,4124,4136,4109,0,0,27,,,,,,,0,0,0,27.00,-23.00,-476.00,184.00,0.00,-478.00,6,40.00,19.00,4.60,0.00,0.00,-19.00,0,,,100,100,0,2,0,0,0,2,0,,,,,0.0,0.0,0
55.935613,-4.404108,4.20,4.10,1.80,0.44,4.20,4.20,1.90,0.46,4004,2021-04-11 15:27:57.171,2021-04-11 16:27:57.170,16,0,0,16.262,55.935610,-4.404112,0.00,0.00,-1.80,-2.60,-2.60,-47.50,0,1,0,90,100,-6145,3252,16262,2932.50,0,P-GPS,1,0,0,0,187,0,0,1618154877170,4143,4124,4136,4109,0,0,27,,,,,,,0,0,0,26.00,-26.00,-475.00,184.00,0.00,-478.00,6,42.00,18.00,4.43,0.00,0.00,-18.00,0,,,100,100,0,2,0,0,0,2,0,,,,,0.0,0.0,0
55.935613,-4.404108,4.50,4.40,1.10,0.45,4.50,4.50,1.90,0.46,4190,2021-04-11 15:27:57.356,2021-04-11 16:27:57.356,16,0,0,16.028,55.935610,-4.404112,0.00,0.00,-1.10,-2.70,-3.20,-47.50,0,1,0,90,100,-9319,3249,16028,2933.50,0,P-GPS,1,0,0,0,0,0,0,1618154877356,4143,4124,4136,4109,0,0,27,,,,,,,0,0,0,27.00,-32.00,-475.00,184.00,0.00,-478.00,6,45.00,11.00,4.48,0.00,0.00,-11.00,0,,,100,100,0,2,0,0,0,2,0,,,,,0.0,0.0,0
55.935613,-4.404108,4.50,4.40,0.70,0.46,4.50,4.50,1.90,0.46,4289,2021-04-11 15:27:57.455,2021-04-11 16:27:57.455,16,0,0,16.028,55.935610,-4.404112,0.00,0.00,-0.70,-2.80,-3.20,-47.40,0,1,0,90,100,-9319,3249,16028,2933.50,0,P-GPS,1,0,0,0,0,0,0,1618154877455,4143,4124,4136,4109,0,0,27,,,,,,,0,0,0,28.00,-32.00,-474.00,184.00,0.00,-478.00,6,45.00,7.00,4.59,0.00,0.00,-7.00,0,,,100,100,0,2,0,0,0,2,0,,,,,0.0,0.0,0
55.935614,-4.404108,4.60,4.50,0.40,0.49,4.60,4.60,1.90,0.49,4392,2021-04-11 15:27:57.558,2021-04-11 16:27:57.558,16,0,0,16.028,55.935610,-4.404112,0.00,0.00,-0.40,-2.70,-3.10,-47.50,0,1,0,90,100,-9319,3249,16028,2933.50,0,P-GPS,1,0,0,0,0,0,0,1618154877558,4143,4124,4136,4109,0,0,27,,,,,,,0,0,0,27.00,-31.00,-475.00,184.00,0.00,-478.00,6,46.00,4.00,4.89,0.00,0.00,-4.00,0,,,100,100,0,2,0,0,0,2,0,,,,,0.0,0.0,0
55.935614,-4.404108,4.60,4.50,0.20,0.50,4.60,4.60,1.90,0.50,4500,2021-04-11 15:27:57.666,2021-04-11 16:27:57.666,16,0,0,16.028,55.935610,-4.404112,0.00,0.00,-0.20,-2.60,-2.90,-47.50,0,1,0,90,100,-9319,3249,16028,2933.50,0,P-GPS,1,0,95,0,0,0,0,1618154877666,4143,4124,4136,4109,0,0,27,,,,,,,0,0,0,26.00,-29.00,-475.00,184.00,0.00,-478.00,6,46.00,2.00,5.00,0.00,0.00,-2.00,0,,,100,100,0,2,0,0,0,2,0,,,,,0.0,0.0,0
55.935613,-4.404108,4.60,4.50,0.10,0.46,4.60,4.60,1.90,0.50,4590,2021-04-11 15:27:57.756,2021-04-11 16:27:57.756,16,0,0,16.028,55.935610,-4.404112,0.00,0.00,-0.10,-2.50,-2.80,-47.50,0,1,0,90,100,-9319,3249,16028,2933.50,0,P-GPS,1,0,216,0,0,0,0,1618154877756,4143,4124,4136,4109,0,0,27,,,,,,,0,0,0,25.00,-28.00,-475.00,184.00,0.00,-478.00,6,46.00,1.00,4.55,0.00,0.00,-1.00,0,,,100,100,0,2,0,0,0,2,0,,,,,0.0,0.0,0
55.935613,-4.404107,4.70,4.50,0.00,0.46,4.70,4.70,1.90,0.50,4695,2021-04-11 15:27:57.861,2021-04-11 16:27:57.861,16,0,0,16.028,55.935610,-4.404112,0.00,0.00,0.00,-3.30,-2.50,-47.50,0,1,0,90,100,-9319,3249,16028,2933.50,0,P-GPS,1,0,334,0,0,0,0,1618154877861,4143,4124,4136,4109,0,0,27,,,,,,,0,0,0,33.00,-25.00,-475.00,184.00,0.00,-478.00,6,47.00,0.00,4.60,0.00,0.00,0.00,0,,,100,100,0,2,0,0,0,2,0,,,,,0.0,0.0,0
55.935613,-4.404107,4.70,4.40,0.00,0.45,4.70,4.70,1.90,0.50,4791,2021-04-11 15:27:57.957,2021-04-11 16:27:57.957,16,0,0,16.028,55.935610,-4.404112,0.00,0.00,0.00,-5.50,-2.40,-47.50,0,1,0,90,100,-9319,3249,16028,2933.50,0,P-GPS,1,0,415,0,0,0,0,1618154877957,4143,4124,4136,4109,0,0,27,,,,,,,0,0,0,55.00,-24.00,-475.00,184.00,0.00,-478.00,6,47.00,0.00,4.48,0.00,0.00,0.00,0,,,100,100,0,2,0,0,0,2,0,,,,,0.0,0.0,0
55.935613,-4.404107,4.60,4.40,0.00,0.45,4.70,4.70,1.90,0.50,4892,2021-04-11 15:27:58.058,2021-04-11 16:27:58.058,16,0,0,16.028,55.935610,-4.404112,0.00,0.00,0.00,-9.40,-2.30,-47.40,0,1,0,90,100,-9319,3249,16028,2933.50,0,P-GPS,1,0,434,0,0,0,0,1618154878058,4143,4124,4136,4109,0,0,27,,,,,,,0,0,0,94.00,-23.00,-474.00,184.00,0.00,-478.00,6,46.00,0.00,4.50,0.00,0.00,0.00,0,,,100,100,0,2,0,0,0,2,0,,,,,0.0,0.0,0
55.935613,-4.404108,4.60,4.40,0.14,0.44,4.70,4.70,1.90,0.50,4991,2021-04-11 15:27:58.157,2021-04-11 16:27:58.157,16,0,0,16.028,55.935610,-4.404112,0.10,-0.10,0.00,-13.20,-2.40,-47.30,0,1,0,90,100,-9319,3249,16028,2933.50,0,P-GPS,1,0,449,0,0,0,0,1618154878157,4143,4124,4136,4109,0,0,27,,,,,,,0,0,0,132.00,-24.00,-473.00,159.00,0.00,-479.00,6,46.00,1.41,4.38,1.00,-1.00,0.00,0,,,100,100,0,2,0,0,0,2,0,,,,,0.0,0.0,0
55.935613,-4.404108,4.60,4.40,0.28,0.44,4.70,4.70,1.90,0.50,5112,2021-04-11 15:27:58.278,2021-04-11 16:27:58.278,16,0,0,16.101,55.935610,-4.404112,0.20,-0.20,0.00,-15.90,-2.40,-47.30,0,1,0,90,100,-7450,3247,16101,2933.50,0,P-GPS,1,0,451,0,45,0,0,1618154878278,4143,4124,4136,4109,0,0,27,,,,,,,0,0,0,159.00,-24.00,-473.00,117.00,0.00,-479.00,6,46.00,2.83,4.42,2.00,-2.00,0.00,0,,,100,100,0,2,0,0,0,2,0,,,,,0.0,0.0,0
55.935613,-4.404108,4.60,4.30,0.57,0.45,4.70,4.70,1.90,0.50,5210,2021-04-11 15:27:58.376,2021-04-11 16:27:58.376,16,0,0,16.101,55.935610,-4.404112,0.40,-0.40,0.00,-17.60,-2.30,-47.30,0,1,0,90,100,-7450,3247,16101,2933.50,0,P-GPS,1,0,451,0,160,0,0,1618154878376,4143,4124,4136,4109,0,0,27,,,,,,,0,0,0,176.00,-23.00,-473.00,96.00,0.00,-478.00,6,46.00,5.66,4.54,4.00,-4.00,0.00,0,,,100,100,0,2,0,0,0,2,0,,,,,0.0,0.0,0
55.935615,-4.404110,4.50,4.30,1.06,0.55,4.70,4.70,1.90,0.55,5406,2021-04-11 15:27:58.572,2021-04-11 16:27:58.572,16,0,0,16.101,55.935610,-4.404112,0.70,-0.80,0.00,-17.90,-2.00,-47.30,0,1,0,90,100,-7450,3247,16101,2933.50,0,P-GPS,1,0,441,0,290,0,0,1618154878572,4143,4124,4136,4109,0,0,27,,,,,,,0,0,0,179.00,-20.00,-473.00,80.00,0.00,-478.00,6,45.00,10.63,5.49,7.00,-8.00,0.00,0,,,100,100,0,2,0,0,0,2,0,,,,,0.0,0.0,0
55.935615,-4.404112,4.60,4.30,1.45,0.63,4.70,4.70,1.90,0.63,5505,2021-04-11 15:27:58.671,2021-04-11 16:27:58.671,16,0,0,16.101,55.935610,-4.404112,0.90,-1.10,-0.30,-16.90,-1.90,-47.20,0,1,0,90,100,-7450,3247,16101,2933.50,0,P-GPS,1,0,436,0,297,0,0,1618154878671,4143,4124,4136,4109,0,0,27,,,,,,,0,0,0,169.00,-19.00,-472.00,80.00,0.00,-478.00,6,46.00,14.53,6.32,9.00,-11.00,-3.00,0,,,100,100,0,2,0,0,0,2,0,,,,,0.0,0.0,0
55.935617,-4.404113,4.60,4.30,1.68,0.78,4.70,4.70,1.90,0.78,5606,2021-04-11 15:27:58.772,2021-04-11 16:27:58.772,16,0,0,16.101,55.935610,-4.404112,1.10,-1.20,-0.40,-16.30,-1.90,-47.20,0,1,0,90,100,-7450,3247,16101,2933.50,0,P-GPS,1,0,432,0,298,0,0,1618154878772,4143,4124,4136,4109,0,0,27,,,,,,,0,0,0,163.00,-19.00,-472.00,80.00,0.00,-478.00,6,46.00,16.76,7.84,11.00,-12.00,-4.00,0,,,100,100,0,2,0,0,0,2,0,,,,,0.0,0.0,0
55.935618,-4.404115,4.60,4.40,1.97,0.94,4.70,4.70,1.97,0.94,5703,2021-04-11 15:27:58.870,2021-04-11 16:27:58.870,16,0,0,16.101,55.935610,-4.404112,1.30,-1.40,-0.50,-15.90,-2.00,-45.60,0,1,0,90,100,-7450,3247,16101,2933.50,0,P-GPS,1,0,430,0,297,0,0,1618154878869,4143,4124,4136,4109,0,0,27,,,,,,,0,0,0,159.00,-20.00,-456.00,80.00,0.00,-478.00,6,46.00,19.75,9.40,13.00,-14.00,-5.00,0,,,100,100,0,2,0,0,0,2,0,,,,,0.0,0.0,0
55.935620,-4.404116,4.70,4.40,2.18,1.15,4.70,4.70,2.18,1.15,5791,2021-04-11 15:27:58.957,2021-04-11 16:27:58.957,16,0,0,16.101,55.935610,-4.404112,1.50,-1.50,-0.50,-15.60,-2.10,-45.00,0,1,0,90,100,-7450,3247,16101,2933.50,0,P-GPS,1,0,429,0,291,0,0,1618154878957,4143,4124,4136,4109,0,0,27,,,,,,,0,0,0,156.00,-21.00,-450.00,80.00,0.00,-478.00,6,47.00,21.79,11.48,15.00,-15.00,-5.00,0,,,100,100,0,2,0,0,0,2,0,,,,,0.0,0.0,0
55.935621,-4.404119,4.70,4.50,2.34,1.35,4.70,4.70,2.34,1.35,5893,2021-04-11 15:27:59.059,2021-04-11 16:27:59.059,16,0,0,16.101,55.935610,-4.404112,1.60,-1.60,-0.60,-15.30,-2.00,-44.10,0,1,0,90,100,-7450,3247,16101,2933.50,0,P-GPS,1,0,427,0,278,0,0,1618154879059,4143,4124,4136,4109,0,0,27,,,,,,,0,0,0,153.00,-20.00,-441.00,80.00,0.00,-478.00,6,47.00,23.41,13.52,16.00,-16.00,-6.00,0,,,100,100,0,2,0,0,0,2,0,,,,,0.0,0.0,0
55.935623,-4.404120,4.80,4.60,2.62,1.58,4.80,4.80,2.62,1.58,6003,2021-04-11 15:27:59.169,2021-04-11 16:27:59.169,16,0,0,16.101,55.935610,-4.404112,1.80,-1.80,-0.60,-14.90,-1.70,-43.80,0,1,0,90,100,-7450,3247,16101,2933.50,0,P-GPS,1,0,423,0,259,0,0,1618154879169,4143,4124,4136,4109,0,0,27,,,,,,,0,0,0,149.00,-17.00,-438.00,80.00,0.00,-478.00,6,48.00,26.15,15.80,18.00,-18.00,-6.00,0,,,100,100,0,2,0,0,0,2,0,,,,,0.0,0.0,0
55.935625,-4.404123,4.80,4.60,2.73,1.82,4.80,4.80,2.73,1.82,6089,2021-04-11 15:27:59.255,2021-04-11 16:27:59.255,16,0,0,16.235,55.935610,-4.404112,1.90,-1.90,-0.50,-14.80,-1.70,-42.90,0,1,0,90,100,-5461,3245,16235,2933.50,0,P-GPS,1,0,423,0,259,0,0,1618154879255,4143,4124,4136,4109,0,0,27,,,,,,,0,0,0,148.00,-17.00,-429.00,80.00,0.00,-478.00,6,48.00,27.33,18.23,19.00,-19.00,-5.00,0,,,100,100,0,2,0,0,0,2,0,,,,,0.0,0.0,0
55.935627,-4.404124,4.90,4.70,2.86,2.11,4.90,4.90,2.86,2.11,6194,2021-04-11 15:27:59.360,2021-04-11 16:27:59.360,15,0,0,16.235,55.935610,-4.404112,2.10,-1.90,-0.40,-14.40,-1.90,-42.50,0,1,0,90,100,-5461,3245,16235,2933.50,0,P-GPS,1,0,424,0,259,0,0,1618154879360,4143,4124,4136,4109,0,0,27,,,,,,,0,0,0,144.00,-19.00,-425.00,80.00,0.00,-478.00,6,49.00,28.60,21.14,21.00,-19.00,-4.00,0,,,100,100,0,2,0,0,0,2,0,,,,,0.0,0.0,0
55.935629,-4.404126,4.90,4.70,3.00,2.39,4.90,4.90,3.00,2.39,6291,2021-04-11 15:27:59.459,2021-04-11 16:27:59.457,15,0,0,16.235,55.935610,-4.404112,2.20,-2.00,-0.40,-13.90,-1.80,-42.20,0,1,0,90,100,-5461,3245,16235,2933.50,0,P-GPS,1,0,423,0,259,0,0,1618154879457,4143,4124,4136,4109,0,0,27,,,,,,,0,0,0,139.00,-18.00,-422.00,80.00,0.00,-478.00,6,49.00,30.00,23.90,22.00,-20.00,-4.00,0,,,100,100,0,2,0,0,0,2,0,,,,,0.0,0.0,0
55.935632,-4.404128,5.00,4.80,3.15,2.71,5.00,5.00,3.15,2.71,6388,2021-04-11 15:27:59.554,2021-04-11 16:27:59.554,15,0,0,16.235,55.935610,-4.404112,2.30,-2.10,-0.50,-13.50,-1.60,-42.10,0,1,0,90,100,-5461,3245,16235,2933.50,0,P-GPS,1,0,422,0,258,0,0,1618154879554,4143,4124,4136,4109,0,0,27,,,,,,,0,0,0,135.00,-16.00,-421.00,80.00,0.00,-478.00,6,50.00,31.54,27.07,23.00,-21.00,-5.00,0,,,100,100,0,2,0,0,0,2,0,,,,,0.0,0.0,0
55.935634,-4.404131,5.00,4.80,3.37,3.02,5.00,5.00,3.37,3.02,6490,2021-04-11 15:27:59.656,2021-04-11 16:27:59.656,15,0,0,16.235,55.935610,-4.404112,2.50,-2.20,-0.50,-13.20,-1.70,-41.40,0,1,0,90,100,-5461,3245,16235,2933.50,0,P-GPS,1,0,403,0,247,0,0,1618154879656,4143,4124,4136,4109,0,0,27,,,,,,,0,0,0,132.00,-17.00,-414.00,80.00,0.00,-478.00,6,50.00,33.67,30.16,25.00,-22.00,-5.00,0,,,100,100,0,2,0,0,0,2,0,,,,,0.0,0.0,0
55.935638,-4.404133,5.10,4.80,3.49,3.40,5.10,5.10,3.49,3.40,6588,2021-04-11 15:27:59.754,2021-04-11 16:27:59.754,15,0,0,16.235,55.935610,-4.404112,2.60,-2.30,-0.40,-13.00,-1.80,-41.20,0,1,0,90,100,-5461,3245,16235,2933.50,0,P-GPS,1,0,366,0,141,0,0,1618154879754,4143,4124,4136,4109,0,0,27,,,,,,,0,0,0,130.00,-18.00,-412.00,80.00,0.00,-478.00,6,51.00,34.94,34.02,26.00,-23.00,-4.00,0,,,100,100,0,2,0,0,0,2,0,,,,,0.0,0.0,0
55.935640,-4.404136,5.10,4.90,3.57,3.74,5.10,5.10,3.57,3.74,6688,2021-04-11 15:27:59.854,2021-04-11 16:27:59.854,15,0,0,16.235,55.935610,-4.404112,2.70,-2.30,-0.40,-12.00,-1.90,-41.00,0,1,0,90,100,-5461,3245,16235,2933.50,0,P-GPS,1,0,316,0,45,0,0,1618154879854,4143,4124,4136,4109,0,0,27,,,,,,,0,0,0,120.00,-19.00,-410.00,80.00,0.00,-478.00,6,51.00,35.69,37.42,27.00,-23.00,-4.00,0,,,100,100,0,2,0,0,0,2,0,,,,,0.0,0.0,0
55.935643,-4.404138,5.10,4.90,3.62,4.08,5.10,5.10,3.62,4.08,6797,2021-04-11 15:27:59.964,2021-04-11 16:27:59.963,15,0,0,16.235,55.935610,-4.404112,2.70,-2.40,-0.20,-9.80,-2.30,-40.70,0,1,0,90,100,-5461,3245,16235,2933.50,0,P-GPS,1,0,222,0,0,0,0,1618154879963,4143,4124,4136,4109,0,0,27,,,,,,,0,0,0,98.00,-23.00,-407.00,80.00,0.00,-478.00,6,51.00,36.18,40.82,27.00,-24.00,-2.00,0,,,100,100,0,2,0,0,0,2,0,,,,,0.0,0.0,0
55.935646,-4.404141,5.10,4.90,3.70,4.44,5.10,5.10,3.70,4.44,6895,2021-04-11 15:28:00.062,2021-04-11 16:28:00.062,15,0,0,16.235,55.935610,-4.404112,2.90,-2.30,-0.10,-6.10,-2.30,-38.60,0,1,0,90,100,-5461,3245,16235,2933.50,0,P-GPS,1,0,134,0,0,0,0,1618154880061,4143,4124,4136,4109,0,0,27,,,,,,,0,0,0,61.00,-23.00,-386.00,80.00,0.00,-478.00,6,51.00,37.03,44.39,29.00,-23.00,-1.00,0,,,100,100,0,2,0,0,0,2,0,,,,,0.0,0.0,0
55.935649,-4.404144,5.10,4.90,3.66,4.82,5.10,5.10,3.70,4.82,6991,2021-04-11 15:28:00.157,2021-04-11 16:28:00.157,15,0,0,16.235,55.935610,-4.404112,3.00,-2.10,0.00,-2.20,-2.30,-36.00,0,1,0,90,100,-5461,3245,16235,2933.50,0,P-GPS,1,0,0,0,0,0,0,1618154880157,4143,4124,4136,4109,0,0,27,,,,,,,0,0,0,22.00,-23.00,-360.00,80.00,0.00,-478.00,6,51.00,36.62,48.17,30.00,-21.00,0.00,0,,,100,100,0,2,0,0,0,2,0,,,,,0.0,0.0,0
55.935652,-4.404146,5.10,4.90,3.61,5.18,5.10,5.10,3.70,5.18,7102,2021-04-11 15:28:00.268,2021-04-11 16:28:00.268,15,0,0,16.205,55.935610,-4.404112,3.00,-2.00,0.00,9.00,-2.60,-34.60,0,1,0,90,100,-7360,3243,16205,2934.50,0,P-GPS,1,0,0,0,0,0,0,1618154880268,4143,4124,4136,4109,0,0,27,,,,,,,0,0,0,-90.00,-26.00,-346.00,80.00,0.00,-478.00,6,51.00,36.06,51.75,30.00,-20.00,0.00,0,,,100,100,0,2,0,0,0,2,0,,,,,0.0,0.0,0
55.935655,-4.404149,5.10,4.90,3.28,5.54,5.10,5.10,3.70,5.54,7202,2021-04-11 15:28:00.369,2021-04-11 16:28:00.369,14,0,0,16.205,55.935610,-4.404112,2.80,-1.70,0.00,20.40,-2.10,-33.30,0,1,0,90,100,-7360,3243,16205,2934.50,0,P-GPS,1,0,0,0,0,0,0,1618154880368,4143,4124,4136,4109,0,0,27,,,,,,,0,0,0,-204.00,-21.00,-333.00,80.00,0.00,-478.00,6,51.00,32.76,55.40,28.00,-17.00,0.00,0,,,100,100,0,2,0,0,0,2,0,,,,,0.0,0.0,0
55.935657,-4.404151,5.10,4.90,2.92,5.84,5.10,5.10,3.70,5.84,7286,2021-04-11 15:28:00.453,2021-04-11 16:28:00.452,14,0,0,16.205,55.935610,-4.404112,2.50,-1.50,0.00,23.50,-1.00,-32.20,0,1,0,90,100,-7360,3243,16205,2934.50,0,P-GPS,1,0,0,0,0,0,0,1618154880452,4143,4124,4136,4109,0,0,27,,,,,,,0,0,0,-235.00,-10.00,-322.00,80.00,0.00,-478.00,6,51.00,29.15,58.45,25.00,-15.00,0.00,0,,,100,100,0,2,0,0,0,2,0,,,,,0.0,0.0,0
55.935660,-4.404153,5.10,4.90,2.42,6.13,5.10,5.10,3.70,6.13,7392,2021-04-11 15:28:00.558,2021-04-11 16:28:00.558,16,0,0,16.205,55.935610,-4.404112,2.10,-1.20,0.00,24.10,-0.70,-31.50,0,1,0,90,100,-7360,3243,16205,2934.50,0,P-GPS,1,0,0,0,0,0,0,1618154880558,4143,4124,4136,4109,0,0,27,,,,,,,0,0,0,-241.00,-7.00,-315.00,80.00,0.00,-478.00,6,51.00,24.19,61.31,21.00,-12.00,0.00,0,,,100,100,0,2,0,0,0,2,0,,,,,0.0,0.0,0
55.935661,-4.404154,5.10,4.90,1.92,6.35,5.10,5.10,3.70,6.35,7501,2021-04-11 15:28:00.667,2021-04-11 16:28:00.667,16,0,0,16.205,55.935610,-4.404112,1.70,-0.90,0.00,23.30,-1.50,-31.20,0,1,0,90,100,-7360,3243,16205,2934.50,0,P-GPS,1,0,0,0,0,0,0,1618154880667,4143,4124,4136,4109,0,0,27,,,,,,,0,0,0,-233.00,-15.00,-312.00,80.00,0.00,-478.00,6,51.00,19.24,63.46,17.00,-9.00,0.00,0,,,100,100,0,2,0,0,0,2,0,,,,,0.0,0.0,0
55.935663,-4.404155,5.10,4.90,1.57,6.53,5.10,5.10,3.70,6.53,7592,2021-04-11 15:28:00.758,2021-04-11 16:28:00.758,16,0,0,16.205,55.935610,-4.404112,1.40,-0.70,0.00,20.70,-1.90,-31.00,0,1,0,90,100,-7360,3243,16205,2934.50,0,P-GPS,1,0,0,0,0,0,0,1618154880758,4143,4124,4136,4109,0,0,27,,,,,,,0,0,0,-207.00,-19.00,-310.00,80.00,0.00,-478.00,6,51.00,15.65,65.26,14.00,-7.00,0.00,0,,,100,100,0,2,0,0,0,2,0,,,,,0.0,0.0,0
55.935664,-4.404156,5.10,5.00,1.17,6.66,5.10,5.10,3.70,6.66,7698,2021-04-11 15:28:00.865,2021-04-11 16:28:00.864,16,0,0,16.205,55.935610,-4.404112,1.00,-0.60,0.00,18.20,-2.30,-31.20,0,1,0,90,100,-7360,3243,16205,2934.50,0,P-GPS,1,0,0,0,0,0,0,1618154880864,4143,4124,4136,4109,0,0,27,,,,,,,0,0,0,-182.00,-23.00,-312.00,80.00,0.00,-478.00,6,51.00,11.66,66.59,10.00,-6.00,0.00,0,,,100,100,0,2,0,0,0,2,0,,,,,0.0,0.0,0
55.935665,-4.404157,5.00,5.00,0.90,6.82,5.10,5.10,3.70,6.82,7794,2021-04-11 15:28:00.960,2021-04-11 16:28:00.960,15,0,0,16.205,55.935610,-4.404112,0.80,-0.40,0.10,15.40,-2.00,-31.20,0,1,0,90,100,-7360,3243,16205,2934.50,0,P-GPS,1,0,0,0,0,0,0,1618154880960,4143,4124,4136,4109,0,0,27,,,,,,,0,0,0,-154.00,-20.00,-312.00,80.00,0.00,-478.00,6,50.00,9.00,68.20,8.00,-4.00,1.00,0,,,100,100,0,2,0,0,0,2,0,,,,,0.0,0.0,0
55.935666,-4.404157,5.00,5.00,0.55,6.89,5.10,5.10,3.70,6.89,7902,2021-04-11 15:28:01.068,2021-04-11 16:28:01.068,15,0,0,16.205,55.935610,-4.404112,0.50,-0.20,0.10,11.80,-2.30,-31.10,0,1,0,90,100,-7360,3243,16205,2934.50,0,P-GPS,1,0,0,0,0,0,0,1618154881068,4143,4124,4136,4109,0,0,27,,,,,,,0,0,0,-118.00,-23.00,-311.00,80.00,0.00,-478.00,6,50.00,5.48,68.93,5.00,-2.00,1.00,0,,,100,100,0,2,0,0,0,2,0,,,,,0.0,0.0,0
55.935666,-4.404158,5.00,5.00,0.33,6.93,5.10,5.10,3.70,6.93,8018,2021-04-11 15:28:01.185,2021-04-11 16:28:01.184,15,0,0,16.237,55.935610,-4.404112,0.30,-0.10,0.10,7.60,-2.80,-31.00,0,1,0,90,100,-6044,3241,16237,2934.50,0,P-GPS,1,0,0,0,0,0,0,1618154881184,4143,4124,4136,4109,0,0,27,,,,,,,0,0,0,-76.00,-28.00,-310.00,80.00,0.00,-478.00,6,50.00,3.32,69.31,3.00,-1.00,1.00,0,,,100,100,0,2,0,0,0,2,0,,,,,0.0,0.0,0
55.935667,-4.404158,5.00,5.00,0.00,6.97,5.10,5.10,3.70,6.97,8203,2021-04-11 15:28:01.369,2021-04-11 16:28:01.369,16,0,0,16.237,55.935610,-4.404112,0.00,0.00,0.00,0.50,-1.90,-30.60,0,1,0,90,100,-6044,3241,16237,2934.50,0,P-GPS,1,0,0,0,0,0,0,1618154881369,4143,4124,4136,4109,0,0,27,,,,,,,0,0,0,-5.00,-19.00,-306.00,80.00,0.00,-478.00,6,50.00,0.00,69.69,0.00,0.00,0.00,0,,,100,100,0,2,0,0,0,2,0,,,,,0.0,0.0,0
55.935667,-4.404158,5.00,5.00,0.00,6.98,5.10,5.10,3.70,6.98,8292,2021-04-11 15:28:01.459,2021-04-11 16:28:01.458,16,0,0,16.237,55.935610,-4.404112,0.00,0.00,0.00,-1.00,-2.30,-30.50,0,1,0,90,100,-6044,3241,16237,2934.50,0,P-GPS,1,0,0,0,0,0,0,1618154881458,4143,4124,4136,4109,0,0,27,,,,,,,0,0,0,10.00,-23.00,-305.00,80.00,0.00,-478.00,6,50.00,0.00,69.76,0.00,0.00,0.00,0,,,100,100,0,2,0,0,0,2,0,,,,,0.0,0.0,0
55.935667,-4.404158,5.00,5.00,0.10,6.97,5.10,5.10,3.70,6.98,8390,2021-04-11 15:28:01.557,2021-04-11 16:28:01.556,16,0,0,16.237,55.935610,-4.404112,0.00,0.10,0.00,-1.70,-2.50,-30.40,0,1,0,90,100,-6044,3241,16237,2934.50,0,P-GPS,1,0,0,0,0,0,0,1618154881556,4055,4025,4034,4004,0,0,27,,,,,,,0,0,0,17.00,-25.00,-304.00,80.00,0.00,-478.00,6,50.00,1.00,69.68,0.00,1.00,0.00,0,,,100,100,0,2,0,0,0,2,0,,,,,0.0,0.0,0
55.935667,-4.404157,5.00,5.00,0.14,6.97,5.10,5.10,3.70,6.98,8490,2021-04-11 15:28:01.656,2021-04-11 16:28:01.656,16,0,0,16.237,55.935610,-4.404112,-0.10,0.10,0.00,-2.20,-2.60,-30.40,0,1,0,90,100,-6044,3241,16237,2934.50,0,P-GPS,1,0,0,0,0,0,0,1618154881656,4055,4025,4034,4004,0,0,27,,,,,,,0,0,0,22.00,-26.00,-304.00,80.00,0.00,-478.00,6,50.00,1.41,69.69,-1.00,1.00,0.00,0,,,100,100,0,2,0,0,0,2,0,,,,,0.0,0.0,0
55.935666,-4.404158,5.00,5.00,0.14,6.93,5.10,5.10,3.70,6.98,8601,2021-04-11 15:28:01.768,2021-04-11 16:28:01.767,16,0,0,16.237,55.935610,-4.404112,-0.10,0.10,0.00,-2.50,-2.60,-30.40,0,1,0,90,100,-6044,3241,16237,2934.50,0,P-GPS,1,0,0,0,0,0,0,1618154881767,4055,4025,4034,4004,0,0,27,,,,,,,0,0,0,25.00,-26.00,-304.00,80.00,0.00,-478.00,6,50.00,1.41,69.30,-1.00,1.00,0.00,0,,,100,100,0,2,0,0,0,2,0,,,,,0.0,0.0,0
55.935666,-4.404157,5.00,4.90,0.14,6.93,5.10,5.10,3.70,6.98,8688,2021-04-11 15:28:01.854,2021-04-11 16:28:01.854,16,0,0,16.237,55.935610,-4.404112,-0.10,0.10,0.00,-3.00,-2.80,-30.40,0,1,0,90,100,-6044,3241,16237,2934.50,0,P-GPS,1,0,0,0,0,0,0,1618154881854,4055,4025,4034,4004,0,0,27,,,,,,,0,0,0,30.00,-28.00,-304.00,80.00,0.00,-478.00,6,50.00,1.41,69.26,-1.00,1.00,0.00,0,,,100,100,0,2,0,0,0,2,0,,,,,0.0,0.0,0
55.935666,-4.404157,5.00,4.90,0.14,6.88,5.10,5.10,3.70,6.98,8790,2021-04-11 15:28:01.956,2021-04-11 16:28:01.956,16,0,0,16.237,55.935610,-4.404112,-0.10,0.10,0.00,-3.60,-2.80,-30.40,0,1,0,90,100,-6044,3241,16237,2934.50,0,P-GPS,1,0,0,0,0,0,0,1618154881956,4055,4025,4034,4004,0,0,27,,,,,,,0,0,0,36.00,-28.00,-304.00,80.00,0.00,-478.00,6,50.00,1.41,68.85,-1.00,1.00,0.00,0,,,100,100,0,2,0,0,0,2,0,,,,,0.0,0.0,0
55.935666,-4.404157,5.00,4.90,0.14,6.88,5.10,5.10,3.70,6.98,8903,2021-04-11 15:28:02.069,2021-04-11 16:28:02.069,16,0,0,16.237,55.935610,-4.404112,-0.10,0.10,0.00,-4.00,-2.60,-30.40,0,1,0,90,100,-6044,3241,16237,2934.50,0,P-GPS,1,0,0,0,0,0,0,1618154882069,4055,4025,4034,4004,0,0,27,,,,,,,0,0,0,40.00,-26.00,-304.00,80.00,0.00,-478.00,6,50.00,1.41,68.79,-1.00,1.00,0.00,0,,,100,100,0,2,0,0,0,2,0,,,,,0.0,0.0,0
55.935666,-4.404156,5.00,4.90,0.14,6.84,5.10,5.10,3.70,6.98,8989,2021-04-11 15:28:02.155,2021-04-11 16:28:02.155,16,0,0,16.237,55.935610,-4.404112,-0.10,0.10,0.00,-4.20,-2.50,-30.40,0,1,0,90,100,-6044,3241,16237,2934.50,0,P-GPS,1,0,0,0,0,0,0,1618154882155,4055,4025,4034,4004,0,0,27,,,,,,,0,0,0,42.00,-25.00,-304.00,80.00,0.00,-478.00,6,50.00,1.41,68.42,-1.00,1.00,0.00,0,,,100,100,0,2,0,0,0,2,0,,,,,0.0,0.0,0
55.935666,-4.404156,5.00,4.90,0.10,6.84,5.10,5.10,3.70,6.98,9100,2021-04-11 15:28:02.266,2021-04-11 16:28:02.266,16,0,0,16.117,55.935610,-4.404112,-0.10,0.00,0.00,-4.30,-2.40,-30.30,0,1,0,90,100,-6453,3240,16117,2934.50,0,P-GPS,1,0,0,0,0,0,0,1618154882266,4055,4025,4034,4004,0,0,27,,,,,,,0,0,0,43.00,-24.00,-303.00,80.00,0.00,-478.00,6,50.00,1.00,68.38,-1.00,0.00,0.00,0,,,100,100,0,2,0,0,0,2,0,,,,,0.0,0.0,0
55.935665,-4.404156,5.00,4.90,0.10,6.80,5.10,5.10,3.70,6.98,9187,2021-04-11 15:28:02.354,2021-04-11 16:28:02.354,16,0,0,16.117,55.935610,-4.404112,-0.10,0.00,0.00,-4.30,-2.30,-30.30,0,1,0,90,100,-6453,3240,16117,2934.50,0,P-GPS,1,0,0,0,0,0,0,1618154882353,4055,4025,4034,4004,0,0,27,,,,,,,0,0,0,43.00,-23.00,-303.00,80.00,0.00,-478.00,6,50.00,1.00,68.00,-1.00,0.00,0.00,0,,,100,100,0,2,0,0,0,2,0,,,,,0.0,0.0,0
55.935665,-4.404156,5.00,4.90,0.10,6.80,5.10,5.10,3.70,6.98,9287,2021-04-11 15:28:02.453,2021-04-11 16:28:02.453,16,0,0,16.117,55.935610,-4.404112,-0.10,0.00,0.00,-4.20,-2.30,-30.40,0,1,0,90,100,-6453,3240,16117,2934.50,0,P-GPS,1,0,0,0,0,0,0,1618154882453,4055,4025,4034,4004,0,0,27,,,,,,,0,0,0,42.00,-23.00,-304.00,80.00,0.00,-478.00,6,50.00,1.00,67.98,-1.00,0.00,0.00,0,,,100,100,0,2,0,0,0,2,0,,,,,0.0,0.0,0
55.935665,-4.404156,5.00,4.90,0.10,6.76,5.10,5.10,3.70,6.98,9396,2021-04-11 15:28:02.562,2021-04-11 16:28:02.562,16,0,0,16.117,55.935610,-4.404112,-0.10,0.00,0.00,-4.10,-2.30,-30.40,0,1,0,90,100,-6453,3240,16117,2934.50,0,P-GPS,1,0,0,0,0,0,0,1618154882562,4055,4025,4034,4004,0,0,27,,,,,,,0,0,0,41.00,-23.00,-304.00,80.00,0.00,-478.00,6,50.00,1.00,67.62,-1.00,0.00,0.00,0,,,100,100,0,2,0,0,0,2,0,,,,,0.0,0.0,0
55.935665,-4.404156,5.00,4.90,0.00,6.76,5.10,5.10,3.70,6.98,9492,2021-04-11 15:28:02.658,2021-04-11 16:28:02.658,16,0,0,16.117,55.935610,-4.404112,0.00,0.00,0.00,-4.10,-2.30,-30.40,0,1,0,90,100,-6453,3240,16117,2934.50,0,P-GPS,1,0,0,0,0,0,0,1618154882658,4055,4025,4034,4004,0,0,27,,,,,,,0,0,0,41.00,-23.00,-304.00,80.00,0.00,-478.00,6,50.00,0.00,67.61,0.00,0.00,0.00,0,,,100,100,0,2,0,0,0,2,0,,,,,0.0,0.0,0
55.935665,-4.404156,5.00,4.80,0.00,6.74,5.10,5.10,3.70,6.98,9590,2021-04-11 15:28:02.757,2021-04-11 16:28:02.756,16,0,0,16.117,55.935610,-4.404112,0.00,0.00,0.00,-4.20,-2.20,-30.30,0,1,0,90,100,-6453,3240,16117,2934.50,0,P-GPS,1,0,0,0,0,0,0,1618154882756,4055,4025,4034,4004,0,0,27,,,,,,,0,0,0,42.00,-22.00,-303.00,80.00,0.00,-478.00,6,50.00,0.00,67.42,0.00,0.00,0.00,0,,,100,100,0,2,0,0,0,2,0,,,,,0.0,0.0,0
55.935665,-4.404156,5.00,4.80,0.00,6.74,5.10,5.10,3.70,6.98,9711,2021-04-11 15:28:02.878,2021-04-11 16:28:02.877,16,0,0,16.117,55.935610,-4.404112,0.00,0.00,0.00,-4.20,-2.40,-30.40,0,1,0,90,100,-6453,3240,16117,2934.50,0,P-GPS,1,0,0,0,0,0,0,1618154882877,4055,4025,4034,4004,0,0,27,,,,,,,0,0,0,42.00,-24.00,-304.00,80.00,0.00,-478.00,6,50.00,0.00,67.42,0.00,0.00,0.00,0,,,100,100,0,2,0,0,0,2,0,,,,,0.0,0.0,0
55.935665,-4.404155,5.00,4.80,0.00,6.73,5.10,5.10,3.70,6.98,9907,2021-04-11 15:28:03.074,2021-04-11 16:28:03.073,16,0,0,16.117,55.935610,-4.404112,0.00,0.00,0.00,-4.20,-2.20,-30.40,0,1,0,90,100,-6453,3240,16117,2934.50,0,P-GPS,1,0,0,0,0,0,0,1618154883073,4055,4025,4034,4004,0,0,27,,,,,,,0,0,0,42.00,-22.00,-304.00,80.00,0.00,-478.00,6,50.00,0.00,67.34,0.00,0.00,0.00,0,,,100,100,0,2,0,0,0,2,0,,,,,0.0,0.0,0
55.935665,-4.404155,4.90,4.80,0.00,6.72,5.10,5.10,3.70,6.98,10020,2021-04-11 15:28:03.186,2021-04-11 16:28:03.186,16,0,0,16.150,55.935610,-4.404112,0.00,0.00,0.00,-4.00,-2.00,-30.40,0,1,0,90,100,-6589,3238,16150,2934.50,0,P-GPS,1,0,0,0,0,0,0,1618154883186,4055,4025,4034,4004,0,0,27,,,,,,,0,0,0,40.00,-20.00,-304.00,80.00,0.00,-478.00,6,49.00,0.00,67.16,0.00,0.00,0.00,0,,,100,100,0,2,0,0,0,2,0,,,,,0.0,0.0,0
55.935665,-4.404156,4.90,4.80,0.00,6.73,5.10,5.10,3.70,6.98,10190,2021-04-11 15:28:03.356,2021-04-11 16:28:03.356,16,0,0,16.150,55.935610,-4.404112,0.00,0.00,0.00,-3.70,-1.20,-30.40,0,1,0,90,100,-6589,3238,16150,2934.50,0,P-GPS,1,0,0,0,0,0,0,1618154883356,4055,4025,4034,4004,0,0,27,,,,,,,0,0,0,37.00,-12.00,-304.00,80.00,0.00,-478.00,6,49.00,0.00,67.35,0.00,0.00,0.00,0,,,100,100,0,2,0,0,0,2,0,,,,,0.0,0.0,0
55.935665,-4.404156,4.90,4.80,0.00,6.74,5.10,5.10,3.70,6.98,10289,2021-04-11 15:28:03.455,2021-04-11 16:28:03.455,16,0,0,16.150,55.935610,-4.404112,0.00,0.00,0.00,-3.60,-1.10,-30.40,0,1,0,90,100,-6589,3238,16150,2934.50,0,P-GPS,1,0,0,0,0,0,0,1618154883455,4055,4025,4034,4004,0,0,27,,,,,,,0,0,0,36.00,-11.00,-304.00,80.00,0.00,-478.00,6,49.00,0.00,67.40,0.00,0.00,0.00,0,,,100,100,0,2,0,0,0,2,0,,,,,0.0,0.0,0
55.935665,-4.404156,4.90,4.80,0.00,6.73,5.10,5.10,3.70,6.98,10404,2021-04-11 15:28:03.570,2021-04-11 16:28:03.570,16,0,0,16.150,55.935610,-4.404112,0.00,0.00,0.00,-3.50,-1.10,-30.50,0,1,0,90,100,-6589,3238,16150,2934.50,0,P-GPS,1,0,0,0,0,0,0,1618154883570,4055,4025,4034,4004,0,0,27,,,,,,,0,0,0,35.00,-11.00,-305.00,80.00,0.00,-478.00,6,49.00,0.00,67.34,0.00,0.00,0.00,0,,,100,100,0,2,0,0,0,2,0,,,,,0.0,0.0,0
55.935665,-4.404156,4.90,4.70,0.00,6.74,5.10,5.10,3.70,6.98,10503,2021-04-11 15:28:03.670,2021-04-11 16:28:03.669,16,0,0,16.150,55.935610,-4.404112,0.00,0.00,0.00,-3.30,-1.10,-30.40,0,1,0,90,100,-6589,3238,16150,2934.50,0,P-GPS,1,0,0,0,0,0,0,1618154883669,4055,4025,4034,4004,0,0,27,,,,,,,0,0,0,33.00,-11.00,-304.00,80.00,0.00,-478.00,6,49.00,0.00,67.40,0.00,0.00,0.00,0,,,100,100,0,2,0,0,0,2,0,,,,,0.0,0.0,0
55.935665,-4.404156,4.90,4.70,0.00,6.78,5.10,5.10,3.70,6.98,10695,2021-04-11 15:28:03.861,2021-04-11 16:28:03.861,16,0,0,16.150,55.935610,-4.404112,0.00,0.00,0.00,-2.90,-1.20,-30.40,0,1,0,90,100,-6589,3238,16150,2934.50,0,P-GPS,1,0,0,0,0,0,0,1618154883861,4055,4025,4034,4004,0,0,27,,,,,,,0,0,0,29.00,-12.00,-304.00,80.00,0.00,-478.00,6,49.00,0.00,67.82,0.00,0.00,0.00,0,,,100,100,0,2,0,0,0,2,0,,,,,0.0,0.0,0
55.935666,-4.404156,4.90,4.70,0.00,6.80,5.10,5.10,3.70,6.98,10788,2021-04-11 15:28:03.954,2021-04-11 16:28:03.954,16,0,0,16.150,55.935610,-4.404112,0.00,0.00,0.00,-2.70,-1.30,-30.30,0,1,0,90,100,-6589,3238,16150,2934.50,0,P-GPS,1,0,0,0,0,0,0,1618154883954,4055,4025,4034,4004,0,0,27,,,,,,,0,0,0,27.00,-13.00,-303.00,80.00,0.00,-478.00,6,49.00,0.00,68.05,0.00,0.00,0.00,0,,,100,100,0,2,0,0,0,2,0,,,,,0.0,0.0,0
55.935666,-4.404156,4.90,4.70,0.00,6.82,5.10,5.10,3.70,6.98,10889,2021-04-11 15:28:04.055,2021-04-11 16:28:04.055,16,0,0,16.150,55.935610,-4.404112,0.00,0.00,0.00,-2.40,-1.20,-30.30,0,1,0,90,100,-6589,3238,16150,2934.50,0,P-GPS,1,0,0,0,0,0,0,1618154884055,4055,4025,4034,4004,0,0,27,,,,,,,0,0,0,24.00,-12.00,-303.00,80.00,0.00,-478.00,6,49.00,0.00,68.17,0.00,0.00,0.00,0,,,100,100,0,2,0,0,0,2,0,,,,,0.0,0.0,0
55.935666,-4.404156,4.90,4.70,0.10,6.84,5.10,5.10,3.70,6.98,10991,2021-04-11 15:28:04.157,2021-04-11 16:28:04.157,16,0,0,16.152,55.935610,-4.404112,0.10,0.00,0.00,-2.00,-2.00,-30.50,0,1,0,90,100,-6485,3236,16152,2934.50,0,P-GPS,1,0,0,0,0,0,0,1618154884157,4055,4025,4034,4004,0,0,27,,,,,,,0,0,0,20.00,-20.00,-305.00,80.00,0.00,-478.00,6,49.00,1.00,68.43,1.00,0.00,0.00,0,,,100,100,0,2,0,0,0,2,0,,,,,0.0,0.0,0
55.935666,-4.404156,4.90,4.70,0.10,6.86,5.10,5.10,3.70,6.98,11094,2021-04-11 15:28:04.260,2021-04-11 16:28:04.260,16,0,0,16.152,55.935610,-4.404112,0.10,0.00,0.00,-1.80,-2.40,-30.50,0,1,0,90,100,-6485,3236,16152,2934.50,0,P-GPS,1,0,0,0,0,0,0,1618154884260,4055,4025,4034,4004,0,0,27,,,,,,,0,0,0,18.00,-24.00,-305.00,80.00,0.00,-478.00,6,49.00,1.00,68.56,1.00,0.00,0.00,0,,,100,100,0,2,0,0,0,2,0,,,,,0.0,0.0,0
55.935666,-4.404156,4.90,4.70,0.00,6.88,5.10,5.10,3.70,6.98,11191,2021-04-11 15:28:04.357,2021-04-11 16:28:04.357,16,0,0,16.152,55.935610,-4.404112,0.00,0.00,0.00,-1.90,-2.70,-30.50,0,1,0,90,100,-6485,3236,16152,2934.50,0,P-GPS,1,0,0,0,0,0,0,1618154884357,4055,4025,4034,4004,0,0,27,,,,,,,0,0,0,19.00,-27.00,-305.00,80.00,0.00,-478.00,6,49.00,0.00,68.81,0.00,0.00,0.00,0,,,100,100,0,2,0,0,0,2,0,,,,,0.0,0.0,0
55.935666,-4.404156,4.90,4.70,0.00,6.89,5.10,5.10,3.70,6.98,11307,2021-04-11 15:28:04.473,2021-04-11 16:28:04.473,16,0,0,16.152,55.935610,-4.404112,0.00,0.00,0.00,-2.20,-2.60,-30.40,0,1,0,90,100,-6485,3236,16152,2934.50,0,P-GPS,1,0,0,0,0,0,0,1618154884473,4055,4025,4034,4004,0,0,27,,,,,,,0,0,0,22.00,-26.00,-304.00,80.00,0.00,-478.00,6,49.00,0.00,68.92,0.00,0.00,0.00,0,,,100,100,0,2,0,0,0,2,0,,,,,0.0,0.0,0
55.935667,-4.404156,4.90,4.70,0.00,6.92,5.10,5.10,3.70,6.98,11401,2021-04-11 15:28:04.568,2021-04-11 16:28:04.567,16,0,0,16.152,55.935610,-4.404112,0.00,0.00,0.00,-2.40,-2.60,-30.30,0,1,0,90,100,-6485,3236,16152,2934.50,0,P-GPS,1,0,0,0,0,0,0,1618154884567,4055,4025,4034,4004,0,0,27,,,,,,,0,0,0,24.00,-26.00,-303.00,80.00,0.00,-478.00,6,49.00,0.00,69.22,0.00,0.00,0.00,0,,,100,100,0,2,0,0,0,2,0,,,,,0.0,0.0,0
55.935667,-4.404156,4.90,4.70,0.00,6.93,5.10,5.10,3.70,6.98,11589,2021-04-11 15:28:04.755,2021-04-11 16:28:04.755,16,0,0,16.152,55.935610,-4.404112,0.00,0.00,0.00,-2.50,-2.70,-30.30,0,1,0,90,100,-6485,3236,16152,2934.50,0,P-GPS,1,0,0,0,0,0,0,1618154884755,4055,4025,4034,4004,0,0,27,,,,,,,0,0,0,25.00,-27.00,-303.00,80.00,0.00,-478.00,6,49.00,0.00,69.32,0.00,0.00,0.00,0,,,100,100,0,2,0,0,0,2,0,,,,,0.0,0.0,0
55.935667,-4.404156,4.90,4.70,0.00,6.94,5.10,5.10,3.70,6.98,11685,2021-04-11 15:28:04.851,2021-04-11 16:28:04.851,16,0,0,16.152,55.935610,-4.404112,0.00,0.00,0.00,-2.20,-2.90,-30.30,0,1,0,90,100,-6485,3236,16152,2934.50,0,P-GPS,1,0,0,0,0,0,0,1618154884851,4055,4025,4034,4004,0,0,27,,,,,,,0,0,0,22.00,-29.00,-303.00,80.00,0.00,-478.00,6,49.00,0.00,69.41,0.00,0.00,0.00,0,,,100,100,0,2,0,0,0,2,0,,,,,0.0,0.0,0
55.935667,-4.404156,4.90,4.70,0.00,6.96,5.10,5.10,3.70,6.98,11786,2021-04-11 15:28:04.952,2021-04-11 16:28:04.952,16,0,0,16.152,55.935610,-4.404112,0.00,0.00,0.00,-2.20,-3.10,-30.40,0,1,0,90,100,-6485,3236,16152,2934.50,0,P-GPS,1,0,0,0,0,0,0,1618154884952,4055,4025,4034,4004,0,0,27,,,,,,,0,0,0,22.00,-31.00,-304.00,80.00,0.00,-478.00,6,49.00,0.00,69.60,0.00,0.00,0.00,0,,,100,100,0,2,0,0,0,2,0,,,,,0.0,0.0,0
55.935667,-4.404156,4.90,4.70,0.00,6.97,5.10,5.10,3.70,6.98,11886,2021-04-11 15:28:05.052,2021-04-11 16:28:05.052,16,0,0,16.152,55.935610,-4.404112,0.00,0.00,0.00,-2.20,-3.20,-30.40,0,1,0,90,100,-6485,3236,16152,2934.50,0,P-GPS,1,0,0,0,0,0,0,1618154885052,4055,4025,4034,4004,0,0,27,,,,,,,0,0,0,22.00,-32.00,-304.00,80.00,0.00,-478.00,6,49.00,0.00,69.68,0.00,0.00,0.00,0,,,100,100,0,2,0,0,0,2,0,,,,,0.0,0.0,0
55.935667,-4.404156,4.90,4.70,0.00,6.97,5.10,5.10,3.70,6.98,11989,2021-04-11 15:28:05.155,2021-04-11 16:28:05.155,16,0,0,16.152,55.935610,-4.404112,0.00,0.00,0.00,-2.10,-3.10,-30.40,0,1,0,90,100,-6485,3236,16152,2934.50,0,P-GPS,1,0,0,0,0,0,0,1618154885155,4055,4025,4034,4004,0,0,27,,,,,,,0,0,0,21.00,-31.00,-304.00,80.00,0.00,-478.00,6,49.00,0.00,69.68,0.00,0.00,0.00,0,,,100,100,0,2,0,0,0,2,0,,,,,0.0,0.0,0
55.935667,-4.404156,4.90,4.70,0.00,6.97,5.10,5.10,3.70,6.98,12102,2021-04-11 15:28:05.268,2021-04-11 16:28:05.268,16,0,0,16.146,55.935610,-4.404112,0.00,0.00,0.00,-2.20,-3.20,-30.40,0,1,0,90,100,-6611,3234,16146,2934.50,0,P-GPS,1,0,0,0,0,0,0,1618154885268,4055,4025,4034,4004,0,0,27,,,,,,,0,0,0,22.00,-32.00,-304.00,80.00,0.00,-478.00,6,49.00,0.00,69.74,0.00,0.00,0.00,0,,,100,100,0,2,0,0,0,2,0,,,,,0.0,0.0,0
55.935667,-4.404156,4.90,4.70,0.00,6.98,5.10,5.10,3.70,6.98,12205,2021-04-11 15:28:05.372,2021-04-11 16:28:05.372,16,0,0,16.146,55.935610,-4.404112,0.00,0.00,0.00,-2.10,-3.20,-30.40,0,1,0,90,100,-6611,3234,16146,2934.50,0,P-GPS,1,0,0,0,0,0,0,1618154885371,4055,4025,4034,4004,0,0,27,,,,,,,0,0,0,21.00,-32.00,-304.00,80.00,0.00,-478.00,6,49.00,0.00,69.78,0.00,0.00,0.00,0,,,100,100,0,2,0,0,0,2,0,,,,,0.0,0.0,0
55.935667,-4.404155,4.90,4.70,0.00,6.98,5.10,5.10,3.70,6.98,12292,2021-04-11 15:28:05.459,2021-04-11 16:28:05.458,16,0,0,16.146,55.935610,-4.404112,0.00,0.00,0.00,-2.10,-3.30,-30.40,0,1,0,90,100,-6611,3234,16146,2934.50,0,P-GPS,1,0,0,0,0,0,0,1618154885458,4055,4025,4034,4004,0,0,27,,,,,,,0,0,0,21.00,-33.00,-304.00,80.00,0.00,-478.00,6,49.00,0.00,69.82,0.00,0.00,0.00,0,,,100,100,0,2,0,0,0,2,0,,,,,0.0,0.0,0
55.935668,-4.404155,4.90,4.70,0.10,6.99,5.10,5.10,3.70,6.99,12401,2021-04-11 15:28:05.567,2021-04-11 16:28:05.567,16,0,0,16.146,55.935610,-4.404112,0.00,0.00,-0.10,-2.20,-3.30,-30.40,0,1,0,90,100,-6611,3234,16146,2934.50,0,P-GPS,1,0,0,0,0,0,0,1618154885567,4055,4025,4034,4004,0,0,27,,,,,,,0,0,0,22.00,-33.00,-304.00,80.00,0.00,-478.00,6,49.00,1.00,69.91,0.00,0.00,-1.00,0,,,100,100,0,2,0,0,0,2,0,,,,,0.0,0.0,0
55.935668,-4.404155,4.90,4.70,0.10,6.99,5.10,5.10,3.70,6.99,12580,2021-04-11 15:28:05.746,2021-04-11 16:28:05.746,16,0,0,16.146,55.935610,-4.404112,0.00,0.00,-0.10,-2.10,-3.10,-30.30,0,1,0,90,100,-6611,3234,16146,2934.50,0,P-GPS,1,0,0,0,0,0,0,1618154885746,4055,4025,4034,4004,0,0,27,,,,,,,0,0,0,21.00,-31.00,-303.00,80.00,0.00,-478.00,6,49.00,1.00,69.89,0.00,0.00,-1.00,0,,,100,100,0,2,0,0,0,2,0,,,,,0.0,0.0,0
55.935668,-4.404155,4.90,4.80,0.10,15.29,5.10,5.10,3.70,15.29,12686,2021-04-11 15:28:05.852,2021-04-11 16:28:05.852,16,0,0,16.146,55.935610,-4.404112,0.00,0.00,-0.10,-2.00,-2.80,-30.30,0,1,0,90,100,-6611,3234,16146,2934.50,0,P-GPS,1,0,0,0,0,0,0,1618154885852,4055,4025,4034,4004,0,0,27,,,,,,,0,0,0,20.00,-28.00,-303.00,80.00,0.00,-478.00,6,49.00,1.00,152.89,0.00,0.00,-1.00,0,,,100,100,0,2,0,0,0,2,2,,,,,0.0,0.0,0
55.935668,-4.404155,4.90,4.80,0.10,15.29,5.10,5.10,3.70,15.29,12786,2021-04-11 15:28:05.952,2021-04-11 16:28:05.952,16,0,0,16.146,55.935610,-4.404112,0.00,0.00,-0.10,-2.00,-2.80,-30.40,0,1,0,90,100,-6611,3234,16146,2934.50,0,P-GPS,1,0,0,0,0,0,0,1618154885952,4055,4025,4034,4004,0,0,27,,,,,,,0,0,0,20.00,-28.00,-304.00,80.00,0.00,-478.00,6,49.00,1.00,152.92,0.00,0.00,-1.00,0,,,100,100,0,2,0,0,0,2,2,,,,,0.0,0.0,0
55.935668,-4.404155,4.90,4.80,0.10,15.29,5.10,5.10,3.70,15.29,12889,2021-04-11 15:28:06.055,2021-04-11 16:28:06.055,16,0,0,16.146,55.935610,-4.404112,0.00,0.00,-0.10,-2.00,-2.90,-30.50,0,1,0,90,100,-6611,3234,16146,2934.50,0,P-GPS,1,0,0,0,0,0,0,1618154886055,4055,4025,4034,4004,0,0,27,,,,,,,0,0,0,20.00,-29.00,-305.00,80.00,0.00,-478.00,6,49.00,1.00,152.94,0.00,0.00,-1.00,0,,,100,100,0,2,0,0,0,2,2,,,,,0.0,0.0,0
55.935668,-4.404155,4.90,4.80,0.10,15.30,5.10,5.10,3.70,15.30,13003,2021-04-11 15:28:06.169,2021-04-11 16:28:06.169,16,0,0,16.146,55.935610,-4.404112,0.00,0.00,-0.10,-2.10,-2.80,-30.50,0,1,0,90,100,-6611,3234,16146,2934.50,0,P-GPS,1,0,0,0,0,0,0,1618154886169,4055,4025,4034,4004,0,0,27,,,,,,,0,0,0,21.00,-28.00,-305.00,80.00,0.00,-478.00,6,49.00,1.00,152.98,0.00,0.00,-1.00,0,,,100,100,0,2,0,0,0,2,2,,,,,0.0,0.0,0
55.935668,-4.404155,4.90,4.80,0.10,15.30,5.10,5.10,3.70,15.30,13101,2021-04-11 15:28:06.267,2021-04-11 16:28:06.267,16,0,0,16.120,55.935610,-4.404112,0.00,0.00,-0.10,-2.00,-2.50,-30.50,0,1,0,90,100,-6599,3232,16120,2935.50,0,P-GPS,1,0,0,0,0,0,0,1618154886267,4055,4025,4034,4004,0,0,27,,,,,,,0,0,0,20.00,-25.00,-305.00,80.00,0.00,-478.00,6,49.00,1.00,153.01,0.00,0.00,-1.00,0,,,100,100,0,2,0,0,0,2,2,,,,,0.0,0.0,0
55.935668,-4.404155,4.90,4.80,0.00,15.21,5.10,5.10,3.70,15.30,13200,2021-04-11 15:28:06.366,2021-04-11 16:28:06.366,16,0,0,16.120,55.935610,-4.404112,0.00,0.00,0.00,-2.00,-2.40,-30.50,0,1,0,90,100,-6599,3232,16120,2935.50,0,P-GPS,1,0,0,0,0,0,0,1618154886366,4055,4025,4034,4004,0,0,27,,,,,,,0,0,0,20.00,-24.00,-305.00,80.00,0.00,-478.00,6,49.00,0.00,152.07,0.00,0.00,0.00,0,,,100,100,0,2,0,0,0,2,2,,,,,0.0,0.0,0
55.935668,-4.404155,4.90,4.80,0.10,15.21,5.10,5.10,3.70,15.30,13294,2021-04-11 15:28:06.460,2021-04-11 16:28:06.460,16,0,0,16.120,55.935610,-4.404112,0.00,0.00,-0.10,-2.10,-2.40,-30.50,0,1,0,90,100,-6599,3232,16120,2935.50,0,P-GPS,1,0,0,0,0,0,0,1618154886460,4055,4025,4034,4004,0,0,27,,,,,,,0,0,0,21.00,-24.00,-305.00,80.00,0.00,-478.00,6,49.00,1.00,152.09,0.00,0.00,-1.00,0,,,100,100,0,2,0,0,0,2,2,,,,,0.0,0.0,0
55.935668,-4.404155,4.90,4.80,0.10,15.22,5.10,5.10,3.70,15.30,13384,2021-04-11 15:28:06.550,2021-04-11 16:28:06.550,16,0,0,16.120,55.935610,-4.404112,0.00,0.00,-0.10,-2.10,-2.10,-30.40,0,1,0,90,100,-6599,3232,16120,2935.50,0,P-GPS,1,0,0,0,0,0,0,1618154886550,4055,4025,4034,4004,0,0,27,,,,,,,0,0,0,21.00,-21.00,-304.00,80.00,0.00,-478.00,6,49.00,1.00,152.21,0.00,0.00,-1.00,0,,,100,100,0,2,0,0,0,2,2,,,,,0.0,0.0,0
55.935668,-4.404155,4.90,4.80,0.10,15.22,5.10,5.10,3.70,15.30,13484,2021-04-11 15:28:06.650,2021-04-11 16:28:06.650,16,0,0,16.120,55.935610,-4.404112,0.00,0.00,-0.10,-2.20,-2.10,-30.50,0,1,0,90,100,-6599,3232,16120,2935.50,0,P-GPS,1,0,0,0,0,0,0,1618154886650,4055,4025,4034,4004,0,0,27,,,,,,,0,0,0,22.00,-21.00,-305.00,80.00,0.00,-478.00,6,49.00,1.00,152.23,0.00,0.00,-1.00,0,,,100,100,0,2,0,0,0,2,2,,,,,0.0,0.0,0
55.935668,-4.404155,4.90,4.80,0.10,15.23,5.10,5.10,3.70,15.30,13601,2021-04-11 15:28:06.768,2021-04-11 16:28:06.768,16,0,0,16.120,55.935610,-4.404112,0.00,0.00,-0.10,-2.30,-2.40,-30.50,0,1,0,90,100,-6599,3232,16120,2935.50,0,P-GPS,1,0,0,0,0,0,0,1618154886767,4055,4025,4034,4004,0,0,27,,,,,,,0,0,0,23.00,-24.00,-305.00,80.00,0.00,-478.00,6,49.00,1.00,152.29,0.00,0.00,-1.00,0,,,100,100,0,2,0,0,0,2,2,,,,,0.0,0.0,0
55.935668,-4.404155,4.90,4.80,0.10,15.23,5.10,5.10,3.70,15.30,13700,2021-04-11 15:28:06.866,2021-04-11 16:28:06.866,16,0,0,16.120,55.935610,-4.404112,0.00,0.00,-0.10,-2.80,-2.40,-30.40,0,1,0,90,100,-6599,3232,16120,2935.50,0,P-GPS,1,0,0,0,0,0,0,1618154886866,4055,4025,4034,4004,0,0,27,,,,,,,0,0,0,28.00,-24.00,-304.00,80.00,0.00,-478.00,6,49.00,1.00,152.28,0.00,0.00,-1.00,0,,,100,100,0,2,0,0,0,2,2,,,,,0.0,0.0,0
55.935668,-4.404155,4.90,4.80,0.00,15.22,5.10,5.10,3.70,15.30,13787,2021-04-11 15:28:06.953,2021-04-11 16:28:06.953,16,0,0,16.120,55.935610,-4.404112,0.00,0.00,0.00,-3.00,-2.30,-30.40,0,1,0,90,100,-6599,3232,16120,2935.50,0,P-GPS,1,0,0,0,0,0,0,1618154886953,4055,4025,4034,4004,0,0,27,,,,,,,0,0,0,30.00,-23.00,-304.00,80.00,0.00,-478.00,6,49.00,0.00,152.20,0.00,0.00,0.00,0,,,100,100,0,2,0,0,0,2,2,,,,,0.0,0.0,0
55.935668,-4.404155,4.90,4.80,0.00,15.22,5.10,5.10,3.70,15.30,13886,2021-04-11 15:28:07.052,2021-04-11 16:28:07.052,16,0,0,16.120,55.935610,-4.404112,0.00,0.00,0.00,-3.20,-2.30,-30.40,0,1,0,90,100,-6599,3232,16120,2935.50,0,P-GPS,1,0,0,0,0,0,0,1618154887052,4055,4025,4034,4004,0,0,27,,,,,,,0,0,0,32.00,-23.00,-304.00,80.00,0.00,-478.00,6,49.00,0.00,152.18,0.00,0.00,0.00,0,,,100,100,0,2,0,0,0,2,2,,,,,0.0,0.0,0
55.935668,-4.404155,4.90,4.80,0.00,15.23,5.10,5.10,3.70,15.30,14004,2021-04-11 15:28:07.171,2021-04-11 16:28:07.170,16,0,0,16.120,55.935610,-4.404112,0.00,0.00,0.00,-3.00,-2.50,-30.50,0,1,0,90,100,-6599,3232,16120,2935.50,0,P-GPS,1,0,0,0,0,0,0,1618154887170,4055,4025,4034,4004,0,0,27,,,,,,,0,0,0,30.00,-25.00,-305.00,80.00,0.00,-478.00,6,49.00,0.00,152.32,0.00,0.00,0.00,0,,,100,100,0,2,0,0,0,2,2,,,,,0.0,0.0,0
55.935668,-4.404155,4.90,4.80,0.00,15.07,5.10,5.10,3.70,15.30,14207,2021-04-11 15:28:07.373,2021-04-11 16:28:07.373,16,0,0,16.124,55.935610,-4.404112,0.00,0.00,0.00,-3.00,-2.70,-30.40,0,1,0,90,100,-6495,3230,16124,2935.50,0,P-GPS,1,0,0,0,0,0,0,1618154887373,4055,4025,4034,4004,0,0,27,,,,,,,0,0,0,30.00,-27.00,-304.00,80.00,0.00,-478.00,6,49.00,0.00,150.74,0.00,0.00,0.00,0,,,100,100,0,2,0,0,0,2,2,,,,,0.0,0.0,0
55.935668,-4.404155,4.90,4.80,0.00,15.07,5.10,5.10,3.70,15.30,14299,2021-04-11 15:28:07.465,2021-04-11 16:28:07.465,16,0,0,16.124,55.935610,-4.404112,0.00,0.00,0.00,-3.10,-2.60,-30.40,0,1,0,90,100,-6495,3230,16124,2935.50,0,P-GPS,1,0,0,0,0,0,0,1618154887465,4055,4025,4034,4004,0,0,27,,,,,,,0,0,0,31.00,-26.00,-304.00,80.00,0.00,-478.00,6,49.00,0.00,150.75,0.00,0.00,0.00,0,,,100,100,0,2,0,0,0,2,2,,,,,0.0,0.0,0
55.935668,-4.404155,4.90,4.80,0.00,15.07,5.10,5.10,3.70,15.30,14388,2021-04-11 15:28:07.554,2021-04-11 16:28:07.554,16,0,0,16.124,55.935610,-4.404112,0.00,0.00,0.00,-3.20,-2.40,-30.40,0,1,0,90,100,-6495,3230,16124,2935.50,0,P-GPS,1,0,0,0,0,0,0,1618154887554,4055,4025,4034,4004,0,0,27,,,,,,,0,0,0,32.00,-24.00,-304.00,80.00,0.00,-478.00,6,49.00,0.00,150.71,0.00,0.00,0.00,0,,,100,100,0,2,0,0,0,2,2,,,,,0.0,0.0,0
55.935668,-4.404155,4.90,4.80,0.00,15.07,5.10,5.10,3.70,15.30,14495,2021-04-11 15:28:07.664,2021-04-11 16:28:07.661,16,0,0,16.124,55.935610,-4.404112,0.00,0.00,0.00,-3.10,-2.40,-30.40,0,1,0,90,100,-6495,3230,16124,2935.50,0,P-GPS,1,0,0,0,0,0,0,1618154887661,4055,4025,4034,4004,0,0,27,,,,,,,0,0,0,31.00,-24.00,-304.00,80.00,0.00,-478.00,6,49.00,0.00,150.71,0.00,0.00,0.00,0,,,100,100,0,2,0,0,0,2,2,,,,,0.0,0.0,0
55.935668,-4.404155,4.90,4.80,0.00,15.07,5.10,5.10,3.70,15.30,14591,2021-04-11 15:28:07.757,2021-04-11 16:28:07.757,16,0,0,16.124,55.935610,-4.404112,0.00,0.00,0.00,-3.00,-2.40,-30.40,0,1,0,90,100,-6495,3230,16124,2935.50,0,P-GPS,1,0,0,0,0,0,0,1618154887757,4055,4025,4034,4004,0,0,27,,,,,,,0,0,0,30.00,-24.00,-304.00,80.00,0.00,-478.00,6,49.00,0.00,150.71,0.00,0.00,0.00,0,,,100,100,0,2,0,0,0,2,2,,,,,0.0,0.0,0
55.935668,-4.404155,4.90,4.80,0.00,15.07,5.10,5.10,3.70,15.30,14694,2021-04-11 15:28:07.860,2021-04-11 16:28:07.860,16,0,0,16.124,55.935610,-4.404112,0.00,0.00,0.00,-3.10,-2.20,-30.40,0,1,0,90,100,-6495,3230,16124,2935.50,0,P-GPS,1,0,0,0,0,0,0,1618154887860,4055,4025,4034,4004,0,0,27,,,,,,,0,0,0,31.00,-22.00,-304.00,80.00,0.00,-478.00,6,49.00,0.00,150.71,0.00,0.00,0.00,0,,,100,100,0,2,0,0,0,2,2,,,,,0.0,0.0,0
55.935668,-4.404155,4.90,4.80,0.00,15.06,5.10,5.10,3.70,15.30,14781,2021-04-11 15:28:07.948,2021-04-11 16:28:07.948,16,0,0,16.124,55.935610,-4.404112,0.00,0.00,0.00,-3.00,-2.00,-30.30,0,1,0,90,100,-6495,3230,16124,2935.50,0,P-GPS,1,0,0,0,0,0,0,1618154887947,4055,4025,4034,4004,0,0,27,,,,,,,0,0,0,30.00,-20.00,-303.00,80.00,0.00,-478.00,6,49.00,0.00,150.56,0.00,0.00,0.00,0,,,100,100,0,2,0,0,0,2,2,,,,,0.0,0.0,0
55.935668,-4.404155,4.90,4.80,0.00,15.06,5.10,5.10,3.70,15.30,14881,2021-04-11 15:28:08.047,2021-04-11 16:28:08.047,16,0,0,16.124,55.935610,-4.404112,0.00,0.00,0.00,-3.00,-2.20,-30.40,0,1,0,90,100,-6495,3230,16124,2935.50,0,P-GPS,1,0,0,0,0,0,0,1618154888047,4055,4025,4034,4004,0,0,27,,,,,,,0,0,0,30.00,-22.00,-304.00,80.00,0.00,-478.00,6,49.00,0.00,150.55,0.00,0.00,0.00,0,,,100,100,0,2,0,0,0,2,2,,,,,0.0,0.0,0
55.935668,-4.404155,4.90,4.80,0.00,15.06,5.10,5.10,3.70,15.30,15002,2021-04-11 15:28:08.169,2021-04-11 16:28:08.168,16,0,0,16.124,55.935610,-4.404112,0.00,0.00,0.00,-3.00,-2.20,-30.40,0,1,0,90,100,-6495,3230,16124,2935.50,0,P-GPS,1,0,0,0,0,0,0,1618154888168,4055,4025,4034,4004,0,0,27,,,,,,,0,0,0,30.00,-22.00,-304.00,80.00,0.00,-478.00,6,49.00,0.00,150.56,0.00,0.00,0.00,0,,,100,100,0,2,0,0,0,2,2,,,,,0.0,0.0,0
55.935668,-4.404155,4.90,4.80,0.00,15.06,5.10,5.10,3.70,15.30,15088,2021-04-11 15:28:08.254,2021-04-11 16:28:08.254,16,0,0,16.121,55.935610,-4.404112,0.00,0.00,0.00,-3.00,-2.20,-30.40,0,1,0,90,100,-6461,3228,16121,2935.50,0,P-GPS,1,0,0,0,0,0,0,1618154888254,4055,4025,4034,4004,0,0,27,,,,,,,0,0,0,30.00,-22.00,-304.00,80.00,0.00,-478.00,6,49.00,0.00,150.55,0.00,0.00,0.00,0,,,100,100,0,2,0,0,0,2,2,,,,,0.0,0.0,0
55.935668,-4.404155,4.90,4.80,0.00,15.05,5.10,5.10,3.70,15.30,15201,2021-04-11 15:28:08.367,2021-04-11 16:28:08.367,16,0,0,16.121,55.935610,-4.404112,0.00,0.00,0.00,-2.80,-2.20,-30.50,0,1,0,90,100,-6461,3228,16121,2935.50,0,P-GPS,1,0,0,0,0,0,0,1618154888367,4055,4025,4034,4004,0,0,27,,,,,,,0,0,0,28.00,-22.00,-305.00,80.00,0.00,-478.00,6,49.00,0.00,150.47,0.00,0.00,0.00,0,,,100,100,0,2,0,0,0,2,2,,,,,0.0,0.0,0
55.935668,-4.404155,4.90,4.80,0.00,14.80,5.10,5.10,3.70,15.30,15388,2021-04-11 15:28:08.554,2021-04-11 16:28:08.554,16,0,0,16.121,55.935610,-4.404112,0.00,0.00,0.00,-3.30,-1.90,-30.40,0,1,0,90,100,-6461,3228,16121,2935.50,0,P-GPS,1,0,0,0,0,0,0,1618154888554,4055,4025,4034,4004,0,0,27,,,,,,,0,0,0,33.00,-19.00,-304.00,80.00,0.00,-478.00,6,49.00,0.00,147.98,0.00,0.00,0.00,0,,,100,100,0,2,0,0,0,2,2,,,,,0.0,0.0,0
55.935668,-4.404155,4.90,4.80,0.00,14.79,5.10,5.10,3.70,15.30,15500,2021-04-11 15:28:08.666,2021-04-11 16:28:08.666,16,0,0,16.121,55.935610,-4.404112,0.00,0.00,0.00,-3.40,-1.90,-30.40,0,1,0,90,100,-6461,3228,16121,2935.50,0,P-GPS,1,0,0,0,0,0,0,1618154888666,4055,4025,4034,4004,0,0,27,,,,,,,0,0,0,34.00,-19.00,-304.00,80.00,0.00,-478.00,6,49.00,0.00,147.93,0.00,0.00,0.00,0,,,100,100,0,2,0,0,0,2,2,,,,,0.0,0.0,0
