latitude,longitude,altitude(m),ultrasonicHeight(m),speed(mps),distance(m),max_altitude(m),max_ascent(m),max_speed(mps),max_distance(m),time(millisecond),datetime(utc),datetime(local),satellites,pressure(Pa),temperature(F),voltage(v),home_latitude,home_longitude,velocityX(mps),velocityY(mps),velocityZ(mps),pitch(deg),roll(deg),yaw(deg),powerlevel,isflying,istakingphoto,remainPowerPercent,remainLifePercent,currentCurrent,currentElectricity,currentVoltage,batteryTemperature,dischargeCount,flightmode,isMotorsOn,isTakingVideo,Rc_elevator,Rc_aileron,Rc_throttle,Rc_rudder,Rc_gyro,timestamp,Battery_Cell1,Battery_Cell2,Battery_Cell3,Battery_Cell4,Battery_Cell5,Battery_Cell6,Dronetype,AppVersion,Planename,FlyControllerSerialNumber,RemoteSerialNumber,BatterySerialNumber,CENTER_BATTERY.productDate,CENTER_BATTERY.serialNo,CENTER_BATTERY.fullCapacity,CENTER_BATTERY.productDateRaw,pitchRaw,rollRaw,yawRaw,gimbalPitchRaw,gimbalRollRaw,gimbalYawRaw,flyState,altitudeRaw,speedRaw,distanceRaw,velocityXRaw,velocityYRaw,velocityZRaw,data_reuse,App_Tip,App_Warning,downlinkSignalQuality,uplinkSignalQuality,transmissionChannel,rcModeSwitch,rcHome,rcPause,rcTransform,rcJoystickMode,appMode,FlyControllerSerialNumber_legacy,RemoteSerialNumber_legacy,BatterySerialNumber_legacy,Battery2SerialNumber,frontAvoidDist,backAvoidDist,isBrakingToAvoid
55.937312,-4.405537,0.30,0.50,0.40,0.29,0.30,0.30,0.40,0.29,0,2021-05-22 13:07:52.880,2021-05-22 14:07:52.880,17,0,0,16.655,55.937315,-4.405539,0.00,0.00,-0.40,2.30,0.60,168.30,0,1,0,93,100,-4962,3275,16655,2964.50,4,TakeOff,1,0,0,0,0,0,0,1621688872880,4269,4248,4254,4250,0,0,27,Litchi_4.18.0-g,CJTMAVIC,163DFAS001K45C,0VECFAK0072T52,0P2AFB353405ER,,0,0,0,-23.00,6.00,1683.00,0.00,0.00,1696.00,11,3.00,4.00,2.86,0.00,0.00,-4.00,0,,,100,100,0,2,0,0,0,2,0,,,,null,0.0,0.0,0
55.937312,-4.405537,0.30,0.50,0.40,0.30,0.30,0.30,0.40,0.30,104,2021-05-22 13:07:52.984,2021-05-22 14:07:52.984,17,0,0,16.655,55.937315,-4.405539,0.00,0.00,-0.40,1.90,0.60,168.30,0,1,0,93,100,-4962,3275,16655,2964.50,4,TakeOff,1,0,0,0,0,0,0,1621688872984,4269,4248,4254,4250,0,0,27,,,,,,,0,0,0,-19.00,6.00,1683.00,0.00,0.00,1696.00,11,3.00,4.00,2.96,0.00,0.00,-4.00,0,,,100,100,0,2,0,0,0,2,0,,,,,0.0,0.0,0
55.937312,-4.405536,0.40,0.60,0.40,0.31,0.40,0.40,0.40,0.31,192,2021-05-22 13:07:53.073,2021-05-22 14:07:53.073,17,0,0,16.655,55.937315,-4.405539,0.00,0.00,-0.40,1.70,0.80,168.20,0,1,0,93,100,-4962,3275,16655,2964.50,4,TakeOff,1,0,0,0,0,0,0,1621688873072,4269,4248,4254,4250,0,0,27,,,,,,,0,0,0,-17.00,8.00,1682.00,0.00,0.00,1696.00,11,4.00,4.00,3.07,0.00,0.00,-4.00,0,,,100,100,0,2,0,0,0,2,0,,,,,0.0,0.0,0
55.937312,-4.405536,0.40,0.60,0.50,0.33,0.40,0.40,0.50,0.33,305,2021-05-22 13:07:53.185,2021-05-22 14:07:53.185,17,0,0,16.563,55.937315,-4.405539,0.00,0.00,-0.50,1.80,1.10,168.30,0,1,0,93,100,-4792,3273,16563,2964.50,4,TakeOff,1,0,0,0,0,0,0,1621688873185,4269,4248,4254,4250,0,0,27,,,,,,,0,0,0,-18.00,11.00,1683.00,0.00,0.00,1696.00,11,4.00,5.00,3.30,0.00,0.00,-5.00,0,,,100,100,0,2,0,0,0,2,0,,,,,0.0,0.0,0
55.937312,-4.405536,0.50,0.70,0.50,0.34,0.50,0.50,0.50,0.34,403,2021-05-22 13:07:53.283,2021-05-22 14:07:53.283,17,0,0,16.563,55.937315,-4.405539,0.00,0.00,-0.50,1.90,1.10,168.30,0,1,0,93,100,-4792,3273,16563,2964.50,4,TakeOff,1,0,0,0,0,0,0,1621688873283,4269,4248,4254,4250,0,0,27,,,,,,,0,0,0,-19.00,11.00,1683.00,0.00,0.00,1695.00,11,5.00,5.00,3.40,0.00,0.00,-5.00,0,,,100,100,0,2,0,0,0,2,0,,,,,0.0,0.0,0
55.937312,-4.405536,0.50,0.70,0.50,0.34,0.50,0.50,0.50,0.34,508,2021-05-22 13:07:53.388,2021-05-22 14:07:53.388,17,0,0,16.563,55.937315,-4.405539,0.00,0.00,-0.50,2.10,0.70,168.30,0,1,0,93,100,-4792,3273,16563,2964.50,4,TakeOff,1,0,0,0,0,0,0,1621688873388,4269,4248,4254,4250,0,0,27,,,,,,,0,0,0,-21.00,7.00,1683.00,0.00,0.00,1695.00,11,5.00,5.00,3.36,0.00,0.00,-5.00,0,,,100,100,0,2,0,0,0,2,0,,,,,0.0,5.9,0
55.937312,-4.405536,0.60,0.80,0.50,0.34,0.60,0.60,0.50,0.34,600,2021-05-22 13:07:53.480,2021-05-22 14:07:53.480,17,0,0,16.563,55.937315,-4.405539,0.00,0.00,-0.50,2.10,0.60,168.30,0,1,0,93,100,-4792,3273,16563,2964.50,4,TakeOff,1,0,0,0,0,0,0,1621688873480,4269,4248,4254,4250,0,0,27,,,,,,,0,0,0,-21.00,6.00,1683.00,0.00,0.00,1695.00,11,6.00,5.00,3.44,0.00,0.00,-5.00,0,,,100,100,0,2,0,0,0,2,0,,,,,0.0,5.9,0
55.937312,-4.405536,0.70,0.90,0.50,0.36,0.70,0.70,0.50,0.36,701,2021-05-22 13:07:53.582,2021-05-22 14:07:53.582,17,0,0,16.563,55.937315,-4.405539,0.00,0.00,-0.50,1.90,0.60,168.30,0,1,0,93,100,-4792,3273,16563,2964.50,4,TakeOff,1,0,0,0,0,0,0,1621688873581,4269,4248,4254,4250,0,0,27,,,,,,,0,0,0,-19.00,6.00,1683.00,0.00,0.00,1695.00,11,7.00,5.00,3.58,0.00,0.00,-5.00,0,,,100,100,0,2,0,0,0,2,0,,,,,0.0,5.3,0
55.937312,-4.405536,0.70,0.90,0.50,0.37,0.70,0.70,0.50,0.37,804,2021-05-22 13:07:53.684,2021-05-22 14:07:53.684,17,0,0,16.563,55.937315,-4.405539,0.00,0.00,-0.50,1.80,0.70,168.20,0,1,0,93,100,-4792,3273,16563,2964.50,4,TakeOff,1,0,0,0,0,0,0,1621688873684,4269,4248,4254,4250,0,0,27,,,,,,,0,0,0,-18.00,7.00,1682.00,0.00,0.00,1695.00,11,7.00,5.00,3.66,0.00,0.00,-5.00,0,,,100,100,0,2,0,0,0,2,0,,,,,0.0,5.3,0
55.937312,-4.405536,0.80,1.00,0.50,0.37,0.80,0.80,0.50,0.37,900,2021-05-22 13:07:53.780,2021-05-22 14:07:53.780,17,0,0,16.563,55.937315,-4.405539,0.00,0.00,-0.50,1.90,0.80,168.20,0,1,0,93,100,-4792,3273,16563,2964.50,4,TakeOff,1,0,0,0,0,0,0,1621688873780,4269,4248,4254,4250,0,0,27,,,,,,,0,0,0,-19.00,8.00,1682.00,0.00,0.00,1695.00,11,8.00,5.00,3.70,0.00,0.00,-5.00,0,,,100,100,0,2,0,0,0,2,0,,,,,0.0,5.3,0
55.937312,-4.405536,0.80,1.00,0.50,0.38,0.80,0.80,0.50,0.38,1000,2021-05-22 13:07:53.880,2021-05-22 14:07:53.880,17,0,0,16.563,55.937315,-4.405539,0.00,0.00,-0.50,2.00,0.90,168.20,0,1,0,93,100,-4792,3273,16563,2964.50,4,TakeOff,1,0,0,0,0,0,0,1621688873880,4269,4248,4254,4250,0,0,27,,,,,,,0,0,0,-20.00,9.00,1682.00,0.00,0.00,1695.00,11,8.00,5.00,3.76,0.00,0.00,-5.00,0,,,100,100,0,2,0,0,0,2,0,,,,,0.0,7.4,0
55.937312,-4.405536,0.90,1.10,0.50,0.36,0.90,0.90,0.50,0.38,1101,2021-05-22 13:07:53.981,2021-05-22 14:07:53.981,17,0,0,16.563,55.937315,-4.405539,0.00,0.00,-0.50,2.00,1.00,168.30,0,1,0,93,100,-4792,3273,16563,2964.50,4,TakeOff,1,0,0,0,0,0,0,1621688873981,4269,4248,4254,4250,0,0,27,,,,,,,0,0,0,-20.00,10.00,1683.00,0.00,0.00,1695.00,6,9.00,5.00,3.64,0.00,0.00,-5.00,0,,,100,100,0,2,0,0,0,2,0,,,,,0.0,7.4,0
55.937312,-4.405536,1.00,1.10,0.40,0.37,1.00,1.00,0.50,0.38,1201,2021-05-22 13:07:54.081,2021-05-22 14:07:54.081,17,0,0,16.563,55.937315,-4.405539,0.00,0.00,-0.40,1.90,1.10,168.30,0,1,0,93,100,-4792,3273,16563,2964.50,4,P-GPS,1,0,0,0,0,0,0,1621688874081,4269,4248,4254,4250,0,0,27,,,,,,,0,0,0,-19.00,11.00,1683.00,0.00,0.00,1694.00,6,10.00,4.00,3.67,0.00,0.00,-4.00,0,,,100,100,0,2,0,0,0,2,0,,,,,0.0,0.0,0
55.937312,-4.405536,1.00,1.20,0.10,0.34,1.00,1.00,0.50,0.38,1402,2021-05-22 13:07:54.282,2021-05-22 14:07:54.282,16,0,0,16.395,55.937315,-4.405539,0.00,0.00,-0.10,1.50,1.20,168.20,0,1,0,93,100,-7392,3272,16395,2964.50,4,P-GPS,1,0,0,0,0,0,0,1621688874282,4269,4248,4254,4250,0,0,27,,,,,,,0,0,0,-15.00,12.00,1682.00,0.00,0.00,1694.00,6,10.00,1.00,3.42,0.00,0.00,-1.00,0,,,100,100,0,2,0,0,0,2,0,,,,,0.0,0.0,0
55.937312,-4.405536,1.00,1.20,0.00,0.34,1.00,1.00,0.50,0.38,1492,2021-05-22 13:07:54.372,2021-05-22 14:07:54.372,16,0,0,16.395,55.937315,-4.405539,0.00,0.00,0.00,1.20,0.90,168.30,0,1,0,93,100,-7392,3272,16395,2964.50,4,P-GPS,1,0,0,0,0,0,0,1621688874372,4269,4248,4254,4250,0,0,27,,,,,,,0,0,0,-12.00,9.00,1683.00,0.00,0.00,1694.00,6,10.00,0.00,3.43,0.00,0.00,0.00,0,,,100,100,0,2,0,0,0,2,0,,,,,0.0,0.0,0
55.937312,-4.405536,1.00,1.20,0.00,0.34,1.00,1.00,0.50,0.38,1601,2021-05-22 13:07:54.481,2021-05-22 14:07:54.481,16,0,0,16.395,55.937315,-4.405539,0.00,0.00,0.00,1.00,0.50,168.40,0,1,0,93,100,-7392,3272,16395,2964.50,4,P-GPS,1,0,0,0,0,0,0,1621688874481,4269,4248,4254,4250,0,0,27,,,,,,,0,0,0,-10.00,5.00,1684.00,0.00,0.00,1694.00,6,10.00,0.00,3.39,0.00,0.00,0.00,0,,,100,100,0,2,0,0,0,2,0,,,,,0.0,0.0,0
55.937312,-4.405536,1.00,1.20,0.00,0.31,1.00,1.00,0.50,0.38,1699,2021-05-22 13:07:54.579,2021-05-22 14:07:54.579,17,0,0,16.395,55.937315,-4.405539,0.00,0.00,0.00,1.00,0.50,168.40,0,1,0,93,100,-7392,3272,16395,2964.50,4,P-GPS,1,0,0,0,0,0,0,1621688874579,4269,4248,4254,4250,0,0,27,,,,,,,0,0,0,-10.00,5.00,1684.00,0.00,0.00,1694.00,6,10.00,0.00,3.09,0.00,0.00,0.00,0,,,100,100,0,2,0,0,0,2,0,,,,,0.0,0.0,0
55.937313,-4.405536,1.00,1.20,0.00,0.30,1.00,1.00,0.50,0.38,1796,2021-05-22 13:07:54.676,2021-05-22 14:07:54.676,17,0,0,16.395,55.937315,-4.405539,0.00,0.00,0.00,1.10,0.60,168.30,0,1,0,93,100,-7392,3272,16395,2964.50,4,P-GPS,1,0,0,0,0,0,0,1621688874676,4269,4248,4254,4250,0,0,27,,,,,,,0,0,0,-11.00,6.00,1683.00,0.00,0.00,1694.00,6,10.00,0.00,3.03,0.00,0.00,0.00,0,,,100,100,0,2,0,0,0,2,0,,,,,0.0,0.0,0
55.937313,-4.405536,1.00,1.20,0.00,0.30,1.00,1.00,0.50,0.38,1900,2021-05-22 13:07:54.780,2021-05-22 14:07:54.780,17,0,0,16.395,55.937315,-4.405539,0.00,0.00,0.00,1.10,0.40,168.20,0,1,0,93,100,-7392,3272,16395,2964.50,4,P-GPS,1,0,0,0,0,0,0,1621688874780,4269,4248,4254,4250,0,0,27,,,,,,,0,0,0,-11.00,4.00,1682.00,0.00,0.00,1694.00,6,10.00,0.00,2.98,0.00,0.00,0.00,0,,,100,100,0,2,0,0,0,2,0,,,,,0.0,0.0,0
55.937313,-4.405536,1.00,1.20,0.00,0.29,1.00,1.00,0.50,0.38,2000,2021-05-22 13:07:54.881,2021-05-22 14:07:54.880,17,0,0,16.395,55.937315,-4.405539,0.00,0.00,0.00,1.00,0.50,168.20,0,1,0,93,100,-7392,3272,16395,2964.50,4,P-GPS,1,0,0,0,0,0,0,1621688874880,4269,4248,4254,4250,0,0,27,,,,,,,0,0,0,-10.00,5.00,1682.00,0.00,0.00,1694.00,6,10.00,0.00,2.91,0.00,0.00,0.00,0,,,100,100,0,2,0,0,0,2,0,,,,,0.0,8.0,0
55.937313,-4.405536,1.00,1.20,0.00,0.29,1.00,1.00,0.50,0.38,2108,2021-05-22 13:07:54.989,2021-05-22 14:07:54.988,17,0,0,16.395,55.937315,-4.405539,0.00,0.00,0.00,0.80,0.50,168.20,0,1,0,93,100,-7392,3272,16395,2964.50,4,P-GPS,1,0,0,0,0,0,0,1621688874988,4269,4248,4254,4250,0,0,27,,,,,,,0,0,0,-8.00,5.00,1682.00,0.00,0.00,1694.00,6,10.00,0.00,2.88,0.00,0.00,0.00,0,,,100,100,0,2,0,0,0,2,0,,,,,0.0,8.0,0
55.937313,-4.405536,1.00,1.20,0.00,0.28,1.00,1.00,0.50,0.38,2201,2021-05-22 13:07:55.081,2021-05-22 14:07:55.081,17,0,0,16.395,55.937315,-4.405539,0.00,0.00,0.00,0.70,0.40,168.20,0,1,0,93,100,-7392,3272,16395,2964.50,4,P-GPS,1,0,0,0,0,0,0,1621688875081,4269,4248,4254,4250,0,0,27,,,,,,,0,0,0,-7.00,4.00,1682.00,0.00,0.00,1694.00,6,10.00,0.00,2.82,0.00,0.00,0.00,0,,,100,100,0,2,0,0,0,2,0,,,,,0.0,8.0,0
55.937313,-4.405536,1.00,1.20,0.00,0.26,1.00,1.00,0.50,0.38,2298,2021-05-22 13:07:55.178,2021-05-22 14:07:55.178,17,0,0,16.413,55.937315,-4.405539,0.00,0.00,0.00,0.70,0.20,168.30,0,1,0,93,100,-7083,3270,16413,2964.50,4,P-GPS,1,0,0,0,0,0,0,1621688875178,4269,4248,4254,4250,0,0,27,,,,,,,0,0,0,-7.00,2.00,1683.00,0.00,0.00,1694.00,6,10.00,0.00,2.63,0.00,0.00,0.00,0,,,100,100,0,2,0,0,0,2,0,,,,,0.0,8.0,0
55.937313,-4.405536,1.00,1.20,0.00,0.26,1.00,1.00,0.50,0.38,2406,2021-05-22 13:07:55.286,2021-05-22 14:07:55.286,17,0,0,16.413,55.937315,-4.405539,0.00,0.00,0.00,0.90,0.10,168.30,0,1,0,93,100,-7083,3270,16413,2964.50,4,P-GPS,1,0,0,0,0,0,0,1621688875286,4269,4248,4254,4250,0,0,27,,,,,,,0,0,0,-9.00,1.00,1683.00,0.00,0.00,1694.00,6,10.00,0.00,2.57,0.00,0.00,0.00,0,,,100,100,0,2,0,0,0,2,0,,,,,0.0,8.0,0
55.937313,-4.405536,1.00,1.20,0.00,0.26,1.00,1.00,0.50,0.38,2599,2021-05-22 13:07:55.480,2021-05-22 14:07:55.479,17,0,0,16.413,55.937315,-4.405539,0.00,0.00,0.00,1.00,0.30,168.20,0,1,0,93,100,-7083,3270,16413,2964.50,4,P-GPS,1,0,0,0,24,0,0,1621688875479,4269,4248,4254,4250,0,0,27,,,,,,,0,0,0,-10.00,3.00,1682.00,0.00,0.00,1694.00,6,10.00,0.00,2.59,0.00,0.00,0.00,0,,,100,100,0,2,0,0,0,2,0,,,,,0.0,8.0,0
55.937313,-4.405536,1.00,1.20,0.00,0.26,1.00,1.00,0.50,0.38,2700,2021-05-22 13:07:55.581,2021-05-22 14:07:55.581,17,0,0,16.413,55.937315,-4.405539,0.00,0.00,0.00,1.10,0.50,168.30,0,1,0,93,100,-7083,3270,16413,2964.50,4,P-GPS,1,0,0,0,80,0,0,1621688875580,4269,4248,4254,4250,0,0,27,,,,,,,0,0,0,-11.00,5.00,1683.00,0.00,0.00,1694.00,6,10.00,0.00,2.62,0.00,0.00,0.00,0,,,100,100,0,2,0,0,0,2,0,,,,,0.0,8.0,0
55.937313,-4.405536,1.00,1.20,0.00,0.26,1.00,1.00,0.50,0.38,2799,2021-05-22 13:07:55.680,2021-05-22 14:07:55.679,17,0,0,16.413,55.937315,-4.405539,0.00,0.00,0.00,1.30,0.50,168.20,0,1,0,93,100,-7083,3270,16413,2964.50,4,P-GPS,1,0,0,0,139,0,0,1621688875679,4269,4248,4254,4250,0,0,27,,,,,,,0,0,0,-13.00,5.00,1682.00,0.00,0.00,1694.00,6,10.00,0.00,2.61,0.00,0.00,0.00,0,,,100,100,0,2,0,0,0,2,0,,,,,0.0,8.0,0
55.937313,-4.405536,1.00,1.20,0.00,0.28,1.00,1.00,0.50,0.38,2904,2021-05-22 13:07:55.785,2021-05-22 14:07:55.784,17,0,0,16.413,55.937315,-4.405539,0.00,0.00,0.00,1.40,0.60,168.30,0,1,0,93,100,-7083,3270,16413,2964.50,4,P-GPS,1,0,0,0,178,0,0,1621688875784,4269,4248,4254,4250,0,0,27,,,,,,,0,0,0,-14.00,6.00,1683.00,0.00,0.00,1694.00,6,10.00,0.00,2.76,0.00,0.00,0.00,0,,,100,100,0,2,0,0,0,2,0,,,,,0.0,8.0,0
55.937313,-4.405536,1.10,1.20,0.00,0.28,1.10,1.10,0.50,0.38,3004,2021-05-22 13:07:55.885,2021-05-22 14:07:55.884,17,0,0,16.413,55.937315,-4.405539,0.00,0.00,0.00,1.40,0.70,168.30,0,1,0,93,100,-7083,3270,16413,2964.50,4,P-GPS,1,0,0,0,208,0,0,1621688875884,4269,4248,4254,4250,0,0,27,,,,,,,0,0,0,-14.00,7.00,1683.00,0.00,0.00,1694.00,6,11.00,0.00,2.76,0.00,0.00,0.00,0,,,100,100,0,2,0,0,0,2,0,,,,,0.0,8.0,0
55.937313,-4.405536,1.10,1.20,0.10,0.28,1.10,1.10,0.50,0.38,3103,2021-05-22 13:07:55.983,2021-05-22 14:07:55.983,17,0,0,16.413,55.937315,-4.405539,0.00,0.00,-0.10,1.40,0.70,168.30,0,1,0,93,100,-7083,3270,16413,2964.50,4,P-GPS,1,0,0,0,250,0,0,1621688875983,4269,4248,4254,4250,0,0,27,,,,,,,0,0,0,-14.00,7.00,1683.00,0.00,0.00,1694.00,6,11.00,1.00,2.85,0.00,0.00,-1.00,0,,,100,100,0,2,0,0,0,2,0,,,,,0.0,8.0,0
55.937313,-4.405536,1.10,1.30,0.20,0.29,1.10,1.10,0.50,0.38,3202,2021-05-22 13:07:56.082,2021-05-22 14:07:56.082,17,0,0,16.413,55.937315,-4.405539,0.00,0.00,-0.20,1.50,0.50,168.30,0,1,0,93,100,-7083,3270,16413,2964.50,4,P-GPS,1,0,0,0,298,0,0,1621688876082,4269,4248,4254,4250,0,0,27,,,,,,,0,0,0,-15.00,5.00,1683.00,0.00,0.00,1694.00,6,11.00,2.00,2.85,0.00,0.00,-2.00,0,,,100,100,0,2,0,0,0,2,0,,,,,0.0,8.0,0
55.937313,-4.405536,1.10,1.30,0.40,0.29,1.10,1.10,0.50,0.38,3292,2021-05-22 13:07:56.172,2021-05-22 14:07:56.172,17,0,0,16.399,55.937315,-4.405539,0.00,0.00,-0.40,1.70,0.10,168.30,0,1,0,93,100,-6894,3266,16399,2964.50,4,P-GPS,1,0,0,0,314,0,0,1621688876172,4269,4248,4254,4250,0,0,27,,,,,,,0,0,0,-17.00,1.00,1683.00,0.00,0.00,1694.00,6,11.00,4.00,2.90,0.00,0.00,-4.00,0,,,100,100,0,2,0,0,0,2,0,,,,,0.0,8.0,0
55.937313,-4.405536,1.20,1.40,0.50,0.29,1.20,1.20,0.50,0.38,3400,2021-05-22 13:07:56.280,2021-05-22 14:07:56.280,17,0,0,16.399,55.937315,-4.405539,0.00,0.00,-0.50,1.80,0.10,168.40,0,1,0,93,100,-6894,3266,16399,2964.50,4,P-GPS,1,0,0,0,319,0,0,1621688876280,4269,4248,4254,4250,0,0,27,,,,,,,0,0,0,-18.00,1.00,1684.00,0.00,0.00,1694.00,6,12.00,5.00,2.91,0.00,0.00,-5.00,0,,,100,100,0,2,0,0,0,2,0,,,,,0.0,8.0,0
55.937313,-4.405536,1.20,1.40,0.50,0.29,1.20,1.20,0.50,0.38,3489,2021-05-22 13:07:56.369,2021-05-22 14:07:56.369,17,0,0,16.399,55.937315,-4.405539,0.00,0.00,-0.50,1.80,0.10,168.40,0,1,0,93,100,-6894,3266,16399,2964.50,4,P-GPS,1,0,0,0,321,0,0,1621688876369,4269,4248,4254,4250,0,0,27,,,,,,,0,0,0,-18.00,1.00,1684.00,0.00,0.00,1694.00,6,12.00,5.00,2.91,0.00,0.00,-5.00,0,,,100,100,0,2,0,0,0,2,0,,,,,0.0,8.0,0
55.937313,-4.405535,1.30,1.50,0.70,0.30,1.30,1.30,0.70,0.38,3587,2021-05-22 13:07:56.467,2021-05-22 14:07:56.467,17,0,0,16.399,55.937315,-4.405539,0.00,0.00,-0.70,1.70,0.30,168.40,0,1,0,93,100,-6894,3266,16399,2964.50,4,P-GPS,1,0,0,0,321,0,0,1621688876467,4269,4248,4254,4250,0,0,27,,,,,,,0,0,0,-17.00,3.00,1684.00,0.00,0.00,1694.00,6,13.00,7.00,3.04,0.00,0.00,-7.00,0,,,100,100,0,2,0,0,0,2,0,,,,,0.0,8.0,0
55.937313,-4.405535,1.40,1.60,0.80,0.31,1.40,1.40,0.80,0.38,3700,2021-05-22 13:07:56.580,2021-05-22 14:07:56.580,17,0,0,16.399,55.937315,-4.405539,0.00,0.00,-0.80,1.50,0.50,168.30,0,1,0,93,100,-6894,3266,16399,2964.50,4,P-GPS,1,0,0,0,325,0,0,1621688876580,4269,4248,4254,4250,0,0,27,,,,,,,0,0,0,-15.00,5.00,1683.00,0.00,0.00,1694.00,6,14.00,8.00,3.11,0.00,0.00,-8.00,0,,,100,100,0,2,0,0,0,2,0,,,,,0.0,8.0,0
55.937313,-4.405535,1.50,1.70,0.80,0.31,1.50,1.50,0.80,0.38,3804,2021-05-22 13:07:56.684,2021-05-22 14:07:56.684,17,0,0,16.399,55.937315,-4.405539,0.00,0.00,-0.80,1.30,0.50,168.30,0,1,0,93,100,-6894,3266,16399,2964.50,4,P-GPS,1,0,0,0,333,0,0,1621688876684,4269,4248,4254,4250,0,0,27,,,,,,,0,0,0,-13.00,5.00,1683.00,0.00,0.00,1694.00,6,15.00,8.00,3.13,0.00,0.00,-8.00,0,,,100,100,0,2,0,0,0,2,0,,,,,0.0,8.0,0
55.937313,-4.405535,1.60,1.80,0.80,0.31,1.60,1.60,0.80,0.38,3904,2021-05-22 13:07:56.784,2021-05-22 14:07:56.784,17,0,0,16.399,55.937315,-4.405539,0.00,0.00,-0.80,1.20,0.40,168.30,0,1,0,93,100,-6894,3266,16399,2964.50,4,P-GPS,1,0,0,0,335,0,0,1621688876784,4269,4248,4254,4250,0,0,27,,,,,,,0,0,0,-12.00,4.00,1683.00,0.00,0.00,1694.00,6,16.00,8.00,3.07,0.00,0.00,-8.00,0,,,100,100,0,2,0,0,0,2,0,,,,,0.0,8.0,0
55.937313,-4.405535,1.70,1.90,0.90,0.31,1.70,1.70,0.90,0.38,4007,2021-05-22 13:07:56.887,2021-05-22 14:07:56.887,17,0,0,16.399,55.937315,-4.405539,0.00,0.00,-0.90,1.20,0.20,168.30,0,1,0,93,100,-6894,3266,16399,2964.50,4,P-GPS,1,0,0,0,342,0,0,1621688876887,4269,4248,4254,4250,0,0,27,,,,,,,0,0,0,-12.00,2.00,1683.00,0.00,0.00,1694.00,6,17.00,9.00,3.08,0.00,0.00,-9.00,0,,,100,100,0,2,0,0,0,2,0,,,,,0.0,7.9,0
55.937313,-4.405535,1.80,2.00,0.90,0.31,1.80,1.80,0.90,0.38,4095,2021-05-22 13:07:56.975,2021-05-22 14:07:56.975,17,0,0,16.399,55.937315,-4.405539,0.00,0.00,-0.90,1.20,0.20,168.40,0,1,0,93,100,-6894,3266,16399,2964.50,4,P-GPS,1,0,0,0,360,0,0,1621688876975,4114,4060,4049,4066,0,0,27,,,,,,,0,0,0,-12.00,2.00,1684.00,0.00,0.00,1694.00,6,18.00,9.00,3.05,0.00,0.00,-9.00,0,,,100,100,0,2,0,0,0,2,0,,,,,0.0,7.9,0
55.937313,-4.405535,1.90,2.00,0.90,0.31,1.90,1.90,0.90,0.38,4200,2021-05-22 13:07:57.080,2021-05-22 14:07:57.080,17,0,0,16.399,55.937315,-4.405539,0.00,0.00,-0.90,1.40,0.00,168.40,0,1,0,93,100,-6894,3266,16399,2964.50,4,P-GPS,1,0,0,0,390,0,0,1621688877080,4114,4060,4049,4066,0,0,27,,,,,,,0,0,0,-14.00,0.00,1684.00,0.00,0.00,1694.00,6,19.00,9.00,3.06,0.00,0.00,-9.00,0,,,100,100,0,2,0,0,0,2,0,,,,,0.0,7.9,0
55.937313,-4.405535,2.00,2.20,1.10,0.30,2.00,2.00,1.10,0.38,4294,2021-05-22 13:07:57.174,2021-05-22 14:07:57.174,17,0,0,16.289,55.937315,-4.405539,0.00,0.00,-1.10,1.30,0.00,168.30,0,1,0,93,100,-7621,3264,16289,2965.50,4,P-GPS,1,0,0,0,400,0,0,1621688877174,4114,4060,4049,4066,0,0,27,,,,,,,0,0,0,-13.00,0.00,1683.00,0.00,0.00,1694.00,6,20.00,11.00,3.02,0.00,0.00,-11.00,0,,,100,100,0,2,0,0,0,2,0,,,,,0.0,7.9,0
55.937313,-4.405535,2.10,2.30,1.20,0.30,2.10,2.10,1.20,0.38,4410,2021-05-22 13:07:57.290,2021-05-22 14:07:57.290,17,0,0,16.289,55.937315,-4.405539,0.00,0.00,-1.20,1.40,0.50,168.40,0,1,0,93,100,-7621,3264,16289,2965.50,4,P-GPS,1,0,0,0,425,0,0,1621688877290,4114,4060,4049,4066,0,0,27,,,,,,,0,0,0,-14.00,5.00,1684.00,0.00,0.00,1694.00,6,21.00,12.00,3.03,0.00,0.00,-12.00,0,,,100,100,0,2,0,0,0,2,0,,,,,0.0,7.8,0
55.937313,-4.405535,2.20,2.40,1.30,0.31,2.20,2.20,1.30,0.38,4503,2021-05-22 13:07:57.383,2021-05-22 14:07:57.383,17,0,0,16.289,55.937315,-4.405539,0.00,0.00,-1.30,1.30,0.80,168.40,0,1,0,93,100,-7621,3264,16289,2965.50,4,P-GPS,1,0,0,0,438,0,0,1621688877383,4114,4060,4049,4066,0,0,27,,,,,,,0,0,0,-13.00,8.00,1684.00,0.00,0.00,1694.00,6,22.00,13.00,3.09,0.00,0.00,-13.00,0,,,100,100,0,2,0,0,0,2,0,,,,,0.0,7.8,0
55.937313,-4.405535,2.30,2.60,1.40,0.31,2.30,2.30,1.40,0.38,4605,2021-05-22 13:07:57.485,2021-05-22 14:07:57.485,17,0,0,16.289,55.937315,-4.405539,0.00,0.00,-1.40,0.70,1.10,168.50,0,1,0,93,100,-7621,3264,16289,2965.50,4,P-GPS,1,0,0,0,450,0,0,1621688877485,4114,4060,4049,4066,0,0,27,,,,,,,0,0,0,-7.00,11.00,1685.00,0.00,0.00,1694.00,6,23.00,14.00,3.09,0.00,0.00,-14.00,0,,,100,100,0,2,0,0,0,2,0,,,,,0.0,7.8,0
55.937313,-4.405535,2.50,2.70,1.50,0.30,2.50,2.50,1.50,0.38,4702,2021-05-22 13:07:57.582,2021-05-22 14:07:57.582,17,0,0,16.289,55.937315,-4.405539,0.00,0.00,-1.50,0.20,1.30,168.50,0,1,0,93,100,-7621,3264,16289,2965.50,4,P-GPS,1,0,0,0,456,0,0,1621688877582,4114,4060,4049,4066,0,0,27,,,,,,,0,0,0,-2.00,13.00,1685.00,0.00,0.00,1694.00,6,25.00,15.00,3.03,0.00,0.00,-15.00,0,,,100,100,0,2,0,0,0,2,0,,,,,0.0,7.8,0
55.937313,-4.405535,2.60,2.90,1.60,0.30,2.60,2.60,1.60,0.38,4794,2021-05-22 13:07:57.675,2021-05-22 14:07:57.675,17,0,0,16.289,55.937315,-4.405539,0.00,0.00,-1.60,0.10,1.20,168.50,0,1,0,93,100,-7621,3264,16289,2965.50,4,P-GPS,1,0,0,0,461,0,0,1621688877674,4114,4060,4049,4066,0,0,27,,,,,,,0,0,0,-1.00,12.00,1685.00,0.00,0.00,1694.00,6,26.00,16.00,3.01,0.00,0.00,-16.00,0,,,100,100,0,2,0,0,0,2,0,,,,,0.0,7.8,0
55.937313,-4.405535,2.80,3.00,1.70,0.30,2.80,2.80,1.70,0.38,4897,2021-05-22 13:07:57.777,2021-05-22 14:07:57.777,17,0,0,16.289,55.937315,-4.405539,0.00,0.00,-1.70,0.10,1.10,168.50,0,1,0,93,100,-7621,3264,16289,2965.50,4,P-GPS,1,0,0,0,464,0,0,1621688877777,4114,4060,4049,4066,0,0,27,,,,,,,0,0,0,-1.00,11.00,1685.00,0.00,0.00,1694.00,6,28.00,17.00,2.98,0.00,0.00,-17.00,0,,,100,100,0,2,0,0,0,2,0,,,,,0.0,7.8,0
55.937313,-4.405535,3.00,3.20,1.80,0.30,3.00,3.00,1.80,0.38,4999,2021-05-22 13:07:57.880,2021-05-22 14:07:57.879,17,0,0,16.289,55.937315,-4.405539,0.00,0.00,-1.80,0.10,0.90,168.50,0,1,0,93,100,-7621,3264,16289,2965.50,4,P-GPS,1,0,0,0,479,0,0,1621688877879,4114,4060,4049,4066,0,0,27,,,,,,,0,0,0,-1.00,9.00,1685.00,0.00,0.00,1694.00,6,30.00,18.00,2.95,0.00,0.00,-18.00,0,,,100,100,0,2,0,0,0,2,0,,,,,0.0,0.0,0
55.937313,-4.405535,3.20,3.40,1.80,0.30,3.20,3.20,1.80,0.38,5102,2021-05-22 13:07:57.982,2021-05-22 14:07:57.982,17,0,0,16.289,55.937315,-4.405539,0.00,0.00,-1.80,0.00,0.50,168.40,0,1,0,93,100,-7621,3264,16289,2965.50,4,P-GPS,1,0,0,0,485,0,0,1621688877982,4114,4060,4049,4066,0,0,27,,,,,,,0,0,0,-0.00,5.00,1684.00,0.00,0.00,1694.00,6,32.00,18.00,3.01,0.00,0.00,-18.00,0,,,100,100,0,2,0,0,0,2,0,,,,,0.0,0.0,0
55.937313,-4.405535,3.40,3.60,1.90,0.30,3.40,3.40,1.90,0.38,5202,2021-05-22 13:07:58.082,2021-05-22 14:07:58.082,17,0,0,16.289,55.937315,-4.405539,0.00,0.00,-1.90,0.00,0.40,168.30,0,1,0,93,100,-7621,3264,16289,2965.50,4,P-GPS,1,0,0,0,487,0,0,1621688878082,4114,4060,4049,4066,0,0,27,,,,,,,0,0,0,-0.00,4.00,1683.00,0.00,0.00,1694.00,6,34.00,19.00,2.99,0.00,0.00,-19.00,0,,,100,100,0,2,0,0,0,2,0,,,,,0.0,0.0,0
55.937313,-4.405535,3.60,3.80,2.00,0.28,3.60,3.60,2.00,0.38,5304,2021-05-22 13:07:58.184,2021-05-22 14:07:58.184,17,0,0,16.300,55.937315,-4.405539,0.00,0.00,-2.00,-0.10,0.50,168.20,0,1,0,93,100,-7666,3262,16300,2965.50,4,P-GPS,1,0,0,0,488,0,0,1621688878184,4114,4060,4049,4066,0,0,27,,,,,,,0,0,0,1.00,5.00,1682.00,0.00,0.00,1694.00,6,36.00,20.00,2.76,0.00,0.00,-20.00,0,,,100,100,0,2,0,0,0,2,0,,,,,0.0,0.0,0
55.937313,-4.405535,3.80,3.90,2.00,0.27,3.80,3.80,2.00,0.38,5405,2021-05-22 13:07:58.286,2021-05-22 14:07:58.285,17,0,0,16.300,55.937315,-4.405539,0.00,0.00,-2.00,-0.20,0.30,168.20,0,1,0,93,100,-7666,3262,16300,2965.50,4,P-GPS,1,0,0,0,488,0,0,1621688878285,4114,4060,4049,4066,0,0,27,,,,,,,0,0,0,2.00,3.00,1682.00,0.00,0.00,1694.00,6,38.00,20.00,2.72,0.00,0.00,-20.00,0,,,100,100,0,2,0,0,0,2,0,,,,,0.0,0.0,0
55.937313,-4.405535,4.00,4.10,2.00,0.25,4.00,4.00,2.00,0.38,5497,2021-05-22 13:07:58.377,2021-05-22 14:07:58.377,17,0,0,16.300,55.937315,-4.405539,0.00,0.00,-2.00,-0.40,0.40,168.10,0,1,0,93,100,-7666,3262,16300,2965.50,4,P-GPS,1,0,0,0,489,0,0,1621688878377,4114,4060,4049,4066,0,0,27,,,,,,,0,0,0,4.00,4.00,1681.00,0.00,0.00,1694.00,6,40.00,20.00,2.54,0.00,0.00,-20.00,0,,,100,100,0,2,0,0,0,2,0,,,,,0.0,0.0,0
55.937313,-4.405536,4.20,4.30,2.10,0.25,4.20,4.20,2.10,0.38,5588,2021-05-22 13:07:58.468,2021-05-22 14:07:58.468,17,0,0,16.300,55.937315,-4.405539,0.00,0.00,-2.10,-0.50,0.60,168.10,0,1,0,93,100,-7666,3262,16300,2965.50,4,P-GPS,1,0,0,0,489,0,0,1621688878468,4114,4060,4049,4066,0,0,27,,,,,,,0,0,0,5.00,6.00,1681.00,0.00,0.00,1694.00,6,42.00,21.00,2.50,0.00,0.00,-21.00,0,,,100,100,0,2,0,0,0,2,0,,,,,0.0,0.0,0
55.937314,-4.405535,4.40,4.50,2.10,0.25,4.40,4.40,2.10,0.38,5704,2021-05-22 13:07:58.585,2021-05-22 14:07:58.584,17,0,0,16.300,55.937315,-4.405539,0.00,0.00,-2.10,-0.70,0.90,168.10,0,1,0,93,100,-7666,3262,16300,2965.50,4,P-GPS,1,0,0,0,489,0,0,1621688878584,4114,4060,4049,4066,0,0,27,,,,,,,0,0,0,7.00,9.00,1681.00,0.00,0.00,1694.00,6,44.00,21.00,2.46,0.00,0.00,-21.00,0,,,100,100,0,2,0,0,0,2,0,,,,,0.0,0.0,0
55.937314,-4.405535,4.60,4.80,2.10,0.24,4.60,4.60,2.10,0.38,5805,2021-05-22 13:07:58.685,2021-05-22 14:07:58.685,17,0,0,16.300,55.937315,-4.405539,0.00,0.00,-2.10,-0.60,0.90,168.00,0,1,0,93,100,-7666,3262,16300,2965.50,4,P-GPS,1,0,0,0,490,0,0,1621688878685,4114,4060,4049,4066,0,0,27,,,,,,,0,0,0,6.00,9.00,1680.00,0.00,0.00,1694.00,6,46.00,21.00,2.44,0.00,0.00,-21.00,0,,,100,100,0,2,0,0,0,2,0,,,,,0.0,0.0,0
55.937314,-4.405536,4.80,5.00,2.10,0.24,4.80,4.80,2.10,0.38,5894,2021-05-22 13:07:58.774,2021-05-22 14:07:58.774,17,0,0,16.300,55.937315,-4.405539,0.00,0.00,-2.10,-0.60,0.80,168.00,0,1,0,93,100,-7666,3262,16300,2965.50,4,P-GPS,1,0,0,0,491,0,0,1621688878774,4114,4060,4049,4066,0,0,27,,,,,,,0,0,0,6.00,8.00,1680.00,0.00,0.00,1694.00,6,48.00,21.00,2.38,0.00,0.00,-21.00,0,,,100,100,0,2,0,0,0,2,0,,,,,0.0,0.0,0
55.937314,-4.405536,5.00,5.20,2.10,0.24,5.00,5.00,2.10,0.38,6008,2021-05-22 13:07:58.888,2021-05-22 14:07:58.888,17,0,0,16.300,55.937315,-4.405539,0.00,0.00,-2.10,-0.50,0.80,168.20,0,1,0,93,100,-7666,3262,16300,2965.50,4,P-GPS,1,0,0,0,491,0,0,1621688878888,4114,4060,4049,4066,0,0,27,,,,,,,0,0,0,5.00,8.00,1682.00,0.00,0.00,1694.00,6,50.00,21.00,2.36,0.00,0.00,-21.00,0,,,100,100,0,2,0,0,0,2,0,,,,,0.0,0.0,0
55.937314,-4.405535,5.30,5.40,2.10,0.25,5.30,5.30,2.10,0.38,6100,2021-05-22 13:07:58.980,2021-05-22 14:07:58.980,17,0,0,16.300,55.937315,-4.405539,0.00,0.00,-2.10,-0.20,0.70,168.20,0,1,0,93,100,-7666,3262,16300,2965.50,4,P-GPS,1,0,0,0,491,0,0,1621688878980,4114,4060,4049,4066,0,0,27,,,,,,,0,0,0,2.00,7.00,1682.00,0.00,0.00,1694.00,6,53.00,21.00,2.46,0.00,0.00,-21.00,0,,,100,100,0,2,0,0,0,2,0,,,,,0.0,0.0,0
55.937314,-4.405535,5.50,5.60,2.10,0.25,5.50,5.50,2.10,0.38,6200,2021-05-22 13:07:59.080,2021-05-22 14:07:59.080,17,0,0,16.300,55.937315,-4.405539,0.00,0.00,-2.10,0.00,0.80,168.20,0,1,0,93,100,-7666,3262,16300,2965.50,4,P-GPS,1,0,0,0,489,0,0,1621688879080,4114,4060,4049,4066,0,0,27,,,,,,,0,0,0,-0.00,8.00,1682.00,0.00,0.00,1694.00,6,55.00,21.00,2.47,0.00,0.00,-21.00,0,,,100,100,0,2,0,0,0,2,0,,,,,0.0,0.0,0
55.937314,-4.405535,5.70,5.80,2.10,0.25,5.70,5.70,2.10,0.38,6302,2021-05-22 13:07:59.182,2021-05-22 14:07:59.182,17,0,0,16.235,55.937315,-4.405539,0.00,0.00,-2.10,0.30,1.00,168.20,0,1,0,93,100,-8076,3260,16235,2965.50,4,P-GPS,1,0,0,0,489,0,0,1621688879182,4114,4060,4049,4066,0,0,27,,,,,,,0,0,0,-3.00,10.00,1682.00,0.00,0.00,1694.00,6,57.00,21.00,2.53,0.00,0.00,-21.00,0,,,100,100,0,2,0,0,0,2,0,,,,,0.0,0.0,0
55.937314,-4.405535,5.90,6.00,2.10,0.25,5.90,5.90,2.10,0.38,6404,2021-05-22 13:07:59.284,2021-05-22 14:07:59.284,17,0,0,16.235,55.937315,-4.405539,0.00,0.00,-2.10,0.40,1.00,168.20,0,1,0,93,100,-8076,3260,16235,2965.50,4,P-GPS,1,0,0,0,491,0,0,1621688879284,4114,4060,4049,4066,0,0,27,,,,,,,0,0,0,-4.00,10.00,1682.00,0.00,0.00,1694.00,6,59.00,21.00,2.54,0.00,0.00,-21.00,0,,,100,100,0,2,0,0,0,2,0,,,,,0.0,0.0,0
55.937314,-4.405535,6.10,6.20,2.10,0.25,6.10,6.10,2.10,0.38,6505,2021-05-22 13:07:59.386,2021-05-22 14:07:59.385,17,0,0,16.235,55.937315,-4.405539,0.00,0.00,-2.10,0.40,1.00,168.20,0,1,0,93,100,-8076,3260,16235,2965.50,4,P-GPS,1,0,0,0,497,0,0,1621688879385,4114,4060,4049,4066,0,0,27,,,,,,,0,0,0,-4.00,10.00,1682.00,0.00,0.00,1694.00,6,61.00,21.00,2.46,0.00,0.00,-21.00,0,,,100,100,0,2,0,0,0,2,0,,,,,0.0,0.0,0
55.937314,-4.405535,6.30,6.40,2.10,0.25,6.30,6.30,2.10,0.38,6603,2021-05-22 13:07:59.483,2021-05-22 14:07:59.483,17,0,0,16.235,55.937315,-4.405539,0.00,0.00,-2.10,0.40,0.90,168.10,0,1,0,93,100,-8076,3260,16235,2965.50,4,P-GPS,1,0,0,0,514,0,0,1621688879483,4114,4060,4049,4066,0,0,27,,,,,,,0,0,0,-4.00,9.00,1681.00,0.00,0.00,1694.00,6,63.00,21.00,2.46,0.00,0.00,-21.00,0,,,100,100,0,2,0,0,0,2,0,,,,,0.0,0.0,0
55.937314,-4.405535,6.50,6.60,2.10,0.27,6.50,6.50,2.10,0.38,6702,2021-05-22 13:07:59.582,2021-05-22 14:07:59.582,17,0,0,16.235,55.937315,-4.405539,0.00,0.00,-2.10,0.40,0.80,168.10,0,1,0,93,100,-8076,3260,16235,2965.50,4,P-GPS,1,0,0,0,526,0,0,1621688879582,4114,4060,4049,4066,0,0,27,,,,,,,0,0,0,-4.00,8.00,1681.00,0.00,0.00,1694.00,6,65.00,21.00,2.66,0.00,0.00,-21.00,0,,,100,100,0,2,0,0,0,2,0,,,,,0.0,0.0,0
55.937314,-4.405535,6.80,6.90,2.20,0.27,6.80,6.80,2.20,0.38,6794,2021-05-22 13:07:59.674,2021-05-22 14:07:59.674,17,0,0,16.235,55.937315,-4.405539,0.00,0.00,-2.20,0.30,0.90,168.20,0,1,0,93,100,-8076,3260,16235,2965.50,4,P-GPS,1,0,0,0,528,0,0,1621688879674,4114,4060,4049,4066,0,0,27,,,,,,,0,0,0,-3.00,9.00,1682.00,0.00,0.00,1694.00,6,68.00,22.00,2.66,0.00,0.00,-22.00,0,,,100,100,0,2,0,0,0,2,0,,,,,0.0,0.0,0
55.937314,-4.405535,7.00,7.10,2.30,0.26,7.00,7.00,2.30,0.38,6904,2021-05-22 13:07:59.784,2021-05-22 14:07:59.784,17,0,0,16.235,55.937315,-4.405539,0.00,0.00,-2.30,0.10,0.90,168.20,0,1,0,93,100,-8076,3260,16235,2965.50,4,P-GPS,1,0,0,0,528,0,0,1621688879784,4114,4060,4049,4066,0,0,27,,,,,,,0,0,0,-1.00,9.00,1682.00,0.00,0.00,1694.00,6,70.00,23.00,2.60,0.00,0.00,-23.00,0,,,100,100,0,2,0,0,0,2,0,,,,,0.0,0.0,0
55.937314,-4.405535,7.20,7.30,2.40,0.26,7.20,7.20,2.40,0.38,7003,2021-05-22 13:07:59.883,2021-05-22 14:07:59.883,17,0,0,16.235,55.937315,-4.405539,0.00,0.00,-2.40,0.20,0.80,168.20,0,1,0,93,100,-8076,3260,16235,2965.50,4,P-GPS,1,0,0,0,527,0,0,1621688879883,4114,4060,4049,4066,0,0,27,,,,,,,0,0,0,-2.00,8.00,1682.00,0.00,0.00,1694.00,6,72.00,24.00,2.58,0.00,0.00,-24.00,0,,,100,100,0,2,0,0,0,2,0,,,,,0.0,0.0,0
55.937314,-4.405535,7.50,7.60,2.40,0.27,7.50,7.50,2.40,0.38,7091,2021-05-22 13:07:59.971,2021-05-22 14:07:59.971,17,0,0,16.235,55.937315,-4.405539,0.00,0.00,-2.40,0.20,0.80,168.30,0,1,0,93,100,-8076,3260,16235,2965.50,4,P-GPS,1,0,0,0,527,0,0,1621688879971,4114,4060,4049,4066,0,0,27,,,,,,,0,0,0,-2.00,8.00,1683.00,0.00,0.00,1694.00,6,75.00,24.00,2.72,0.00,0.00,-24.00,0,,,100,100,0,2,0,0,0,2,0,,,,,0.0,0.0,0
55.937314,-4.405535,7.70,7.80,2.40,0.27,7.70,7.70,2.40,0.38,7200,2021-05-22 13:08:00.080,2021-05-22 14:08:00.080,17,0,0,16.235,55.937315,-4.405539,0.00,0.00,-2.40,0.20,0.60,168.20,0,1,0,93,100,-8076,3260,16235,2965.50,4,P-GPS,1,0,0,0,526,0,0,1621688880080,4114,4060,4049,4066,0,0,27,,,,,,,0,0,0,-2.00,6.00,1682.00,0.00,0.00,1694.00,6,77.00,24.00,2.71,0.00,0.00,-24.00,0,,,100,100,0,2,0,0,0,2,0,,,,,0.0,0.0,0
55.937314,-4.405535,8.00,8.00,2.40,0.28,8.00,8.00,2.40,0.38,7313,2021-05-22 13:08:00.193,2021-05-22 14:08:00.193,17,0,0,16.304,55.937315,-4.405539,0.00,0.00,-2.40,0.00,0.50,168.10,0,1,0,92,100,-7381,3258,16304,2965.50,4,P-GPS,1,0,0,0,526,0,0,1621688880193,4114,4060,4049,4066,0,0,27,,,,,,,0,0,0,-0.00,5.00,1681.00,0.00,0.00,1694.00,6,80.00,24.00,2.76,0.00,0.00,-24.00,0,,,100,100,0,2,0,0,0,2,0,,,,,0.0,0.0,0
55.937314,-4.405535,8.20,8.30,2.40,0.28,8.20,8.20,2.40,0.38,7416,2021-05-22 13:08:00.296,2021-05-22 14:08:00.296,17,0,0,16.304,55.937315,-4.405539,0.00,0.00,-2.40,0.00,0.40,168.20,0,1,0,92,100,-7381,3258,16304,2965.50,4,P-GPS,1,0,0,0,526,0,0,1621688880296,4114,4060,4049,4066,0,0,27,,,,,,,0,0,0,-0.00,4.00,1682.00,0.00,0.00,1694.00,6,82.00,24.00,2.75,0.00,0.00,-24.00,0,,,100,100,0,2,0,0,0,2,0,,,,,0.0,0.0,0
55.937314,-4.405535,8.70,8.80,2.40,0.26,8.70,8.70,2.40,0.38,7600,2021-05-22 13:08:00.480,2021-05-22 14:08:00.480,17,0,0,16.304,55.937315,-4.405539,0.00,0.00,-2.40,0.00,0.30,168.20,0,1,0,92,100,-7381,3258,16304,2965.50,4,P-GPS,1,0,0,0,537,0,0,1621688880480,4114,4060,4049,4066,0,0,27,,,,,,,0,0,0,-0.00,3.00,1682.00,0.00,0.00,1694.00,6,87.00,24.00,2.59,0.00,0.00,-24.00,0,,,100,100,0,2,0,0,0,2,0,,,,,0.0,0.0,0
55.937314,-4.405535,9.00,9.00,2.40,0.26,9.00,9.00,2.40,0.38,7690,2021-05-22 13:08:00.570,2021-05-22 14:08:00.570,17,0,0,16.304,55.937315,-4.405539,0.00,0.00,-2.40,0.00,0.40,168.20,0,1,0,92,100,-7381,3258,16304,2965.50,4,P-GPS,1,0,0,0,538,0,0,1621688880570,4114,4060,4049,4066,0,0,27,,,,,,,0,0,0,-0.00,4.00,1682.00,0.00,0.00,1694.00,6,90.00,24.00,2.55,0.00,0.00,-24.00,0,,,100,100,0,2,0,0,0,2,0,,,,,0.0,0.0,0
55.937314,-4.405535,9.20,9.30,2.50,0.25,9.20,9.20,2.50,0.38,7801,2021-05-22 13:08:00.681,2021-05-22 14:08:00.681,17,0,0,16.304,55.937315,-4.405539,0.00,0.00,-2.50,0.10,0.60,168.20,0,1,0,92,100,-7381,3258,16304,2965.50,4,P-GPS,1,0,0,0,541,0,0,1621688880681,4114,4060,4049,4066,0,0,27,,,,,,,0,0,0,-1.00,6.00,1682.00,0.00,0.00,1694.00,6,92.00,25.00,2.55,0.00,0.00,-25.00,0,,,100,100,0,2,0,0,0,2,0,,,,,0.0,0.0,0
55.937314,-4.405535,9.50,9.50,2.50,0.26,9.50,9.50,2.50,0.38,7899,2021-05-22 13:08:00.779,2021-05-22 14:08:00.779,17,0,0,16.304,55.937315,-4.405539,0.00,0.00,-2.50,0.30,0.60,168.20,0,1,0,92,100,-7381,3258,16304,2965.50,4,P-GPS,1,0,0,0,542,0,0,1621688880779,4114,4060,4049,4066,0,0,27,,,,,,,0,0,0,-3.00,6.00,1682.00,0.00,0.00,1694.00,6,95.00,25.00,2.59,0.00,0.00,-25.00,0,,,100,100,0,2,0,0,0,2,0,,,,,0.0,0.0,0
55.937314,-4.405535,9.70,9.80,2.50,0.26,9.70,9.70,2.50,0.38,7997,2021-05-22 13:08:00.877,2021-05-22 14:08:00.877,17,0,0,16.304,55.937315,-4.405539,0.00,0.00,-2.50,0.40,0.60,168.20,0,1,0,92,100,-7381,3258,16304,2965.50,4,P-GPS,1,0,0,0,544,0,0,1621688880877,4114,4060,4049,4066,0,0,27,,,,,,,0,0,0,-4.00,6.00,1682.00,0.00,0.00,1694.00,6,97.00,25.00,2.59,0.00,0.00,-25.00,0,,,100,100,0,2,0,0,0,2,0,,,,,0.0,0.0,0
55.937314,-4.405535,10.00,10.10,2.60,0.25,10.00,10.00,2.60,0.38,8085,2021-05-22 13:08:00.966,2021-05-22 14:08:00.965,17,0,0,16.304,55.937315,-4.405539,0.00,0.00,-2.60,0.30,0.30,168.20,0,1,0,92,100,-7381,3258,16304,2965.50,4,P-GPS,1,0,0,0,544,0,0,1621688880965,4114,4060,4049,4066,0,0,27,,,,,,,0,0,0,-3.00,3.00,1682.00,0.00,0.00,1694.00,6,100.00,26.00,2.52,0.00,0.00,-26.00,0,,,100,100,0,2,0,0,0,2,0,,,,,0.0,0.0,0
55.937314,-4.405535,10.20,10.30,2.60,0.25,10.20,10.20,2.60,0.38,8202,2021-05-22 13:08:01.082,2021-05-22 14:08:01.082,17,0,0,16.260,55.937315,-4.405539,0.00,0.00,-2.60,0.20,0.20,168.20,0,1,0,92,100,-7844,3255,16260,2965.50,4,P-GPS,1,0,0,0,543,0,0,1621688881082,4114,4060,4049,4066,0,0,27,,,,,,,0,0,0,-2.00,2.00,1682.00,0.00,0.00,1694.00,6,102.00,26.00,2.51,0.00,0.00,-26.00,0,,,100,100,0,2,0,0,0,2,0,,,,,0.0,0.0,0
55.937314,-4.405535,10.80,10.80,2.60,0.25,10.80,10.80,2.60,0.38,8405,2021-05-22 13:08:01.285,2021-05-22 14:08:01.285,17,0,0,16.260,55.937315,-4.405539,0.00,0.00,-2.60,0.30,0.40,168.10,0,1,0,92,100,-7844,3255,16260,2965.50,4,P-GPS,1,0,0,0,545,0,0,1621688881285,4114,4060,4049,4066,0,0,27,,,,,,,0,0,0,-3.00,4.00,1681.00,0.00,0.00,1694.00,6,108.00,26.00,2.52,0.00,0.00,-26.00,0,,,100,100,0,2,0,0,0,2,0,,,,,0.0,0.0,0
55.937314,-4.405535,11.30,11.40,2.60,0.25,11.30,11.30,2.60,0.38,8601,2021-05-22 13:08:01.481,2021-05-22 14:08:01.481,17,0,0,16.260,55.937315,-4.405539,0.00,0.00,-2.60,0.70,0.50,168.20,0,1,0,92,100,-7844,3255,16260,2965.50,4,P-GPS,1,0,0,0,544,0,0,1621688881481,4114,4060,4049,4066,0,0,27,,,,,,,0,0,0,-7.00,5.00,1682.00,0.00,0.00,1694.00,6,113.00,26.00,2.46,0.00,0.00,-26.00,0,,,100,100,0,2,0,0,0,2,0,,,,,0.0,0.0,0
55.937314,-4.405536,11.60,0.00,2.60,0.24,11.60,11.60,2.60,0.38,8705,2021-05-22 13:08:01.585,2021-05-22 14:08:01.585,17,0,0,16.260,55.937315,-4.405539,0.00,0.00,-2.60,0.90,0.50,168.20,0,1,0,92,100,-7844,3255,16260,2965.50,4,P-GPS,1,0,0,0,544,0,0,1621688881585,4114,4060,4049,4066,0,0,27,,,,,,,0,0,0,-9.00,5.00,1682.00,0.00,0.00,1694.00,6,116.00,26.00,2.41,0.00,0.00,-26.00,0,,,100,100,0,2,0,0,0,2,0,,,,,0.0,0.0,0
55.937314,-4.405536,11.80,0.00,2.60,0.24,11.80,11.80,2.60,0.38,8791,2021-05-22 13:08:01.671,2021-05-22 14:08:01.671,17,0,0,16.260,55.937315,-4.405539,0.00,0.00,-2.60,0.90,0.50,168.30,0,1,0,92,100,-7844,3255,16260,2965.50,4,P-GPS,1,0,0,0,544,0,0,1621688881671,4114,4060,4049,4066,0,0,27,,,,,,,0,0,0,-9.00,5.00,1683.00,0.00,0.00,1694.00,6,118.00,26.00,2.41,0.00,0.00,-26.00,0,,,100,100,0,2,0,0,0,2,0,,,,,0.0,0.0,0
55.937313,-4.405535,12.10,0.00,2.60,0.26,12.10,12.10,2.60,0.38,8887,2021-05-22 13:08:01.767,2021-05-22 14:08:01.767,17,0,0,16.260,55.937315,-4.405539,0.00,0.00,-2.60,0.80,0.40,168.30,0,1,0,92,100,-7844,3255,16260,2965.50,4,P-GPS,1,0,0,0,541,0,0,1621688881767,4114,4060,4049,4066,0,0,27,,,,,,,0,0,0,-8.00,4.00,1683.00,0.00,0.00,1694.00,6,121.00,26.00,2.60,0.00,0.00,-26.00,0,,,100,100,0,2,0,0,0,2,0,,,,,0.0,0.0,0
55.937313,-4.405535,12.40,0.00,2.60,0.26,12.40,12.40,2.60,0.38,8987,2021-05-22 13:08:01.867,2021-05-22 14:08:01.867,17,0,0,16.260,55.937315,-4.405539,0.00,0.00,-2.60,0.80,0.70,168.20,0,1,0,92,100,-7844,3255,16260,2965.50,4,P-GPS,1,0,0,0,540,0,0,1621688881867,4114,4060,4049,4066,0,0,27,,,,,,,0,0,0,-8.00,7.00,1682.00,0.00,0.00,1694.00,6,124.00,26.00,2.63,0.00,0.00,-26.00,0,,,100,100,0,2,0,0,0,2,0,,,,,0.0,0.0,0
55.937314,-4.405535,12.60,0.00,2.60,0.26,12.60,12.60,2.60,0.38,9121,2021-05-22 13:08:02.001,2021-05-22 14:08:02.001,17,0,0,16.260,55.937315,-4.405539,0.00,0.00,-2.60,0.90,1.00,168.20,0,1,0,92,100,-7844,3255,16260,2965.50,4,P-GPS,1,0,0,0,511,0,0,1621688882001,4114,4060,4049,4066,0,0,27,,,,,,,0,0,0,-9.00,10.00,1682.00,0.00,0.00,1694.00,6,126.00,26.00,2.56,0.00,0.00,-26.00,0,,,100,100,0,2,0,0,0,2,0,,,,,0.0,0.0,0
55.937314,-4.405535,13.10,0.00,2.40,0.25,13.10,13.10,2.60,0.38,9309,2021-05-22 13:08:02.189,2021-05-22 14:08:02.189,17,0,0,16.233,55.937315,-4.405539,0.00,0.00,-2.40,1.70,1.30,168.30,0,1,0,92,100,-7876,3253,16233,2965.50,4,P-GPS,1,0,0,0,458,0,0,1621688882189,4114,4060,4049,4066,0,0,27,,,,,,,0,0,0,-17.00,13.00,1683.00,0.00,0.00,1694.00,6,131.00,24.00,2.54,0.00,0.00,-24.00,0,,,100,100,0,2,0,0,0,2,0,,,,,0.0,0.0,0
55.937314,-4.405535,13.40,0.00,2.20,0.26,13.40,13.40,2.60,0.38,9424,2021-05-22 13:08:02.304,2021-05-22 14:08:02.304,17,0,0,16.233,55.937315,-4.405539,0.00,0.00,-2.20,2.00,1.40,168.30,0,1,0,92,100,-7876,3253,16233,2965.50,4,P-GPS,1,0,0,0,384,0,0,1621688882304,4114,4060,4049,4066,0,0,27,,,,,,,0,0,0,-20.00,14.00,1683.00,0.00,0.00,1694.00,6,134.00,22.00,2.57,0.00,0.00,-22.00,0,,,100,100,0,2,0,0,0,2,0,,,,,0.0,0.0,0
55.937314,-4.405535,13.80,0.00,1.60,0.26,13.80,13.80,2.60,0.38,9603,2021-05-22 13:08:02.483,2021-05-22 14:08:02.483,17,0,0,16.233,55.937315,-4.405539,0.00,0.00,-1.60,2.10,1.40,168.30,0,1,0,92,100,-7876,3253,16233,2965.50,4,P-GPS,1,0,0,0,272,0,0,1621688882483,4114,4060,4049,4066,0,0,27,,,,,,,0,0,0,-21.00,14.00,1683.00,0.00,0.00,1694.00,6,138.00,16.00,2.64,0.00,0.00,-16.00,0,,,100,100,0,2,0,0,0,2,0,,,,,0.0,0.0,0
55.937314,-4.405535,13.90,0.00,1.20,0.26,13.90,13.90,2.60,0.38,9695,2021-05-22 13:08:02.575,2021-05-22 14:08:02.575,17,0,0,16.233,55.937315,-4.405539,0.00,0.00,-1.20,1.90,1.60,168.30,0,1,0,92,100,-7876,3253,16233,2965.50,4,P-GPS,1,0,0,0,188,0,0,1621688882575,4114,4060,4049,4066,0,0,27,,,,,,,0,0,0,-19.00,16.00,1683.00,0.00,0.00,1694.00,6,139.00,12.00,2.63,0.00,0.00,-12.00,0,,,100,100,0,2,0,0,0,2,0,,,,,0.0,0.0,0
55.937314,-4.405535,14.00,0.00,0.90,0.27,14.00,14.00,2.60,0.38,9796,2021-05-22 13:08:02.676,2021-05-22 14:08:02.676,17,0,0,16.233,55.937315,-4.405539,0.00,0.00,-0.90,1.80,1.60,168.20,0,1,0,92,100,-7876,3253,16233,2965.50,4,P-GPS,1,0,0,0,106,0,0,1621688882676,4114,4060,4049,4066,0,0,27,,,,,,,0,0,0,-18.00,16.00,1682.00,0.00,0.00,1694.00,6,140.00,9.00,2.65,0.00,0.00,-9.00,0,,,100,100,0,2,0,0,0,2,0,,,,,0.0,0.0,0
55.937314,-4.405535,14.10,0.00,0.50,0.28,14.10,14.10,2.60,0.38,9905,2021-05-22 13:08:02.786,2021-05-22 14:08:02.785,17,0,0,16.233,55.937315,-4.405539,0.00,0.00,-0.50,1.70,1.40,168.20,0,1,0,92,100,-7876,3253,16233,2965.50,4,P-GPS,1,0,0,0,26,0,0,1621688882785,4114,4060,4049,4066,0,0,27,,,,,,,0,0,0,-17.00,14.00,1682.00,0.00,0.00,1694.00,6,141.00,5.00,2.75,0.00,0.00,-5.00,0,,,100,100,0,2,0,0,0,2,0,,,,,0.0,0.0,0
55.937314,-4.405535,14.20,0.00,0.20,0.28,14.20,14.20,2.60,0.38,9997,2021-05-22 13:08:02.877,2021-05-22 14:08:02.877,17,0,0,16.233,55.937315,-4.405539,0.00,0.00,-0.20,1.60,1.30,168.20,0,1,0,92,100,-7876,3253,16233,2965.50,4,P-GPS,1,0,0,0,0,0,0,1621688882877,4114,4060,4049,4066,0,0,27,,,,,,,0,0,0,-16.00,13.00,1682.00,0.00,0.00,1694.00,6,142.00,2.00,2.78,0.00,0.00,-2.00,0,,,100,100,0,2,0,0,0,2,0,,,,,0.0,0.0,0
55.937314,-4.405535,14.20,0.00,0.10,0.27,14.20,14.20,2.60,0.38,10099,2021-05-22 13:08:02.979,2021-05-22 14:08:02.979,17,0,0,16.233,55.937315,-4.405539,0.00,0.00,-0.10,1.50,1.20,168.20,0,1,0,92,100,-7876,3253,16233,2965.50,4,P-GPS,1,0,0,0,0,0,0,1621688882979,4114,4060,4049,4066,0,0,27,,,,,,,0,0,0,-15.00,12.00,1682.00,0.00,0.00,1694.00,6,142.00,1.00,2.73,0.00,0.00,-1.00,0,,,100,100,0,2,0,0,0,2,0,,,,,0.0,0.0,0
55.937314,-4.405535,14.20,0.00,0.00,0.27,14.20,14.20,2.60,0.38,10191,2021-05-22 13:08:03.071,2021-05-22 14:08:03.071,17,0,0,16.233,55.937315,-4.405539,0.00,0.00,0.00,1.60,1.10,168.20,0,1,0,92,100,-7876,3253,16233,2965.50,4,P-GPS,1,0,0,0,0,0,0,1621688883071,4114,4060,4049,4066,0,0,27,,,,,,,0,0,0,-16.00,11.00,1682.00,0.00,0.00,1694.00,6,142.00,0.00,2.74,0.00,0.00,0.00,0,,,100,100,0,2,0,0,0,2,0,,,,,0.0,0.0,0
55.937314,-4.405535,14.20,0.00,0.00,0.29,14.20,14.20,2.60,0.38,10304,2021-05-22 13:08:03.184,2021-05-22 14:08:03.184,17,0,0,16.385,55.937315,-4.405539,0.00,0.00,0.00,1.70,0.80,168.30,0,1,0,92,100,-6616,3251,16385,2966.50,4,P-GPS,1,0,0,0,0,0,0,1621688883184,4114,4060,4049,4066,0,0,27,,,,,,,0,0,0,-17.00,8.00,1683.00,0.00,0.00,1694.00,6,142.00,0.00,2.85,0.00,0.00,0.00,0,,,100,100,0,2,0,0,0,2,0,,,,,0.0,0.0,0
55.937314,-4.405535,14.20,0.00,0.00,0.29,14.20,14.20,2.60,0.38,10399,2021-05-22 13:08:03.279,2021-05-22 14:08:03.279,17,0,0,16.385,55.937315,-4.405539,0.00,0.00,0.00,1.80,0.50,168.20,0,1,0,92,100,-6616,3251,16385,2966.50,4,P-GPS,1,0,0,0,0,0,0,1621688883279,4114,4060,4049,4066,0,0,27,,,,,,,0,0,0,-18.00,5.00,1682.00,0.00,0.00,1694.00,6,142.00,0.00,2.87,0.00,0.00,0.00,0,,,100,100,0,2,0,0,0,2,0,,,,,0.0,0.0,0
55.937313,-4.405535,14.20,0.00,0.00,0.30,14.20,14.20,2.60,0.38,10496,2021-05-22 13:08:03.376,2021-05-22 14:08:03.376,17,0,0,16.385,55.937315,-4.405539,0.00,0.00,0.00,1.90,0.70,168.20,0,1,0,92,100,-6616,3251,16385,2966.50,4,P-GPS,1,0,0,0,0,0,0,1621688883376,4114,4060,4049,4066,0,0,27,,,,,,,0,0,0,-19.00,7.00,1682.00,0.00,0.00,1694.00,6,142.00,0.00,2.99,0.00,0.00,0.00,0,,,100,100,0,2,0,0,0,2,0,,,,,0.0,0.0,0
55.937313,-4.405535,14.20,0.00,0.00,0.30,14.20,14.20,2.60,0.38,10598,2021-05-22 13:08:03.478,2021-05-22 14:08:03.478,17,0,0,16.385,55.937315,-4.405539,0.00,0.00,0.00,1.90,1.00,168.10,0,1,0,92,100,-6616,3251,16385,2966.50,4,P-GPS,1,0,0,0,0,0,0,1621688883478,4114,4060,4049,4066,0,0,27,,,,,,,0,0,0,-19.00,10.00,1681.00,0.00,0.00,1694.00,6,142.00,0.00,3.03,0.00,0.00,0.00,0,,,100,100,0,2,0,0,0,2,0,,,,,0.0,0.0,0
55.937314,-4.405535,14.20,0.00,0.00,0.30,14.20,14.20,2.60,0.38,10688,2021-05-22 13:08:03.570,2021-05-22 14:08:03.568,17,0,0,16.385,55.937315,-4.405539,0.00,0.00,0.00,1.90,1.40,168.10,0,1,0,92,100,-6616,3251,16385,2966.50,4,P-GPS,1,0,0,0,0,0,0,1621688883568,4114,4060,4049,4066,0,0,27,,,,,,,0,0,0,-19.00,14.00,1681.00,0.00,0.00,1694.00,6,142.00,0.00,2.98,0.00,0.00,0.00,0,,,100,100,0,2,0,0,0,2,0,,,,,0.0,0.0,0
55.937313,-4.405535,14.20,0.00,0.00,0.30,14.20,14.20,2.60,0.38,10790,2021-05-22 13:08:03.670,2021-05-22 14:08:03.670,17,0,0,16.385,55.937315,-4.405539,0.00,0.00,0.00,1.90,1.80,168.10,0,1,0,92,100,-6616,3251,16385,2966.50,4,P-GPS,1,0,0,0,0,0,0,1621688883670,4114,4060,4049,4066,0,0,27,,,,,,,0,0,0,-19.00,18.00,1681.00,0.00,0.00,1694.00,6,142.00,0.00,3.01,0.00,0.00,0.00,0,,,100,100,0,2,0,0,0,2,0,,,,,0.0,0.0,0
55.937313,-4.405535,14.20,0.00,0.00,0.31,14.20,14.20,2.60,0.38,10897,2021-05-22 13:08:03.778,2021-05-22 14:08:03.777,17,0,0,16.385,55.937315,-4.405539,0.00,0.00,0.00,1.90,1.90,168.20,0,1,0,92,100,-6616,3251,16385,2966.50,4,P-GPS,1,0,0,0,0,0,0,1621688883777,4114,4060,4049,4066,0,0,27,,,,,,,0,0,0,-19.00,19.00,1682.00,0.00,0.00,1694.00,6,142.00,0.00,3.11,0.00,0.00,0.00,0,,,100,100,0,2,0,0,0,2,0,,,,,0.0,0.0,0
55.937313,-4.405534,14.20,0.00,0.00,0.31,14.20,14.20,2.60,0.38,11000,2021-05-22 13:08:03.880,2021-05-22 14:08:03.880,17,0,0,16.385,55.937315,-4.405539,0.00,0.00,0.00,2.00,1.90,168.20,0,1,0,92,100,-6616,3251,16385,2966.50,4,P-GPS,1,0,0,0,0,0,0,1621688883880,4114,4060,4049,4066,0,0,27,,,,,,,0,0,0,-20.00,19.00,1682.00,0.00,0.00,1694.00,6,142.00,0.00,3.13,0.00,0.00,0.00,0,,,100,100,0,2,0,0,0,2,0,,,,,0.0,0.0,0
55.937313,-4.405535,14.20,0.00,0.00,0.30,14.20,14.20,2.60,0.38,11092,2021-05-22 13:08:03.972,2021-05-22 14:08:03.972,17,0,0,16.385,55.937315,-4.405539,0.00,0.00,0.00,2.10,1.90,168.10,0,1,0,92,100,-6616,3251,16385,2966.50,4,P-GPS,1,0,0,0,0,0,0,1621688883972,4114,4060,4049,4066,0,0,27,,,,,,,0,0,0,-21.00,19.00,1681.00,0.00,0.00,1694.00,6,142.00,0.00,3.03,0.00,0.00,0.00,0,,,100,100,0,2,0,0,0,2,0,,,,,0.0,0.0,0
55.937313,-4.405535,14.20,0.00,0.00,0.30,14.20,14.20,2.60,0.38,11204,2021-05-22 13:08:04.084,2021-05-22 14:08:04.084,17,0,0,16.385,55.937315,-4.405539,0.00,0.00,0.00,2.30,1.80,168.10,0,1,0,92,100,-6616,3251,16385,2966.50,4,P-GPS,1,0,0,0,0,0,0,1621688884084,4114,4060,4049,4066,0,0,27,,,,,,,0,0,0,-23.00,18.00,1681.00,0.00,0.00,1694.00,6,142.00,0.00,3.03,0.00,0.00,0.00,0,,,100,100,0,2,0,0,0,2,0,,,,,0.0,0.0,0
55.937313,-4.405535,14.20,0.00,0.00,0.30,14.20,14.20,2.60,0.38,11291,2021-05-22 13:08:04.171,2021-05-22 14:08:04.171,17,0,0,16.313,55.937315,-4.405539,0.00,0.00,0.00,2.30,1.70,168.20,0,1,0,92,100,-5922,3250,16313,2966.50,4,P-GPS,1,0,0,0,0,0,0,1621688884171,4114,4060,4049,4066,0,0,27,,,,,,,0,0,0,-23.00,17.00,1682.00,0.00,0.00,1694.00,6,142.00,0.00,2.96,0.00,0.00,0.00,0,,,100,100,0,2,0,0,0,2,0,,,,,0.0,0.0,0
55.937313,-4.405535,14.20,0.00,0.00,0.29,14.20,14.20,2.60,0.38,11401,2021-05-22 13:08:04.281,2021-05-22 14:08:04.281,17,0,0,16.313,55.937315,-4.405539,0.00,0.00,0.00,2.20,1.70,168.10,0,1,0,92,100,-5922,3250,16313,2966.50,4,P-GPS,1,0,0,0,0,0,0,1621688884281,4114,4060,4049,4066,0,0,27,,,,,,,0,0,0,-22.00,17.00,1681.00,0.00,0.00,1694.00,6,142.00,0.00,2.94,0.00,0.00,0.00,0,,,100,100,0,2,0,0,0,2,0,,,,,0.0,0.0,0
55.937313,-4.405535,14.20,0.00,0.00,0.28,14.20,14.20,2.60,0.38,11504,2021-05-22 13:08:04.384,2021-05-22 14:08:04.384,17,0,0,16.313,55.937315,-4.405539,0.00,0.00,0.00,2.20,1.40,168.00,0,1,0,92,100,-5922,3250,16313,2966.50,4,P-GPS,1,0,0,0,0,0,0,1621688884384,4114,4060,4049,4066,0,0,27,,,,,,,0,0,0,-22.00,14.00,1680.00,0.00,0.00,1694.00,6,142.00,0.00,2.82,0.00,0.00,0.00,0,,,100,100,0,2,0,0,0,2,0,,,,,0.0,0.0,0
55.937313,-4.405535,14.20,0.00,0.00,0.28,14.20,14.20,2.60,0.38,11597,2021-05-22 13:08:04.477,2021-05-22 14:08:04.477,17,0,0,16.313,55.937315,-4.405539,0.00,0.00,0.00,2.10,1.30,168.00,0,1,0,92,100,-5922,3250,16313,2966.50,4,P-GPS,1,0,0,0,0,0,0,1621688884477,4114,4060,4049,4066,0,0,27,,,,,,,0,0,0,-21.00,13.00,1680.00,0.00,0.00,1694.00,6,142.00,0.00,2.78,0.00,0.00,0.00,0,,,100,100,0,2,0,0,0,2,0,,,,,0.0,0.0,0
55.937313,-4.405535,14.20,0.00,0.00,0.27,14.20,14.20,2.60,0.38,11706,2021-05-22 13:08:04.586,2021-05-22 14:08:04.586,17,0,0,16.313,55.937315,-4.405539,0.00,0.00,0.00,2.10,1.30,168.10,0,1,0,92,100,-5922,3250,16313,2966.50,4,P-GPS,1,0,0,0,0,0,0,1621688884586,4114,4060,4049,4066,0,0,27,,,,,,,0,0,0,-21.00,13.00,1681.00,0.00,0.00,1694.00,6,142.00,0.00,2.73,0.00,0.00,0.00,0,,,100,100,0,2,0,0,0,2,0,,,,,0.0,0.0,0
55.937313,-4.405535,14.20,0.00,0.00,0.27,14.20,14.20,2.60,0.38,11813,2021-05-22 13:08:04.693,2021-05-22 14:08:04.693,17,0,0,16.313,55.937315,-4.405539,0.00,0.00,0.00,2.20,1.00,168.10,0,1,0,92,100,-5922,3250,16313,2966.50,4,P-GPS,1,0,0,0,0,0,0,1621688884693,4114,4060,4049,4066,0,0,27,,,,,,,0,0,0,-22.00,10.00,1681.00,0.00,0.00,1694.00,6,142.00,0.00,2.68,0.00,0.00,0.00,0,,,100,100,0,2,0,0,0,2,0,,,,,0.0,0.0,0
55.937313,-4.405536,14.20,0.00,0.00,0.24,14.20,14.20,2.60,0.38,11903,2021-05-22 13:08:04.783,2021-05-22 14:08:04.783,17,0,0,16.313,55.937315,-4.405539,0.00,0.00,0.00,2.20,0.60,168.20,0,1,0,92,100,-5922,3250,16313,2966.50,4,P-GPS,1,0,0,0,0,0,0,1621688884783,4114,4060,4049,4066,0,0,27,,,,,,,0,0,0,-22.00,6.00,1682.00,0.00,0.00,1694.00,6,142.00,0.00,2.44,0.00,0.00,0.00,0,,,100,100,0,2,0,0,0,2,0,,,,,0.0,0.0,0
55.937313,-4.405536,14.20,0.00,0.00,0.24,14.20,14.20,2.60,0.38,12008,2021-05-22 13:08:04.888,2021-05-22 14:08:04.888,17,0,0,16.313,55.937315,-4.405539,0.00,0.00,0.00,2.20,0.40,168.40,0,1,0,92,100,-5922,3250,16313,2966.50,4,P-GPS,1,0,0,0,0,0,0,1621688884888,4114,4060,4049,4066,0,0,27,,,,,,,0,0,0,-22.00,4.00,1684.00,0.00,0.00,1694.00,6,142.00,0.00,2.38,0.00,0.00,0.00,0,,,100,100,0,2,0,0,0,2,0,,,,,0.0,0.0,0
55.937313,-4.405536,14.20,0.00,0.00,0.24,14.20,14.20,2.60,0.38,12091,2021-05-22 13:08:04.971,2021-05-22 14:08:04.971,17,0,0,16.313,55.937315,-4.405539,0.00,0.00,0.00,2.10,0.30,168.30,0,1,0,92,100,-5922,3250,16313,2966.50,4,P-GPS,1,0,0,0,0,0,0,1621688884971,4114,4060,4049,4066,0,0,27,,,,,,,0,0,0,-21.00,3.00,1683.00,0.00,0.00,1694.00,6,142.00,0.00,2.38,0.00,0.00,0.00,0,,,100,100,0,2,0,0,0,2,0,,,,,0.0,0.0,0
55.937313,-4.405536,14.20,0.00,0.00,0.23,14.20,14.20,2.60,0.38,12204,2021-05-22 13:08:05.084,2021-05-22 14:08:05.084,17,0,0,16.313,55.937315,-4.405539,0.00,0.00,0.00,2.10,0.30,168.40,0,1,0,92,100,-5922,3250,16313,2966.50,4,P-GPS,1,0,0,0,0,0,0,1621688885084,4114,4060,4049,4066,0,0,27,,,,,,,0,0,0,-21.00,3.00,1684.00,0.00,0.00,1694.00,6,142.00,0.00,2.34,0.00,0.00,0.00,0,,,100,100,0,2,0,0,0,2,0,,,,,0.0,0.0,0
55.937313,-4.405537,14.20,0.00,0.00,0.22,14.20,14.20,2.60,0.38,12293,2021-05-22 13:08:05.173,2021-05-22 14:08:05.173,17,0,0,16.298,55.937315,-4.405539,0.00,0.00,0.00,2.00,0.50,168.30,0,1,0,92,100,-6929,3248,16298,2966.50,4,P-GPS,1,0,0,0,0,0,0,1621688885173,4114,4060,4049,4066,0,0,27,,,,,,,0,0,0,-20.00,5.00,1683.00,0.00,0.00,1694.00,6,142.00,0.00,2.18,0.00,0.00,0.00,0,,,100,100,0,2,0,0,0,2,0,,,,,0.0,0.0,0
55.937313,-4.405537,14.20,0.00,0.00,0.21,14.20,14.20,2.60,0.38,12403,2021-05-22 13:08:05.283,2021-05-22 14:08:05.283,17,0,0,16.298,55.937315,-4.405539,0.00,0.00,0.00,1.90,0.60,168.20,0,1,0,92,100,-6929,3248,16298,2966.50,4,P-GPS,1,0,0,0,0,0,0,1621688885283,4114,4060,4049,4066,0,0,27,,,,,,,0,0,0,-19.00,6.00,1682.00,0.00,0.00,1694.00,6,142.00,0.00,2.13,0.00,0.00,0.00,0,,,100,100,0,2,0,0,0,2,0,,,,,0.0,0.0,0
55.937313,-4.405537,14.20,0.00,0.00,0.20,14.20,14.20,2.60,0.38,12503,2021-05-22 13:08:05.384,2021-05-22 14:08:05.384,17,0,0,16.298,55.937315,-4.405539,0.00,0.00,0.00,1.90,0.80,168.30,0,1,0,92,100,-6929,3248,16298,2966.50,4,P-GPS,1,0,0,0,0,0,0,1621688885383,4114,4060,4049,4066,0,0,27,,,,,,,0,0,0,-19.00,8.00,1683.00,0.00,0.00,1694.00,6,142.00,0.00,2.05,0.00,0.00,0.00,0,,,100,100,0,2,0,0,0,2,0,,,,,0.0,0.0,0
55.937313,-4.405537,14.20,0.00,0.00,0.20,14.20,14.20,2.60,0.38,12593,2021-05-22 13:08:05.473,2021-05-22 14:08:05.473,17,0,0,16.298,55.937315,-4.405539,0.00,0.00,0.00,1.80,0.80,168.30,0,1,0,92,100,-6929,3248,16298,2966.50,4,P-GPS,1,0,0,0,0,0,0,1621688885473,4114,4060,4049,4066,0,0,27,,,,,,,0,0,0,-18.00,8.00,1683.00,0.00,0.00,1694.00,6,142.00,0.00,2.01,0.00,0.00,0.00,0,,,100,100,0,2,0,0,0,2,0,,,,,0.0,0.0,0
55.937313,-4.405537,14.20,0.00,0.00,0.17,14.20,14.20,2.60,0.38,12702,2021-05-22 13:08:05.582,2021-05-22 14:08:05.582,17,0,0,16.298,55.937315,-4.405539,0.00,0.00,0.00,1.80,0.90,168.20,0,1,0,92,100,-6929,3248,16298,2966.50,4,P-GPS,1,0,0,0,0,0,0,1621688885582,4114,4060,4049,4066,0,0,27,,,,,,,0,0,0,-18.00,9.00,1682.00,0.00,0.00,1694.00,6,142.00,0.00,1.74,0.00,0.00,0.00,0,,,100,100,0,2,0,0,0,2,0,,,,,0.0,0.0,0
55.937313,-4.405537,14.20,0.00,0.00,0.17,14.20,14.20,2.60,0.38,12810,2021-05-22 13:08:05.690,2021-05-22 14:08:05.690,17,0,0,16.298,55.937315,-4.405539,0.00,0.00,0.00,1.90,0.90,168.20,0,1,0,92,100,-6929,3248,16298,2966.50,4,P-GPS,1,0,0,0,0,0,0,1621688885690,4114,4060,4049,4066,0,0,27,,,,,,,0,0,0,-19.00,9.00,1682.00,0.00,0.00,1694.00,6,142.00,0.00,1.68,0.00,0.00,0.00,0,,,100,100,0,2,0,0,0,2,0,,,,,0.0,0.0,0
55.937313,-4.405537,14.20,0.00,0.00,0.18,14.20,14.20,2.60,0.38,12902,2021-05-22 13:08:05.782,2021-05-22 14:08:05.782,17,0,0,16.298,55.937315,-4.405539,0.00,0.00,0.00,1.80,1.00,168.20,0,1,0,92,100,-6929,3248,16298,2966.50,4,P-GPS,1,0,0,0,0,0,0,1621688885782,4114,4060,4049,4066,0,0,27,,,,,,,0,0,0,-18.00,10.00,1682.00,0.00,0.00,1694.00,6,142.00,0.00,1.76,0.00,0.00,0.00,0,,,100,100,0,2,0,0,0,2,0,,,,,0.0,0.0,0
55.937313,-4.405537,14.20,0.00,0.00,0.17,14.20,14.20,2.60,0.38,13001,2021-05-22 13:08:05.881,2021-05-22 14:08:05.881,17,0,0,16.298,55.937315,-4.405539,0.00,0.00,0.00,1.70,1.30,168.10,0,1,0,92,100,-6929,3248,16298,2966.50,4,P-GPS,1,0,0,0,0,0,0,1621688885881,4114,4060,4049,4066,0,0,27,,,,,,,0,0,0,-17.00,13.00,1681.00,0.00,0.00,1694.00,6,142.00,0.00,1.73,0.00,0.00,0.00,0,,,100,100,0,2,0,0,0,2,0,,,,,0.0,0.0,0
55.937314,-4.405537,14.20,0.00,0.00,0.16,14.20,14.20,2.60,0.38,13089,2021-05-22 13:08:05.969,2021-05-22 14:08:05.969,17,0,0,16.298,55.937315,-4.405539,0.00,0.00,0.00,1.80,1.80,168.30,0,1,0,92,100,-6929,3248,16298,2966.50,4,P-GPS,1,0,0,0,0,0,0,1621688885969,4114,4060,4049,4066,0,0,27,,,,,,,0,0,0,-18.00,18.00,1683.00,0.00,0.00,1694.00,6,142.00,0.00,1.60,0.00,0.00,0.00,0,,,100,100,0,2,0,0,0,2,0,,,,,0.0,0.0,0
55.937314,-4.405537,14.20,0.00,0.00,0.16,14.20,14.20,2.60,0.38,13213,2021-05-22 13:08:06.093,2021-05-22 14:08:06.093,17,0,0,16.298,55.937315,-4.405539,0.00,0.00,0.00,1.80,1.80,168.40,0,1,0,92,100,-6929,3248,16298,2966.50,4,P-GPS,1,0,0,0,0,0,0,1621688886093,4114,4060,4049,4066,0,0,27,,,,,,,0,0,0,-18.00,18.00,1684.00,0.00,0.00,1694.00,6,142.00,0.00,1.55,0.00,0.00,0.00,0,,,100,100,0,2,0,0,0,2,0,,,,,0.0,0.0,0
55.937314,-4.405537,14.20,0.00,0.00,0.13,14.20,14.20,2.60,0.38,13409,2021-05-22 13:08:06.289,2021-05-22 14:08:06.289,17,0,0,16.286,55.937315,-4.405539,0.00,0.00,0.00,1.80,1.20,168.40,0,1,0,92,100,-6943,3246,16286,2966.50,4,P-GPS,1,0,0,0,0,0,0,1621688886289,4114,4060,4049,4066,0,0,27,,,,,,,0,0,0,-18.00,12.00,1684.00,0.00,0.00,1694.00,6,142.00,0.00,1.29,0.00,0.00,0.00,0,,,100,100,0,2,0,0,0,2,0,,,,,0.0,0.0,0
55.937314,-4.405537,14.20,0.00,0.00,0.14,14.20,14.20,2.60,0.38,13500,2021-05-22 13:08:06.380,2021-05-22 14:08:06.380,17,0,0,16.286,55.937315,-4.405539,0.00,0.00,0.00,1.90,0.80,168.40,0,1,0,92,100,-6943,3246,16286,2966.50,4,P-GPS,1,0,0,0,0,0,0,1621688886380,4114,4060,4049,4066,0,0,27,,,,,,,0,0,0,-19.00,8.00,1684.00,0.00,0.00,1694.00,6,142.00,0.00,1.38,0.00,0.00,0.00,0,,,100,100,0,2,0,0,0,2,0,,,,,0.0,0.0,0
55.937314,-4.405537,14.20,0.00,0.00,0.13,14.20,14.20,2.60,0.38,13605,2021-05-22 13:08:06.485,2021-05-22 14:08:06.485,17,0,0,16.286,55.937315,-4.405539,0.00,0.00,0.00,1.70,0.90,168.50,0,1,0,92,100,-6943,3246,16286,2966.50,4,P-GPS,1,0,0,0,0,0,0,1621688886485,4114,4060,4049,4066,0,0,27,,,,,,,0,0,0,-17.00,9.00,1685.00,0.00,0.00,1694.00,6,142.00,0.00,1.33,0.00,0.00,0.00,0,,,100,100,0,2,0,0,0,2,0,,,,,0.0,0.0,0
55.937314,-4.405537,14.20,0.00,0.00,0.14,14.20,14.20,2.60,0.38,13693,2021-05-22 13:08:06.573,2021-05-22 14:08:06.573,17,0,0,16.286,55.937315,-4.405539,0.00,0.00,0.00,1.50,1.20,168.30,0,1,0,92,100,-6943,3246,16286,2966.50,4,P-GPS,1,0,0,0,0,0,0,1621688886573,4114,4060,4049,4066,0,0,27,,,,,,,0,0,0,-15.00,12.00,1683.00,0.00,0.00,1694.00,6,142.00,0.00,1.39,0.00,0.00,0.00,0,,,100,100,0,2,0,0,0,2,0,,,,,0.0,0.0,0
55.937314,-4.405537,14.20,0.00,0.00,0.14,14.20,14.20,2.60,0.38,13807,2021-05-22 13:08:06.687,2021-05-22 14:08:06.687,17,0,0,16.286,55.937315,-4.405539,0.00,0.00,0.00,1.30,1.70,168.30,0,1,0,92,100,-6943,3246,16286,2966.50,4,P-GPS,1,0,0,0,0,0,0,1621688886687,4114,4060,4049,4066,0,0,27,,,,,,,0,0,0,-13.00,17.00,1683.00,0.00,0.00,1694.00,6,142.00,0.00,1.36,0.00,0.00,0.00,0,,,100,100,0,2,0,0,0,2,0,,,,,0.0,0.0,0
55.937314,-4.405537,14.20,0.00,0.00,0.13,14.20,14.20,2.60,0.38,13905,2021-05-22 13:08:06.785,2021-05-22 14:08:06.785,17,0,0,16.286,55.937315,-4.405539,0.00,0.00,0.00,1.10,2.00,168.10,0,1,0,92,100,-6943,3246,16286,2966.50,4,P-GPS,1,0,0,0,0,0,0,1621688886785,4114,4060,4049,4066,0,0,27,,,,,,,0,0,0,-11.00,20.00,1681.00,0.00,0.00,1694.00,6,142.00,0.00,1.29,0.00,0.00,0.00,0,,,100,100,0,2,0,0,0,2,0,,,,,0.0,0.0,0
55.937314,-4.405537,14.20,0.00,0.00,0.13,14.20,14.20,2.60,0.38,13995,2021-05-22 13:08:06.875,2021-05-22 14:08:06.875,17,0,0,16.286,55.937315,-4.405539,0.00,0.00,0.00,0.90,2.00,168.10,0,1,0,92,100,-6943,3246,16286,2966.50,4,P-GPS,1,0,0,0,0,0,0,1621688886875,4114,4060,4049,4066,0,0,27,,,,,,,0,0,0,-9.00,20.00,1681.00,0.00,0.00,1694.00,6,142.00,0.00,1.26,0.00,0.00,0.00,0,,,100,100,0,2,0,0,0,2,0,,,,,0.0,0.0,0
55.937314,-4.405537,14.20,0.00,0.00,0.13,14.20,14.20,2.60,0.38,14093,2021-05-22 13:08:06.973,2021-05-22 14:08:06.973,17,0,0,16.286,55.937315,-4.405539,0.00,0.00,0.00,0.90,2.00,168.10,0,1,0,92,100,-6943,3246,16286,2966.50,4,P-GPS,1,0,0,0,0,0,0,1621688886973,4110,4058,4050,4061,0,0,27,,,,,,,0,0,0,-9.00,20.00,1681.00,0.00,0.00,1694.00,6,142.00,0.00,1.28,0.00,0.00,0.00,0,,,100,100,0,2,0,0,0,2,0,,,,,0.0,0.0,0
55.937314,-4.405537,14.20,0.00,0.00,0.13,14.20,14.20,2.60,0.38,14201,2021-05-22 13:08:07.081,2021-05-22 14:08:07.081,17,0,0,16.286,55.937315,-4.405539,0.00,0.00,0.00,1.00,1.90,168.20,0,1,0,92,100,-6943,3246,16286,2966.50,4,P-GPS,1,0,0,0,0,0,0,1621688887081,4110,4058,4050,4061,0,0,27,,,,,,,0,0,0,-10.00,19.00,1682.00,0.00,0.00,1694.00,6,142.00,0.00,1.28,0.00,0.00,0.00,0,,,100,100,0,2,0,0,0,2,0,,,,,0.0,0.0,0
55.937314,-4.405537,14.20,0.00,0.00,0.12,14.20,14.20,2.60,0.38,14292,2021-05-22 13:08:07.172,2021-05-22 14:08:07.172,17,0,0,16.279,55.937315,-4.405539,0.00,0.00,0.00,1.20,1.90,168.20,0,1,0,92,100,-6861,3244,16279,2966.50,4,P-GPS,1,0,0,0,0,0,0,1621688887172,4110,4058,4050,4061,0,0,27,,,,,,,0,0,0,-12.00,19.00,1682.00,0.00,0.00,1694.00,6,142.00,0.00,1.25,0.00,0.00,0.00,0,,,100,100,0,2,0,0,0,2,0,,,,,0.0,0.0,0
55.937314,-4.405537,14.20,0.00,0.00,0.12,14.20,14.20,2.60,0.38,14404,2021-05-22 13:08:07.285,2021-05-22 14:08:07.284,17,0,0,16.279,55.937315,-4.405539,0.00,0.00,0.00,1.30,2.00,168.20,0,1,0,92,100,-6861,3244,16279,2966.50,4,P-GPS,1,0,0,0,0,0,0,1621688887284,4110,4058,4050,4061,0,0,27,,,,,,,0,0,0,-13.00,20.00,1682.00,0.00,0.00,1694.00,6,142.00,0.00,1.24,0.00,0.00,0.00,0,,,100,100,0,2,0,0,0,2,0,,,,,0.0,0.0,0
55.937314,-4.405537,14.20,0.00,0.00,0.13,14.20,14.20,2.60,0.38,14504,2021-05-22 13:08:07.384,2021-05-22 14:08:07.384,17,0,0,16.279,55.937315,-4.405539,0.00,0.00,0.00,1.40,1.90,168.20,0,1,0,92,100,-6861,3244,16279,2966.50,4,P-GPS,1,0,0,0,0,0,0,1621688887384,4110,4058,4050,4061,0,0,27,,,,,,,0,0,0,-14.00,19.00,1682.00,0.00,0.00,1694.00,6,142.00,0.00,1.30,0.00,0.00,0.00,0,,,100,100,0,2,0,0,0,2,0,,,,,0.0,0.0,0
55.937314,-4.405537,14.20,0.00,0.00,0.13,14.20,14.20,2.60,0.38,14595,2021-05-22 13:08:07.475,2021-05-22 14:08:07.475,17,0,0,16.279,55.937315,-4.405539,0.00,0.00,0.00,1.50,2.10,168.20,0,1,0,92,100,-6861,3244,16279,2966.50,4,P-GPS,1,0,0,0,0,0,0,1621688887475,4110,4058,4050,4061,0,0,27,,,,,,,0,0,0,-15.00,21.00,1682.00,0.00,0.00,1694.00,6,142.00,0.00,1.30,0.00,0.00,0.00,0,,,100,100,0,2,0,0,0,2,0,,,,,0.0,0.0,0
55.937315,-4.405537,14.20,0.00,0.00,0.13,14.20,14.20,2.60,0.38,14700,2021-05-22 13:08:07.581,2021-05-22 14:08:07.580,17,0,0,16.279,55.937315,-4.405539,0.00,0.00,0.00,1.40,2.30,168.30,0,1,0,92,100,-6861,3244,16279,2966.50,4,P-GPS,1,0,0,0,0,0,0,1621688887580,4110,4058,4050,4061,0,0,27,,,,,,,0,0,0,-14.00,23.00,1683.00,0.00,0.00,1694.00,6,142.00,0.00,1.27,0.00,0.00,0.00,0,,,100,100,0,2,0,0,0,2,0,,,,,0.0,0.0,0
55.937315,-4.405537,14.20,0.00,0.00,0.13,14.20,14.20,2.60,0.38,14803,2021-05-22 13:08:07.683,2021-05-22 14:08:07.683,17,0,0,16.279,55.937315,-4.405539,0.00,0.00,0.00,1.30,2.30,168.30,0,1,0,92,100,-6861,3244,16279,2966.50,4,P-GPS,1,0,0,0,0,0,0,1621688887683,4110,4058,4050,4061,0,0,27,,,,,,,0,0,0,-13.00,23.00,1683.00,0.00,0.00,1694.00,6,142.00,0.00,1.27,0.00,0.00,0.00,0,,,100,100,0,2,0,0,0,2,0,,,,,0.0,0.0,0
55.937314,-4.405537,14.20,0.00,0.00,0.13,14.20,14.20,2.60,0.38,14901,2021-05-22 13:08:07.782,2021-05-22 14:08:07.781,17,0,0,16.279,55.937315,-4.405539,0.00,0.00,0.00,1.20,2.20,168.30,0,1,0,92,100,-6861,3244,16279,2966.50,4,P-GPS,1,0,0,0,0,0,0,1621688887781,4110,4058,4050,4061,0,0,27,,,,,,,0,0,0,-12.00,22.00,1683.00,0.00,0.00,1694.00,6,142.00,0.00,1.25,0.00,0.00,0.00,0,,,100,100,0,2,0,0,0,2,0,,,,,0.0,0.0,0
55.937315,-4.405537,14.20,0.00,0.00,0.12,14.20,14.20,2.60,0.38,14994,2021-05-22 13:08:07.874,2021-05-22 14:08:07.874,17,0,0,16.279,55.937315,-4.405539,0.00,0.00,0.00,1.30,2.20,168.20,0,1,0,92,100,-6861,3244,16279,2966.50,4,P-GPS,1,0,0,0,0,0,0,1621688887874,4110,4058,4050,4061,0,0,27,,,,,,,0,0,0,-13.00,22.00,1682.00,0.00,0.00,1694.00,6,142.00,0.00,1.24,0.00,0.00,0.00,0,,,100,100,0,2,0,0,0,2,0,,,,,0.0,0.0,0
