latitude,longitude,altitude(m),ultrasonicHeight(m),speed(mps),distance(m),max_altitude(m),max_ascent(m),max_speed(mps),max_distance(m),time(millisecond),datetime(utc),datetime(local),satellites,pressure(Pa),temperature(F),voltage(v),home_latitude,home_longitude,velocityX(mps),velocityY(mps),velocityZ(mps),pitch(deg),roll(deg),yaw(deg),powerlevel,isflying,istakingphoto,remainPowerPercent,remainLifePercent,currentCurrent,currentElectricity,currentVoltage,batteryTemperature,dischargeCount,flightmode,isMotorsOn,isTakingVideo,Rc_elevator,Rc_aileron,Rc_throttle,Rc_rudder,Rc_gyro,timestamp,Battery_Cell1,Battery_Cell2,Battery_Cell3,Battery_Cell4,Battery_Cell5,Battery_Cell6,Dronetype,AppVersion,Planename,FlyControllerSerialNumber,RemoteSerialNumber,BatterySerialNumber,CENTER_BATTERY.productDate,CENTER_BATTERY.serialNo,CENTER_BATTERY.fullCapacity,CENTER_BATTERY.productDateRaw,pitchRaw,rollRaw,yawRaw,gimbalPitchRaw,gimbalRollRaw,gimbalYawRaw,flyState,altitudeRaw,speedRaw,distanceRaw,velocityXRaw,velocityYRaw,velocityZRaw,data_reuse,App_Tip,App_Warning,downlinkSignalQuality,uplinkSignalQuality,transmissionChannel,rcModeSwitch,rcHome,rcPause,rcTransform,rcJoystickMode,appMode,FlyControllerSerialNumber_legacy,RemoteSerialNumber_legacy,BatterySerialNumber_legacy,Battery2SerialNumber,frontAvoidDist,backAvoidDist,isBrakingToAvoid
55.941084,-4.404966,50.10,0.00,0.00,86.66,50.10,50.10,0.00,86.66,0,2021-05-02 10:54:31.310,2021-05-02 11:54:31.310,17,0,0,14.694,55.940871,-4.406299,0.00,0.00,0.00,1.10,1.70,-175.90,0,1,0,31,0,-7595,1056,14694,2731.50,4,P-GPS,1,0,0,0,0,0,0,1619952871310,0,0,0,0,0,0,27,Litchi_4.18.0-g,,,,null,,0,0,0,-11.00,17.00,-1759.00,-627.00,0.00,-1628.00,6,501.00,0.00,866.63,0.00,0.00,0.00,0,,,100,100,0,2,0,0,0,2,0,,,,null,0.0,0.0,0
55.941084,-4.404965,50.00,0.00,0.00,86.67,50.10,50.10,0.00,86.67,168,2021-05-02 10:54:31.479,2021-05-02 11:54:31.478,17,0,0,14.694,55.940871,-4.406299,0.00,0.00,0.00,1.30,1.30,-175.70,0,1,0,31,0,-7595,1056,14694,2731.50,4,P-GPS,1,0,0,0,0,0,0,1619952871478,0,0,0,0,0,0,27,Litchi_4.18.0-g,,,,null,,0,0,0,-13.00,13.00,-1757.00,-627.00,0.00,-1628.00,6,500.00,0.00,866.66,0.00,0.00,0.00,0,,,100,100,0,2,0,0,0,2,0,,,,null,0.0,0.0,0
55.941084,-4.404965,50.00,0.00,0.00,86.67,50.10,50.10,0.00,86.67,269,2021-05-02 10:54:31.580,2021-05-02 11:54:31.579,17,0,0,14.694,55.940871,-4.406299,0.00,0.00,0.00,1.30,1.10,-175.90,0,1,0,31,0,-7595,1056,14694,2731.50,4,P-GPS,1,0,0,0,0,0,0,1619952871579,0,0,0,0,0,0,27,Litchi_4.18.0-g,,,,null,,0,0,0,-13.00,11.00,-1759.00,-627.00,0.00,-1628.00,6,500.00,0.00,866.72,0.00,0.00,0.00,0,,,100,100,0,2,0,0,0,2,0,,,,null,0.0,0.0,0
55.941084,-4.404965,50.10,0.00,0.00,86.67,50.10,50.10,0.00,86.67,376,2021-05-02 10:54:31.686,2021-05-02 11:54:31.686,17,0,0,14.694,55.940871,-4.406299,0.00,0.00,0.00,1.30,1.80,-175.90,0,1,0,31,0,-7595,1056,14694,2731.50,4,P-GPS,1,0,0,0,0,0,0,1619952871686,0,0,0,0,0,0,27,Litchi_4.18.0-g,CJTMAVIC,163DFAS001K45C,0VECFAK0072T52,0P2AFAL5340E87,,0,0,0,-13.00,18.00,-1759.00,-627.00,0.00,-1628.00,6,501.00,0.00,866.75,0.00,0.00,0.00,0,,,100,100,0,2,0,0,0,2,0,,,,null,0.0,0.0,0
55.941084,-4.404965,50.00,0.00,0.00,86.68,50.10,50.10,0.00,86.68,462,2021-05-02 10:54:31.772,2021-05-02 11:54:31.772,17,0,0,14.694,55.940871,-4.406299,0.00,0.00,0.00,1.50,2.00,-175.80,0,1,0,31,0,-7595,1056,14694,2731.50,4,P-GPS,1,0,0,0,0,0,0,1619952871772,0,0,0,0,0,0,27,,,,,,,0,0,0,-15.00,20.00,-1758.00,-627.00,0.00,-1628.00,6,500.00,0.00,866.77,0.00,0.00,0.00,0,,,100,100,0,2,0,0,0,2,0,,,,,0.0,0.0,0
55.941084,-4.404965,50.10,0.00,0.00,86.68,50.10,50.10,0.00,86.68,562,2021-05-02 10:54:31.872,2021-05-02 11:54:31.872,17,0,0,14.694,55.940871,-4.406299,0.00,0.00,0.00,1.80,1.70,-175.70,0,1,0,31,0,-7595,1056,14694,2731.50,4,P-GPS,1,0,0,0,0,0,0,1619952871872,0,0,0,0,0,0,27,,,,,,,0,0,0,-18.00,17.00,-1757.00,-627.00,0.00,-1628.00,6,501.00,0.00,866.77,0.00,0.00,0.00,0,,,100,100,0,2,0,0,0,2,0,,,,,0.0,0.0,0
55.941084,-4.404965,50.10,0.00,0.00,86.68,50.10,50.10,0.00,86.68,661,2021-05-02 10:54:31.972,2021-05-02 11:54:31.971,17,0,0,14.694,55.940871,-4.406299,0.00,0.00,0.00,1.90,1.40,-175.70,0,1,0,31,0,-7595,1056,14694,2731.50,4,P-GPS,1,0,0,0,0,0,0,1619952871971,0,0,0,0,0,0,27,,,,,,,0,0,0,-19.00,14.00,-1757.00,-627.00,0.00,-1628.00,6,501.00,0.00,866.78,0.00,0.00,0.00,0,,,100,100,0,2,0,0,0,2,0,,,,,0.0,0.0,0
55.941084,-4.404965,50.10,0.00,0.00,86.68,50.10,50.10,0.00,86.68,764,2021-05-02 10:54:32.074,2021-05-02 11:54:32.074,17,0,0,14.694,55.940871,-4.406299,0.00,0.00,0.00,2.00,1.00,-175.70,0,1,0,31,0,-7595,1056,14694,2731.50,4,P-GPS,1,0,0,0,0,0,0,1619952872074,0,0,0,0,0,0,27,,,,,,,0,0,0,-20.00,10.00,-1757.00,-627.00,0.00,-1628.00,6,501.00,0.00,866.77,0.00,0.00,0.00,0,,,100,100,0,2,0,0,0,2,0,,,,,0.0,0.0,0
55.941084,-4.404965,50.10,0.00,0.00,86.69,50.10,50.10,0.00,86.69,866,2021-05-02 10:54:32.176,2021-05-02 11:54:32.176,17,0,0,14.694,55.940871,-4.406299,0.00,0.00,0.00,1.90,1.00,-175.70,0,1,0,31,0,-7595,1056,14694,2731.50,4,P-GPS,1,0,0,0,0,0,0,1619952872176,0,0,0,0,0,0,27,,,,,,,0,0,0,-19.00,10.00,-1757.00,-627.00,0.00,-1628.00,6,501.00,0.00,866.87,0.00,0.00,0.00,0,,,100,100,0,2,0,0,0,2,0,,,,,0.0,0.0,0
55.941084,-4.404965,50.00,0.00,0.00,86.69,50.10,50.10,0.00,86.69,961,2021-05-02 10:54:32.271,2021-05-02 11:54:32.271,17,0,0,14.694,55.940871,-4.406299,0.00,0.00,0.00,1.70,1.30,-175.70,0,1,0,31,0,-7595,1056,14694,2731.50,4,P-GPS,1,0,0,0,0,0,0,1619952872271,0,0,0,0,0,0,27,,,,,,,0,0,0,-17.00,13.00,-1757.00,-627.00,0.00,-1628.00,6,500.00,0.00,866.89,0.00,0.00,0.00,0,,,100,100,0,2,0,0,0,2,0,,,,,0.0,0.0,0
55.941084,-4.404965,50.00,0.00,0.00,86.70,50.10,50.10,0.00,86.70,1071,2021-05-02 10:54:32.381,2021-05-02 11:54:32.381,17,0,0,14.687,55.940871,-4.406299,0.00,0.00,0.00,1.60,1.60,-175.70,0,1,0,31,100,-7595,1054,14687,3096.50,4,P-GPS,1,0,0,0,0,0,0,1619952872381,0,0,0,0,0,0,27,,,,,,,0,0,0,-16.00,16.00,-1757.00,-627.00,0.00,-1628.00,6,500.00,0.00,866.96,0.00,0.00,0.00,0,,,100,100,0,2,0,0,0,2,0,,,,,0.0,0.0,0
55.941084,-4.404965,50.00,0.00,0.00,86.70,50.10,50.10,0.00,86.70,1164,2021-05-02 10:54:32.475,2021-05-02 11:54:32.474,17,0,0,14.687,55.940871,-4.406299,0.00,0.00,0.00,1.40,1.80,-175.70,0,1,0,31,100,-7595,1054,14687,3096.50,4,P-GPS,1,0,0,0,0,0,0,1619952872474,0,0,0,0,0,0,27,,,,,,,0,0,0,-14.00,18.00,-1757.00,-627.00,0.00,-1628.00,6,500.00,0.00,867.00,0.00,0.00,0.00,0,,,100,100,0,2,0,0,0,2,0,,,,,0.0,0.0,0
55.941084,-4.404965,50.00,0.00,0.00,86.70,50.10,50.10,0.00,86.70,1263,2021-05-02 10:54:32.573,2021-05-02 11:54:32.573,17,0,0,14.687,55.940871,-4.406299,0.00,0.00,0.00,1.30,1.70,-175.70,0,1,0,31,100,-7595,1054,14687,3096.50,4,P-GPS,1,0,0,0,0,0,0,1619952872573,0,0,0,0,0,0,27,,,,,,,0,0,0,-13.00,17.00,-1757.00,-627.00,0.00,-1628.00,6,500.00,0.00,867.04,0.00,0.00,0.00,0,,,100,100,0,2,0,0,0,2,0,,,,,0.0,0.0,0
55.941084,-4.404965,50.00,0.00,0.00,86.71,50.10,50.10,0.00,86.71,1369,2021-05-02 10:54:32.679,2021-05-02 11:54:32.679,17,0,0,14.687,55.940871,-4.406299,0.00,0.00,0.00,1.40,1.60,-175.70,0,1,0,31,100,-7595,1054,14687,3096.50,4,P-GPS,1,0,0,0,0,0,0,1619952872679,0,0,0,0,0,0,27,,,,,,,0,0,0,-14.00,16.00,-1757.00,-627.00,0.00,-1628.00,6,500.00,0.00,867.07,0.00,0.00,0.00,0,,,100,100,0,2,0,0,0,2,0,,,,,0.0,0.0,0
55.941084,-4.404964,50.00,0.00,0.00,86.72,50.10,50.10,0.00,86.72,1462,2021-05-02 10:54:32.772,2021-05-02 11:54:32.772,17,0,0,14.687,55.940871,-4.406299,0.00,0.00,0.00,1.40,1.50,-175.70,0,1,0,31,100,-7595,1054,14687,3096.50,4,P-GPS,1,0,0,0,0,0,0,1619952872772,0,0,0,0,0,0,27,,,,,,,0,0,0,-14.00,15.00,-1757.00,-627.00,0.00,-1628.00,6,500.00,0.00,867.18,0.00,0.00,0.00,0,,,100,100,0,2,0,0,0,2,0,,,,,0.0,0.0,0
55.941084,-4.404964,50.00,0.00,0.00,86.72,50.10,50.10,0.00,86.72,1574,2021-05-02 10:54:32.884,2021-05-02 11:54:32.884,17,0,0,14.687,55.940871,-4.406299,0.00,0.00,0.00,1.30,1.50,-175.80,0,1,0,31,100,-7595,1054,14687,3096.50,4,P-GPS,1,0,0,0,0,0,0,1619952872884,0,0,0,0,0,0,27,,,,,,,0,0,0,-13.00,15.00,-1758.00,-627.00,0.00,-1628.00,6,500.00,0.00,867.22,0.00,0.00,0.00,0,,,100,100,0,2,0,0,0,2,0,,,,,0.0,0.0,0
55.941084,-4.404964,50.00,0.00,0.00,86.72,50.10,50.10,0.00,86.72,1662,2021-05-02 10:54:32.972,2021-05-02 11:54:32.972,17,0,0,14.687,55.940871,-4.406299,0.00,0.00,0.00,1.30,1.60,-175.80,0,1,0,31,100,-7595,1054,14687,3096.50,4,P-GPS,1,0,0,0,0,0,0,1619952872972,0,0,0,0,0,0,27,,,,,,,0,0,0,-13.00,16.00,-1758.00,-627.00,0.00,-1628.00,6,500.00,0.00,867.23,0.00,0.00,0.00,0,,,100,100,0,2,0,0,0,2,0,,,,,0.0,0.0,0
55.941084,-4.404964,50.00,0.00,0.00,86.73,50.10,50.10,0.00,86.73,1765,2021-05-02 10:54:33.075,2021-05-02 11:54:33.075,17,0,0,14.687,55.940871,-4.406299,0.00,0.00,0.00,1.40,1.80,-175.90,0,1,0,31,100,-7595,1054,14687,3096.50,4,P-GPS,1,0,0,0,0,0,0,1619952873075,0,0,0,0,0,0,27,,,,,,,0,0,0,-14.00,18.00,-1759.00,-627.00,0.00,-1628.00,6,500.00,0.00,867.27,0.00,0.00,0.00,0,,,100,100,0,2,0,0,0,2,0,,,,,0.0,0.0,0
55.941084,-4.404964,50.00,0.00,0.00,86.74,50.10,50.10,0.00,86.74,1862,2021-05-02 10:54:33.172,2021-05-02 11:54:33.172,17,0,0,14.687,55.940871,-4.406299,0.00,0.00,0.00,1.40,2.10,-175.90,0,1,0,31,100,-7595,1054,14687,3096.50,4,P-GPS,1,0,0,0,0,0,0,1619952873172,0,0,0,0,0,0,27,,,,,,,0,0,0,-14.00,21.00,-1759.00,-627.00,0.00,-1628.00,6,500.00,0.00,867.38,0.00,0.00,0.00,0,,,100,100,0,2,0,0,0,2,0,,,,,0.0,0.0,0
55.941084,-4.404964,50.00,0.00,0.00,86.74,50.10,50.10,0.00,86.74,1962,2021-05-02 10:54:33.272,2021-05-02 11:54:33.272,17,0,0,14.687,55.940871,-4.406299,0.00,0.00,0.00,1.50,2.30,-175.80,0,1,0,31,100,-7595,1054,14687,3096.50,4,P-GPS,1,0,0,0,0,0,0,1619952873272,0,0,0,0,0,0,27,,,,,,,0,0,0,-15.00,23.00,-1758.00,-627.00,0.00,-1628.00,6,500.00,0.00,867.42,0.00,0.00,0.00,0,,,100,100,0,2,0,0,0,2,0,,,,,0.0,0.0,0
55.941084,-4.404964,50.00,0.00,0.00,86.74,50.10,50.10,0.00,86.74,2068,2021-05-02 10:54:33.378,2021-05-02 11:54:33.378,17,0,0,14.692,55.940871,-4.406299,0.00,0.00,0.00,1.60,2.00,-175.80,0,1,0,31,100,-7541,1052,14692,3096.50,4,P-GPS,1,0,0,0,0,0,0,1619952873378,0,0,0,0,0,0,27,,,,,,,0,0,0,-16.00,20.00,-1758.00,-627.00,0.00,-1628.00,6,500.00,0.00,867.45,0.00,0.00,0.00,0,,,100,100,0,2,0,0,0,2,0,,,,,0.0,0.0,0
55.941084,-4.404964,50.00,0.00,0.00,86.75,50.10,50.10,0.00,86.75,2162,2021-05-02 10:54:33.472,2021-05-02 11:54:33.472,17,0,0,14.692,55.940871,-4.406299,0.00,0.00,0.00,1.80,1.70,-175.70,0,1,0,31,100,-7541,1052,14692,3096.50,4,P-GPS,1,0,0,0,0,0,0,1619952873472,0,0,0,0,0,0,27,,,,,,,0,0,0,-18.00,17.00,-1757.00,-627.00,0.00,-1628.00,6,500.00,0.00,867.47,0.00,0.00,0.00,0,,,100,100,0,2,0,0,0,2,0,,,,,0.0,0.0,0
55.941084,-4.404964,50.00,0.00,0.00,86.74,50.10,50.10,0.00,86.75,2263,2021-05-02 10:54:33.573,2021-05-02 11:54:33.573,17,0,0,14.692,55.940871,-4.406299,0.00,0.00,0.00,2.00,1.50,-175.70,0,1,0,31,100,-7541,1052,14692,3096.50,4,P-GPS,1,0,0,0,0,0,0,1619952873573,0,0,0,0,0,0,27,,,,,,,0,0,0,-20.00,15.00,-1757.00,-627.00,0.00,-1628.00,6,500.00,0.00,867.44,0.00,0.00,0.00,0,,,100,100,0,2,0,0,0,2,0,,,,,0.0,0.0,0
55.941084,-4.404964,50.00,0.00,0.00,86.75,50.10,50.10,0.00,86.75,2363,2021-05-02 10:54:33.673,2021-05-02 11:54:33.673,17,0,0,14.692,55.940871,-4.406299,0.00,0.00,0.00,1.90,1.40,-175.80,0,1,0,31,100,-7541,1052,14692,3096.50,4,P-GPS,1,0,0,0,0,0,0,1619952873673,0,0,0,0,0,0,27,,,,,,,0,0,0,-19.00,14.00,-1758.00,-627.00,0.00,-1628.00,6,500.00,0.00,867.47,0.00,0.00,0.00,0,,,100,100,0,2,0,0,0,2,0,,,,,0.0,0.0,0
55.941083,-4.404964,50.00,0.00,0.00,86.75,50.10,50.10,0.00,86.75,2461,2021-05-02 10:54:33.771,2021-05-02 11:54:33.771,17,0,0,14.692,55.940871,-4.406299,0.00,0.00,0.00,1.80,1.90,-175.70,0,1,0,31,100,-7541,1052,14692,3096.50,4,P-GPS,1,0,0,0,0,0,0,1619952873771,0,0,0,0,0,0,27,,,,,,,0,0,0,-18.00,19.00,-1757.00,-627.00,0.00,-1628.00,6,500.00,0.00,867.49,0.00,0.00,0.00,0,,,100,100,0,2,0,0,0,2,0,,,,,0.0,0.0,0
55.941083,-4.404964,50.10,0.00,0.00,86.76,50.10,50.10,0.00,86.76,2564,2021-05-02 10:54:33.874,2021-05-02 11:54:33.874,17,0,0,14.692,55.940871,-4.406299,0.00,0.00,0.00,1.30,2.40,-175.80,0,1,0,31,100,-7541,1052,14692,3096.50,4,P-GPS,1,0,0,0,0,0,0,1619952873874,0,0,0,0,0,0,27,,,,,,,0,0,0,-13.00,24.00,-1758.00,-627.00,0.00,-1628.00,6,501.00,0.00,867.55,0.00,0.00,0.00,0,,,100,100,0,2,0,0,0,2,0,,,,,0.0,0.0,0
55.941083,-4.404964,50.10,0.00,0.00,86.76,50.10,50.10,0.00,86.76,2662,2021-05-02 10:54:33.972,2021-05-02 11:54:33.972,17,0,0,14.692,55.940871,-4.406299,0.00,0.00,0.00,1.10,2.60,-175.90,0,1,0,31,100,-7541,1052,14692,3096.50,4,P-GPS,1,0,0,0,0,0,0,1619952873972,0,0,0,0,0,0,27,,,,,,,0,0,0,-11.00,26.00,-1759.00,-627.00,0.00,-1628.00,6,501.00,0.00,867.62,0.00,0.00,0.00,0,,,100,100,0,2,0,0,0,2,0,,,,,0.0,0.0,0
55.941083,-4.404963,50.10,0.00,0.00,86.77,50.10,50.10,0.00,86.77,2766,2021-05-02 10:54:34.076,2021-05-02 11:54:34.076,17,0,0,14.692,55.940871,-4.406299,0.00,0.00,0.00,1.60,2.40,-175.90,0,1,0,31,100,-7541,1052,14692,3096.50,4,P-GPS,1,0,0,0,0,0,0,1619952874076,3682,3682,3673,3655,0,0,27,,,,,,,0,0,0,-16.00,24.00,-1759.00,-627.00,0.00,-1628.00,6,501.00,0.00,867.69,0.00,0.00,0.00,0,,,100,100,0,2,0,0,0,2,0,,,,,0.0,0.0,0
55.941083,-4.404963,50.10,0.00,0.00,86.77,50.10,50.10,0.00,86.77,2863,2021-05-02 10:54:34.173,2021-05-02 11:54:34.173,17,0,0,14.692,55.940871,-4.406299,0.00,0.00,0.00,1.40,2.30,-175.90,0,1,0,31,100,-7541,1052,14692,3096.50,4,P-GPS,1,0,0,0,0,0,0,1619952874173,3682,3682,3673,3655,0,0,27,,,,,,,0,0,0,-14.00,23.00,-1759.00,-627.00,0.00,-1628.00,6,501.00,0.00,867.72,0.00,0.00,0.00,0,,,100,100,0,2,0,0,0,2,0,,,,,0.0,0.0,0
55.941083,-4.404963,50.10,0.00,0.00,86.78,50.10,50.10,0.00,86.78,2964,2021-05-02 10:54:34.275,2021-05-02 11:54:34.274,17,0,0,14.692,55.940871,-4.406299,0.00,0.00,0.00,1.10,2.60,-175.90,0,1,0,31,100,-7541,1052,14692,3096.50,4,P-GPS,1,0,0,0,0,0,0,1619952874274,3682,3682,3673,3655,0,0,27,,,,,,,0,0,0,-11.00,26.00,-1759.00,-627.00,0.00,-1628.00,6,501.00,0.00,867.81,0.00,0.00,0.00,0,,,100,100,0,2,0,0,0,2,0,,,,,0.0,0.0,0
55.941083,-4.404963,50.00,0.00,0.00,86.79,50.10,50.10,0.00,86.79,3066,2021-05-02 10:54:34.376,2021-05-02 11:54:34.376,16,0,0,14.692,55.940871,-4.406299,0.00,0.00,0.00,0.90,3.10,-175.90,0,1,0,31,100,-7600,1050,14692,3096.50,4,P-GPS,1,0,0,0,0,0,0,1619952874376,3682,3682,3673,3655,0,0,27,,,,,,,0,0,0,-9.00,31.00,-1759.00,-627.00,0.00,-1628.00,6,500.00,0.00,867.89,0.00,0.00,0.00,0,,,100,100,0,2,0,0,0,2,0,,,,,0.0,0.0,0
55.941083,-4.404963,50.10,0.00,0.00,86.80,50.10,50.10,0.00,86.80,3163,2021-05-02 10:54:34.473,2021-05-02 11:54:34.473,16,0,0,14.692,55.940871,-4.406299,0.00,0.00,0.00,0.60,3.70,-176.10,0,1,0,31,100,-7600,1050,14692,3096.50,4,P-GPS,1,0,0,0,0,0,0,1619952874473,3682,3682,3673,3655,0,0,27,,,,,,,0,0,0,-6.00,37.00,-1761.00,-627.00,0.00,-1628.00,6,501.00,0.00,867.98,0.00,0.00,0.00,0,,,100,100,0,2,0,0,0,2,0,,,,,0.0,0.0,0
55.941083,-4.404963,50.10,0.00,0.00,86.81,50.10,50.10,0.00,86.81,3262,2021-05-02 10:54:34.572,2021-05-02 11:54:34.572,16,0,0,14.692,55.940871,-4.406299,0.00,0.00,0.00,0.80,3.70,-176.20,0,1,0,31,100,-7600,1050,14692,3096.50,4,P-GPS,1,0,0,0,0,0,0,1619952874572,3682,3682,3673,3655,0,0,27,,,,,,,0,0,0,-8.00,37.00,-1762.00,-627.00,0.00,-1628.00,6,501.00,0.00,868.08,0.00,0.00,0.00,0,,,100,100,0,2,0,0,0,2,0,,,,,0.0,0.0,0
55.941083,-4.404962,50.10,0.00,0.00,86.81,50.10,50.10,0.00,86.81,3370,2021-05-02 10:54:34.680,2021-05-02 11:54:34.680,16,0,0,14.692,55.940871,-4.406299,0.00,0.00,0.00,1.20,3.40,-176.20,0,1,0,31,100,-7600,1050,14692,3096.50,4,P-GPS,1,0,0,0,0,0,0,1619952874680,3682,3682,3673,3655,0,0,27,,,,,,,0,0,0,-12.00,34.00,-1762.00,-627.00,0.00,-1628.00,6,501.00,0.00,868.15,0.00,0.00,0.00,0,,,100,100,0,2,0,0,0,2,0,,,,,0.0,0.0,0
55.941083,-4.404962,50.10,0.00,0.00,86.81,50.10,50.10,0.00,86.81,3461,2021-05-02 10:54:34.771,2021-05-02 11:54:34.771,16,0,0,14.692,55.940871,-4.406299,0.00,0.00,0.00,0.60,3.70,-176.20,0,1,0,31,100,-7600,1050,14692,3096.50,4,P-GPS,1,0,0,0,0,0,0,1619952874771,3682,3682,3673,3655,0,0,27,,,,,,,0,0,0,-6.00,37.00,-1762.00,-627.00,0.00,-1628.00,6,501.00,0.00,868.15,0.00,0.00,0.00,0,,,100,100,0,2,0,0,0,2,0,,,,,0.0,0.0,0
55.941083,-4.404962,50.10,0.00,0.00,86.82,50.10,50.10,0.00,86.82,3565,2021-05-02 10:54:34.875,2021-05-02 11:54:34.875,16,0,0,14.692,55.940871,-4.406299,0.00,0.00,0.00,0.90,3.70,-176.20,0,1,0,31,100,-7600,1050,14692,3096.50,4,P-GPS,1,0,0,0,0,0,0,1619952874875,3682,3682,3673,3655,0,0,27,,,,,,,0,0,0,-9.00,37.00,-1762.00,-627.00,0.00,-1628.00,6,501.00,0.00,868.18,0.00,0.00,0.00,0,,,100,100,0,2,0,0,0,2,0,,,,,0.0,0.0,0
55.941083,-4.404962,50.10,0.00,0.00,86.82,50.10,50.10,0.00,86.82,3663,2021-05-02 10:54:34.974,2021-05-02 11:54:34.974,16,0,0,14.692,55.940871,-4.406299,0.00,0.00,0.00,1.40,3.30,-176.30,0,1,0,31,100,-7600,1050,14692,3096.50,4,P-GPS,1,0,0,0,0,0,0,1619952874973,3682,3682,3673,3655,0,0,27,,,,,,,0,0,0,-14.00,33.00,-1763.00,-627.00,0.00,-1628.00,6,501.00,0.00,868.22,0.00,0.00,0.00,0,,,100,100,0,2,0,0,0,2,0,,,,,0.0,0.0,0
55.941083,-4.404962,50.10,0.00,0.00,86.82,50.10,50.10,0.00,86.82,3765,2021-05-02 10:54:35.076,2021-05-02 11:54:35.075,16,0,0,14.692,55.940871,-4.406299,0.00,0.00,0.00,1.40,3.20,-176.20,0,1,0,31,100,-7600,1050,14692,3096.50,4,P-GPS,1,0,0,0,0,0,0,1619952875075,3682,3682,3673,3655,0,0,27,,,,,,,0,0,0,-14.00,32.00,-1762.00,-627.00,0.00,-1628.00,6,501.00,0.00,868.23,0.00,0.00,0.00,0,,,100,100,0,2,0,0,0,2,0,,,,,0.0,0.0,0
55.941083,-4.404962,50.10,0.00,0.00,86.82,50.10,50.10,0.00,86.82,3865,2021-05-02 10:54:35.175,2021-05-02 11:54:35.175,16,0,0,14.692,55.940871,-4.406299,0.00,0.00,0.00,1.60,3.10,-176.10,0,1,0,31,100,-7600,1050,14692,3096.50,4,P-GPS,1,0,0,0,0,0,0,1619952875175,3682,3682,3673,3655,0,0,27,,,,,,,0,0,0,-16.00,31.00,-1761.00,-627.00,0.00,-1628.00,6,501.00,0.00,868.15,0.00,0.00,0.00,0,,,100,100,0,2,0,0,0,2,0,,,,,0.0,0.0,0
55.941083,-4.404962,50.10,0.00,0.00,86.81,50.10,50.10,0.00,86.82,3964,2021-05-02 10:54:35.274,2021-05-02 11:54:35.274,16,0,0,14.692,55.940871,-4.406299,0.00,0.00,0.00,1.70,2.60,-176.20,0,1,0,31,100,-7600,1050,14692,3096.50,4,P-GPS,1,0,0,0,0,0,0,1619952875274,3682,3682,3673,3655,0,0,27,,,,,,,0,0,0,-17.00,26.00,-1762.00,-627.00,0.00,-1628.00,6,501.00,0.00,868.14,0.00,0.00,0.00,0,,,100,100,0,2,0,0,0,2,0,,,,,0.0,0.0,0
55.941083,-4.404962,50.10,0.00,0.00,86.81,50.10,50.10,0.00,86.82,4063,2021-05-02 10:54:35.373,2021-05-02 11:54:35.373,16,0,0,14.692,55.940871,-4.406299,0.00,0.00,0.00,1.50,2.70,-176.10,0,1,0,31,100,-7600,1050,14692,3096.50,4,P-GPS,1,0,0,0,0,0,0,1619952875373,3682,3682,3673,3655,0,0,27,,,,,,,0,0,0,-15.00,27.00,-1761.00,-627.00,0.00,-1628.00,6,501.00,0.00,868.13,0.00,0.00,0.00,0,,,100,100,0,2,0,0,0,2,0,,,,,0.0,0.0,0
55.941083,-4.404962,50.10,0.00,0.00,86.81,50.10,50.10,0.00,86.82,4165,2021-05-02 10:54:35.475,2021-05-02 11:54:35.475,16,0,0,14.692,55.940871,-4.406299,0.00,0.00,0.00,1.40,2.80,-176.10,0,1,0,31,100,-7600,1050,14692,3096.50,4,P-GPS,1,0,0,0,0,0,0,1619952875475,3682,3682,3673,3655,0,0,27,,,,,,,0,0,0,-14.00,28.00,-1761.00,-627.00,0.00,-1628.00,6,501.00,0.00,868.12,0.00,0.00,0.00,0,,,100,100,0,2,0,0,0,2,0,,,,,0.0,0.0,0
55.941083,-4.404962,50.10,0.00,0.00,86.81,50.10,50.10,0.00,86.82,4271,2021-05-02 10:54:35.581,2021-05-02 11:54:35.581,16,0,0,14.692,55.940871,-4.406299,0.00,0.00,0.00,1.80,2.50,-176.00,0,1,0,31,100,-7600,1050,14692,3096.50,4,P-GPS,1,0,0,0,0,0,0,1619952875581,3682,3682,3673,3655,0,0,27,,,,,,,0,0,0,-18.00,25.00,-1760.00,-627.00,0.00,-1628.00,6,501.00,0.00,868.08,0.00,0.00,0.00,0,,,100,100,0,2,0,0,0,2,0,,,,,0.0,0.0,0
55.941083,-4.404962,50.10,0.00,0.00,86.81,50.10,50.10,0.00,86.82,4379,2021-05-02 10:54:35.690,2021-05-02 11:54:35.689,16,0,0,14.692,55.940871,-4.406299,0.00,0.00,0.00,1.50,2.70,-176.10,0,1,0,31,100,-7600,1050,14692,3096.50,4,P-GPS,1,0,0,0,0,0,0,1619952875689,3682,3682,3673,3655,0,0,27,,,,,,,0,0,0,-15.00,27.00,-1761.00,-627.00,0.00,-1628.00,6,501.00,0.00,868.05,0.00,0.00,0.00,0,,,100,100,0,2,0,0,0,2,0,,,,,0.0,0.0,0
55.941083,-4.404962,50.10,0.00,0.00,86.80,50.10,50.10,0.00,86.82,4570,2021-05-02 10:54:35.880,2021-05-02 11:54:35.880,16,0,0,14.692,55.940871,-4.406299,0.00,0.00,0.00,2.10,2.10,-176.10,0,1,0,31,100,-7600,1050,14692,3096.50,4,P-GPS,1,0,0,0,0,0,0,1619952875880,3682,3682,3673,3655,0,0,27,,,,,,,0,0,0,-21.00,21.00,-1761.00,-627.00,0.00,-1628.00,6,501.00,0.00,867.99,0.00,0.00,0.00,0,,,100,100,0,2,0,0,0,2,0,,,,,0.0,0.0,0
55.941083,-4.404962,50.10,0.00,0.00,86.80,50.10,50.10,0.00,86.82,4681,2021-05-02 10:54:35.991,2021-05-02 11:54:35.991,16,0,0,14.692,55.940871,-4.406299,0.00,0.00,0.00,2.00,2.10,-176.10,0,1,0,31,100,-7600,1050,14692,3096.50,4,P-GPS,1,0,0,0,0,0,0,1619952875991,3682,3682,3673,3655,0,0,27,,,,,,,0,0,0,-20.00,21.00,-1761.00,-627.00,0.00,-1628.00,6,501.00,0.00,868.03,0.00,0.00,0.00,0,,,100,100,0,2,0,0,0,2,0,,,,,0.0,0.0,0
55.941083,-4.404963,50.10,0.00,0.00,86.80,50.10,50.10,0.00,86.82,4872,2021-05-02 10:54:36.183,2021-05-02 11:54:36.183,16,0,0,14.692,55.940871,-4.406299,0.00,0.00,0.00,1.90,2.30,-176.10,0,1,0,31,100,-7600,1050,14692,3096.50,4,P-GPS,1,0,0,0,0,0,0,1619952876182,3682,3682,3673,3655,0,0,27,,,,,,,0,0,0,-19.00,23.00,-1761.00,-627.00,0.00,-1628.00,6,501.00,0.00,867.97,0.00,0.00,0.00,0,,,100,100,0,2,0,0,0,2,0,,,,,0.0,0.0,0
55.941083,-4.404962,50.10,0.00,0.00,86.80,50.10,50.10,0.00,86.82,4963,2021-05-02 10:54:36.273,2021-05-02 11:54:36.273,16,0,0,14.692,55.940871,-4.406299,0.00,0.00,0.00,1.80,2.90,-176.00,0,1,0,31,100,-7600,1050,14692,3096.50,4,P-GPS,1,0,0,0,0,0,0,1619952876273,3682,3682,3673,3655,0,0,27,,,,,,,0,0,0,-18.00,29.00,-1760.00,-627.00,0.00,-1628.00,6,501.00,0.00,868.00,0.00,0.00,0.00,0,,,100,100,0,2,0,0,0,2,0,,,,,0.0,0.0,0
55.941083,-4.404963,50.10,0.00,0.00,86.80,50.10,50.10,0.00,86.82,5061,2021-05-02 10:54:36.371,2021-05-02 11:54:36.371,16,0,0,14.688,55.940871,-4.406299,0.00,0.00,0.00,2.00,2.90,-176.00,0,1,0,31,100,-7568,1048,14688,3096.50,4,P-GPS,1,0,0,0,0,0,0,1619952876371,3682,3682,3673,3655,0,0,27,,,,,,,0,0,0,-20.00,29.00,-1760.00,-627.00,0.00,-1628.00,6,501.00,0.00,867.96,0.00,0.00,0.00,0,,,100,100,0,2,0,0,0,2,0,,,,,0.0,0.0,0
55.941083,-4.404962,50.10,0.00,0.00,86.80,50.10,50.10,0.00,86.82,5168,2021-05-02 10:54:36.478,2021-05-02 11:54:36.478,16,0,0,14.688,55.940871,-4.406299,0.00,0.00,0.00,1.80,3.40,-175.80,0,1,0,31,100,-7568,1048,14688,3096.50,4,P-GPS,1,0,0,0,0,0,0,1619952876478,3682,3682,3673,3655,0,0,27,,,,,,,0,0,0,-18.00,34.00,-1758.00,-627.00,0.00,-1628.00,6,501.00,0.00,867.99,0.00,0.00,0.00,0,,,100,100,0,2,0,0,0,2,0,,,,,0.0,0.0,0
55.941082,-4.404962,50.10,0.00,0.00,86.80,50.10,50.10,0.00,86.82,5267,2021-05-02 10:54:36.577,2021-05-02 11:54:36.577,16,0,0,14.688,55.940871,-4.406299,0.00,0.00,0.00,1.70,3.40,-175.80,0,1,0,31,100,-7568,1048,14688,3096.50,4,P-GPS,1,0,0,0,0,0,0,1619952876577,3682,3682,3673,3655,0,0,27,,,,,,,0,0,0,-17.00,34.00,-1758.00,-627.00,0.00,-1628.00,6,501.00,0.00,867.98,0.00,0.00,0.00,0,,,100,100,0,2,0,0,0,2,0,,,,,0.0,0.0,0
55.941082,-4.404962,50.10,0.00,0.00,86.80,50.10,50.10,0.00,86.82,5363,2021-05-02 10:54:36.673,2021-05-02 11:54:36.673,16,0,0,14.688,55.940871,-4.406299,0.00,0.00,0.00,1.60,3.30,-176.00,0,1,0,31,100,-7568,1048,14688,3096.50,4,P-GPS,1,0,0,0,0,0,0,1619952876673,3682,3682,3673,3655,0,0,27,,,,,,,0,0,0,-16.00,33.00,-1760.00,-627.00,0.00,-1628.00,6,501.00,0.00,868.01,0.00,0.00,0.00,0,,,100,100,0,2,0,0,0,2,0,,,,,0.0,0.0,0
55.941083,-4.404962,50.10,0.00,0.00,86.82,50.10,50.10,0.00,86.82,5466,2021-05-02 10:54:36.776,2021-05-02 11:54:36.776,16,0,0,14.688,55.940871,-4.406299,0.00,0.00,0.00,1.00,3.40,-175.90,0,1,0,31,100,-7568,1048,14688,3096.50,4,P-GPS,1,0,0,0,0,0,0,1619952876776,3682,3682,3673,3655,0,0,27,,,,,,,0,0,0,-10.00,34.00,-1759.00,-627.00,0.00,-1628.00,6,501.00,0.00,868.16,0.00,0.00,0.00,0,,,100,100,0,2,0,0,0,2,0,,,,,0.0,0.0,0
55.941083,-4.404962,50.10,0.00,0.00,86.82,50.10,50.10,0.00,86.82,5562,2021-05-02 10:54:36.872,2021-05-02 11:54:36.872,16,0,0,14.688,55.940871,-4.406299,0.00,0.00,0.00,0.80,3.40,-175.90,0,1,0,31,100,-7568,1048,14688,3096.50,4,P-GPS,1,0,0,0,0,0,0,1619952876872,3682,3682,3673,3655,0,0,27,,,,,,,0,0,0,-8.00,34.00,-1759.00,-627.00,0.00,-1628.00,6,501.00,0.00,868.20,0.00,0.00,0.00,0,,,100,100,0,2,0,0,0,2,0,,,,,0.0,0.0,0
55.941083,-4.404962,50.10,0.00,0.00,86.82,50.10,50.10,0.00,86.82,5671,2021-05-02 10:54:36.981,2021-05-02 11:54:36.981,16,0,0,14.688,55.940871,-4.406299,0.00,0.00,0.00,0.80,3.50,-176.10,0,1,0,31,100,-7568,1048,14688,3096.50,4,P-GPS,1,0,0,0,0,0,0,1619952876981,3682,3682,3673,3655,0,0,27,,,,,,,0,0,0,-8.00,35.00,-1761.00,-627.00,0.00,-1628.00,6,501.00,0.00,868.20,0.00,0.00,0.00,0,,,100,100,0,2,0,0,0,2,0,,,,,0.0,0.0,0
55.941083,-4.404962,50.10,0.00,0.00,86.82,50.10,50.10,0.00,86.82,5764,2021-05-02 10:54:37.074,2021-05-02 11:54:37.074,16,0,0,14.688,55.940871,-4.406299,0.00,0.00,0.00,1.00,3.40,-176.10,0,1,0,31,100,-7568,1048,14688,3096.50,4,P-GPS,1,0,0,0,0,0,0,1619952877074,3682,3682,3673,3655,0,0,27,,,,,,,0,0,0,-10.00,34.00,-1761.00,-627.00,0.00,-1628.00,6,501.00,0.00,868.21,0.00,0.00,0.00,0,,,100,100,0,2,0,0,0,2,0,,,,,0.0,0.0,0
55.941082,-4.404962,50.10,0.00,0.00,87.41,50.10,50.10,0.00,87.41,5860,2021-05-02 10:54:37.170,2021-05-02 11:54:37.170,17,0,0,14.688,55.940871,-4.406299,0.00,0.00,0.00,1.00,3.40,-176.30,0,1,0,31,100,-7568,1048,14688,3096.50,4,P-GPS,1,0,0,0,0,0,0,1619952877170,3682,3682,3673,3655,0,0,27,,,,,,,0,0,0,-10.00,34.00,-1763.00,-627.00,0.00,-1628.00,6,501.00,0.00,874.06,0.00,0.00,0.00,0,,,100,100,0,2,0,0,0,2,2,,,,,0.0,0.0,0
55.941082,-4.404962,50.10,0.00,0.00,87.41,50.10,50.10,0.00,87.41,5960,2021-05-02 10:54:37.270,2021-05-02 11:54:37.270,17,0,0,14.688,55.940871,-4.406299,0.00,0.00,0.00,1.00,3.30,-176.20,0,1,0,31,100,-7568,1048,14688,3096.50,4,P-GPS,1,0,0,0,0,0,0,1619952877270,3682,3682,3673,3655,0,0,27,,,,,,,0,0,0,-10.00,33.00,-1762.00,-627.00,0.00,-1628.00,6,501.00,0.00,874.05,0.00,0.00,0.00,0,,,100,100,0,2,0,0,0,2,2,,,,,0.0,0.0,0
55.941082,-4.404962,50.10,0.00,0.00,87.41,50.10,50.10,0.00,87.41,6062,2021-05-02 10:54:37.372,2021-05-02 11:54:37.372,17,0,0,14.691,55.940871,-4.406299,0.00,0.00,0.00,1.80,3.20,-176.20,0,1,0,31,100,-7615,1045,14691,3096.50,4,P-GPS,1,0,0,0,0,0,0,1619952877372,3682,3682,3673,3655,0,0,27,,,,,,,0,0,0,-18.00,32.00,-1762.00,-627.00,0.00,-1628.00,6,501.00,0.00,874.06,0.00,0.00,0.00,0,,,100,100,0,2,0,0,0,2,2,,,,,0.0,0.0,0
55.941082,-4.404962,50.10,0.00,0.00,87.40,50.10,50.10,0.00,87.41,6162,2021-05-02 10:54:37.472,2021-05-02 11:54:37.472,17,0,0,14.691,55.940871,-4.406299,0.00,0.00,0.00,1.60,3.30,-176.20,0,1,0,31,100,-7615,1045,14691,3096.50,4,P-GPS,1,0,0,0,0,0,0,1619952877472,3682,3682,3673,3655,0,0,27,,,,,,,0,0,0,-16.00,33.00,-1762.00,-627.00,0.00,-1628.00,6,501.00,0.00,874.04,0.00,0.00,0.00,0,,,100,100,0,2,0,0,0,2,2,,,,,0.0,0.0,0
55.941082,-4.404962,50.10,0.00,0.00,87.41,50.10,50.10,0.00,87.41,6270,2021-05-02 10:54:37.580,2021-05-02 11:54:37.580,17,0,0,14.691,55.940871,-4.406299,0.00,0.00,0.00,2.50,3.10,-176.00,0,1,0,31,100,-7615,1045,14691,3096.50,4,P-GPS,1,0,0,0,0,0,0,1619952877580,3682,3682,3673,3655,0,0,27,,,,,,,0,0,0,-25.00,31.00,-1760.00,-627.00,0.00,-1628.00,6,501.00,0.00,874.08,0.00,0.00,0.00,0,,,100,100,0,2,0,0,0,2,2,,,,,0.0,0.0,0
55.941082,-4.404962,50.10,0.00,0.00,87.41,50.10,50.10,0.00,87.41,6371,2021-05-02 10:54:37.681,2021-05-02 11:54:37.681,17,0,0,14.691,55.940871,-4.406299,0.00,0.00,0.00,3.10,2.20,-176.00,0,1,0,31,100,-7615,1045,14691,3096.50,4,P-GPS,1,0,0,0,0,0,0,1619952877681,3682,3682,3673,3655,0,0,27,,,,,,,0,0,0,-31.00,22.00,-1760.00,-627.00,0.00,-1628.00,6,501.00,0.00,874.06,0.00,0.00,0.00,0,,,100,100,0,2,0,0,0,2,2,,,,,0.0,0.0,0
55.941082,-4.404962,50.10,0.00,0.00,87.41,50.10,50.10,0.00,87.41,6466,2021-05-02 10:54:37.776,2021-05-02 11:54:37.776,17,0,0,14.691,55.940871,-4.406299,0.00,0.00,0.00,1.60,2.80,-175.90,0,1,0,31,100,-7615,1045,14691,3096.50,4,P-GPS,1,0,0,0,0,0,0,1619952877776,3682,3682,3673,3655,0,0,27,,,,,,,0,0,0,-16.00,28.00,-1759.00,-627.00,0.00,-1628.00,6,501.00,0.00,874.06,0.00,0.00,0.00,0,,,100,100,0,2,0,0,0,2,2,,,,,0.0,0.0,0
55.941083,-4.404962,50.10,0.00,0.00,87.41,50.10,50.10,0.00,87.41,6568,2021-05-02 10:54:37.878,2021-05-02 11:54:37.878,17,0,0,14.691,55.940871,-4.406299,0.00,0.00,0.00,2.00,2.50,-175.90,0,1,0,31,100,-7615,1045,14691,3096.50,4,P-GPS,1,0,0,0,0,0,0,1619952877878,3682,3682,3673,3655,0,0,27,,,,,,,0,0,0,-20.00,25.00,-1759.00,-627.00,0.00,-1628.00,6,501.00,0.00,874.05,0.00,0.00,0.00,0,,,100,100,0,2,0,0,0,2,2,,,,,0.0,0.0,0
55.941083,-4.404962,50.10,0.00,0.00,87.41,50.10,50.10,0.00,87.41,6667,2021-05-02 10:54:37.977,2021-05-02 11:54:37.977,17,0,0,14.691,55.940871,-4.406299,0.00,0.00,0.00,1.30,2.70,-175.90,0,1,0,31,100,-7615,1045,14691,3096.50,4,P-GPS,1,0,0,0,0,0,0,1619952877977,3682,3682,3673,3655,0,0,27,,,,,,,0,0,0,-13.00,27.00,-1759.00,-627.00,0.00,-1628.00,6,501.00,0.00,874.11,0.00,0.00,0.00,0,,,100,100,0,2,0,0,0,2,2,,,,,0.0,0.0,0
55.941083,-4.404962,50.10,0.00,0.00,87.41,50.10,50.10,0.00,87.41,6763,2021-05-02 10:54:38.073,2021-05-02 11:54:38.073,17,0,0,14.691,55.940871,-4.406299,0.00,0.00,0.00,0.90,2.90,-175.80,0,1,0,31,100,-7615,1045,14691,3096.50,4,P-GPS,1,0,0,0,0,0,0,1619952878073,3682,3682,3673,3655,0,0,27,,,,,,,0,0,0,-9.00,29.00,-1758.00,-627.00,0.00,-1628.00,6,501.00,0.00,874.11,0.00,0.00,0.00,0,,,100,100,0,2,0,0,0,2,2,,,,,0.0,0.0,0
55.941083,-4.404962,50.10,0.00,0.00,87.41,50.10,50.10,0.00,87.41,6862,2021-05-02 10:54:38.172,2021-05-02 11:54:38.172,17,0,0,14.691,55.940871,-4.406299,0.00,0.00,0.00,1.00,2.50,-175.80,0,1,0,31,100,-7615,1045,14691,3096.50,4,P-GPS,1,0,0,0,0,0,0,1619952878172,3682,3682,3673,3655,0,0,27,,,,,,,0,0,0,-10.00,25.00,-1758.00,-627.00,0.00,-1628.00,6,501.00,0.00,874.14,0.00,0.00,0.00,0,,,100,100,0,2,0,0,0,2,2,,,,,0.0,0.0,0
55.941083,-4.404962,50.10,0.00,0.00,87.41,50.10,50.10,0.00,87.41,6961,2021-05-02 10:54:38.271,2021-05-02 11:54:38.271,17,0,0,14.691,55.940871,-4.406299,0.00,0.00,0.00,0.70,2.60,-175.70,0,1,0,31,100,-7615,1045,14691,3096.50,4,P-GPS,1,0,0,0,0,0,0,1619952878271,3682,3682,3673,3655,0,0,27,,,,,,,0,0,0,-7.00,26.00,-1757.00,-627.00,0.00,-1628.00,6,501.00,0.00,874.14,0.00,0.00,0.00,0,,,100,100,0,2,0,0,0,2,2,,,,,0.0,0.0,0
55.941083,-4.404962,50.10,0.00,0.00,87.42,50.10,50.10,0.00,87.42,7063,2021-05-02 10:54:38.374,2021-05-02 11:54:38.373,17,0,0,14.687,55.940871,-4.406299,0.00,0.00,0.00,0.90,2.60,-175.80,0,1,0,30,100,-7690,1043,14687,3096.50,4,P-GPS,1,0,0,0,0,0,0,1619952878373,3682,3682,3673,3655,0,0,27,,,,,,,0,0,0,-9.00,26.00,-1758.00,-627.00,0.00,-1628.00,6,501.00,0.00,874.16,0.00,0.00,0.00,0,,,100,100,0,2,0,0,0,2,2,,,,,0.0,0.0,0
55.941083,-4.404962,50.10,0.00,0.00,87.42,50.10,50.10,0.00,87.42,7168,2021-05-02 10:54:38.478,2021-05-02 11:54:38.478,17,0,0,14.687,55.940871,-4.406299,0.00,0.00,0.00,0.90,2.40,-175.80,0,1,0,30,100,-7690,1043,14687,3096.50,4,P-GPS,1,0,0,0,0,0,0,1619952878478,3682,3682,3673,3655,0,0,27,,,,,,,0,0,0,-9.00,24.00,-1758.00,-627.00,0.00,-1628.00,6,501.00,0.00,874.17,0.00,0.00,0.00,0,,,100,100,0,2,0,0,0,2,2,,,,,0.0,0.0,0
55.941083,-4.404962,50.10,0.00,0.00,87.41,50.10,50.10,0.00,87.42,7262,2021-05-02 10:54:38.572,2021-05-02 11:54:38.572,17,0,0,14.687,55.940871,-4.406299,0.00,0.00,0.00,0.50,2.80,-175.80,0,1,0,30,100,-7690,1043,14687,3096.50,4,P-GPS,1,0,0,0,0,0,0,1619952878572,3682,3682,3673,3655,0,0,27,,,,,,,0,0,0,-5.00,28.00,-1758.00,-627.00,0.00,-1628.00,6,501.00,0.00,874.10,0.00,0.00,0.00,0,,,100,100,0,2,0,0,0,2,2,,,,,0.0,0.0,0
55.941083,-4.404962,50.10,0.00,0.00,87.41,50.10,50.10,0.00,87.42,7366,2021-05-02 10:54:38.676,2021-05-02 11:54:38.676,17,0,0,14.687,55.940871,-4.406299,0.00,0.00,0.00,0.30,2.90,-175.80,0,1,0,30,100,-7690,1043,14687,3096.50,4,P-GPS,1,0,0,0,0,0,0,1619952878676,3682,3682,3673,3655,0,0,27,,,,,,,0,0,0,-3.00,29.00,-1758.00,-627.00,0.00,-1628.00,6,501.00,0.00,874.11,0.00,0.00,0.00,0,,,100,100,0,2,0,0,0,2,2,,,,,0.0,0.0,0
55.941083,-4.404962,50.10,0.00,0.00,87.42,50.10,50.10,0.00,87.42,7463,2021-05-02 10:54:38.773,2021-05-02 11:54:38.773,17,0,0,14.687,55.940871,-4.406299,0.00,0.00,0.00,0.20,3.10,-175.90,0,1,0,30,100,-7690,1043,14687,3096.50,4,P-GPS,1,0,0,0,0,0,0,1619952878773,3682,3682,3673,3655,0,0,27,,,,,,,0,0,0,-2.00,31.00,-1759.00,-627.00,0.00,-1628.00,6,501.00,0.00,874.23,0.00,0.00,0.00,0,,,100,100,0,2,0,0,0,2,2,,,,,0.0,0.0,0
55.941083,-4.404962,50.10,0.00,0.00,87.42,50.10,50.10,0.00,87.42,7563,2021-05-02 10:54:38.874,2021-05-02 11:54:38.874,17,0,0,14.687,55.940871,-4.406299,0.00,0.00,0.00,0.40,3.10,-175.80,0,1,0,30,100,-7690,1043,14687,3096.50,4,P-GPS,1,0,0,0,0,0,0,1619952878873,3682,3682,3673,3655,0,0,27,,,,,,,0,0,0,-4.00,31.00,-1758.00,-627.00,0.00,-1628.00,6,501.00,0.00,874.24,0.00,0.00,0.00,0,,,100,100,0,2,0,0,0,2,2,,,,,0.0,0.0,0
55.941083,-4.404962,50.10,0.00,0.00,87.42,50.10,50.10,0.00,87.42,7664,2021-05-02 10:54:38.974,2021-05-02 11:54:38.974,17,0,0,14.687,55.940871,-4.406299,0.00,0.00,0.00,0.90,2.90,-175.70,0,1,0,30,100,-7690,1043,14687,3096.50,4,P-GPS,1,0,0,0,0,0,0,1619952878974,3682,3682,3673,3655,0,0,27,,,,,,,0,0,0,-9.00,29.00,-1757.00,-627.00,0.00,-1628.00,6,501.00,0.00,874.20,0.00,0.00,0.00,0,,,100,100,0,2,0,0,0,2,2,,,,,0.0,0.0,0
55.941083,-4.404962,50.10,0.00,0.00,87.42,50.10,50.10,0.00,87.42,7766,2021-05-02 10:54:39.076,2021-05-02 11:54:39.076,17,0,0,14.687,55.940871,-4.406299,0.00,0.00,0.00,1.10,2.50,-175.70,0,1,0,30,100,-7690,1043,14687,3096.50,4,P-GPS,1,0,0,0,0,0,0,1619952879076,3682,3682,3673,3655,0,0,27,,,,,,,0,0,0,-11.00,25.00,-1757.00,-627.00,0.00,-1628.00,6,501.00,0.00,874.19,0.00,0.00,0.00,0,,,100,100,0,2,0,0,0,2,2,,,,,0.0,0.0,0
55.941083,-4.404962,50.10,0.00,0.00,87.42,50.10,50.10,0.00,87.42,7869,2021-05-02 10:54:39.179,2021-05-02 11:54:39.179,17,0,0,14.687,55.940871,-4.406299,0.00,0.00,0.00,1.00,2.30,-175.70,0,1,0,30,100,-7690,1043,14687,3096.50,4,P-GPS,1,0,0,0,0,0,0,1619952879179,3682,3682,3673,3655,0,0,27,,,,,,,0,0,0,-10.00,23.00,-1757.00,-627.00,0.00,-1628.00,6,501.00,0.00,874.16,0.00,0.00,0.00,0,,,100,100,0,2,0,0,0,2,2,,,,,0.0,0.0,0
55.941083,-4.404962,50.00,0.00,0.00,87.42,50.10,50.10,0.00,87.42,7964,2021-05-02 10:54:39.274,2021-05-02 11:54:39.274,17,0,0,14.687,55.940871,-4.406299,0.00,0.00,0.00,0.60,2.60,-175.60,0,1,0,30,100,-7690,1043,14687,3096.50,4,P-GPS,1,0,0,0,0,0,0,1619952879274,3682,3682,3673,3655,0,0,27,,,,,,,0,0,0,-6.00,26.00,-1756.00,-627.00,0.00,-1628.00,6,500.00,0.00,874.16,0.00,0.00,0.00,0,,,100,100,0,2,0,0,0,2,2,,,,,0.0,0.0,0
55.941083,-4.404962,50.00,0.00,0.00,87.41,50.10,50.10,0.00,87.42,8068,2021-05-02 10:54:39.378,2021-05-02 11:54:39.378,17,0,0,14.680,55.940871,-4.406299,0.00,0.00,0.00,0.80,2.30,-175.60,0,1,0,30,100,-7663,1041,14680,3097.50,4,P-GPS,1,0,0,0,0,0,0,1619952879378,3682,3682,3673,3655,0,0,27,,,,,,,0,0,0,-8.00,23.00,-1756.00,-627.00,0.00,-1628.00,6,500.00,0.00,874.08,0.00,0.00,0.00,0,,,100,100,0,2,0,0,0,2,2,,,,,0.0,0.0,0
55.941083,-4.404962,50.10,0.00,0.00,87.41,50.10,50.10,0.00,87.42,8167,2021-05-02 10:54:39.477,2021-05-02 11:54:39.477,17,0,0,14.680,55.940871,-4.406299,0.00,0.00,0.00,0.70,2.60,-175.60,0,1,0,30,100,-7663,1041,14680,3097.50,4,P-GPS,1,0,0,0,0,0,0,1619952879477,3682,3682,3673,3655,0,0,27,,,,,,,0,0,0,-7.00,26.00,-1756.00,-627.00,0.00,-1628.00,6,501.00,0.00,874.08,0.00,0.00,0.00,0,,,100,100,0,2,0,0,0,2,2,,,,,0.0,0.0,0
55.941083,-4.404962,50.10,0.00,0.00,87.41,50.10,50.10,0.00,87.42,8273,2021-05-02 10:54:39.583,2021-05-02 11:54:39.583,17,0,0,14.680,55.940871,-4.406299,0.00,0.00,0.00,0.40,2.90,-175.70,0,1,0,30,100,-7663,1041,14680,3097.50,4,P-GPS,1,0,0,0,0,0,0,1619952879583,3682,3682,3673,3655,0,0,27,,,,,,,0,0,0,-4.00,29.00,-1757.00,-627.00,0.00,-1628.00,6,501.00,0.00,874.15,0.00,0.00,0.00,0,,,100,100,0,2,0,0,0,2,2,,,,,0.0,0.0,0
55.941083,-4.404962,50.10,0.00,0.00,87.42,50.10,50.10,0.00,87.42,8365,2021-05-02 10:54:39.675,2021-05-02 11:54:39.675,17,0,0,14.680,55.940871,-4.406299,0.00,0.00,0.00,0.40,3.10,-175.60,0,1,0,30,100,-7663,1041,14680,3097.50,4,P-GPS,1,0,0,0,0,0,0,1619952879675,3682,3682,3673,3655,0,0,27,,,,,,,0,0,0,-4.00,31.00,-1756.00,-627.00,0.00,-1628.00,6,501.00,0.00,874.16,0.00,0.00,0.00,0,,,100,100,0,2,0,0,0,2,2,,,,,0.0,0.0,0
55.941083,-4.404962,50.10,0.00,0.00,87.42,50.10,50.10,0.00,87.42,8468,2021-05-02 10:54:39.778,2021-05-02 11:54:39.778,17,0,0,14.680,55.940871,-4.406299,0.00,0.00,0.00,0.60,3.00,-175.80,0,1,0,30,100,-7663,1041,14680,3097.50,4,P-GPS,1,0,0,0,0,0,0,1619952879778,3682,3682,3673,3655,0,0,27,,,,,,,0,0,0,-6.00,30.00,-1758.00,-627.00,0.00,-1628.00,6,501.00,0.00,874.18,0.00,0.00,0.00,0,,,100,100,0,2,0,0,0,2,2,,,,,0.0,0.0,0
55.941083,-4.404962,50.10,0.00,0.00,87.42,50.10,50.10,0.00,87.42,8576,2021-05-02 10:54:39.887,2021-05-02 11:54:39.886,17,0,0,14.680,55.940871,-4.406299,0.00,0.00,0.00,0.90,3.00,-175.60,0,1,0,30,100,-7663,1041,14680,3097.50,4,P-GPS,1,0,0,0,0,0,0,1619952879886,3682,3682,3673,3655,0,0,27,,,,,,,0,0,0,-9.00,30.00,-1756.00,-627.00,0.00,-1628.00,6,501.00,0.00,874.18,0.00,0.00,0.00,0,,,100,100,0,2,0,0,0,2,2,,,,,0.0,0.0,0
55.941083,-4.404962,50.10,0.00,0.00,87.41,50.10,50.10,0.00,87.42,8666,2021-05-02 10:54:39.976,2021-05-02 11:54:39.976,17,0,0,14.680,55.940871,-4.406299,0.00,0.00,0.00,1.10,2.80,-175.70,0,1,0,30,100,-7663,1041,14680,3097.50,4,P-GPS,1,0,0,0,0,0,0,1619952879976,3682,3682,3673,3655,0,0,27,,,,,,,0,0,0,-11.00,28.00,-1757.00,-627.00,0.00,-1628.00,6,501.00,0.00,874.14,0.00,0.00,0.00,0,,,100,100,0,2,0,0,0,2,2,,,,,0.0,0.0,0
55.941083,-4.404962,50.10,0.00,0.00,87.41,50.10,50.10,0.00,87.42,8763,2021-05-02 10:54:40.074,2021-05-02 11:54:40.073,17,0,0,14.680,55.940871,-4.406299,0.00,0.00,0.00,1.30,2.80,-175.70,0,1,0,30,100,-7663,1041,14680,3097.50,4,P-GPS,1,0,0,0,0,0,0,1619952880073,3682,3682,3673,3655,0,0,27,,,,,,,0,0,0,-13.00,28.00,-1757.00,-627.00,0.00,-1628.00,6,501.00,0.00,874.14,0.00,0.00,0.00,0,,,100,100,0,2,0,0,0,2,2,,,,,0.0,0.0,0
55.941083,-4.404962,50.10,0.00,0.00,87.41,50.10,50.10,0.00,87.42,8869,2021-05-02 10:54:40.179,2021-05-02 11:54:40.179,17,0,0,14.680,55.940871,-4.406299,0.00,0.00,0.00,1.10,3.10,-175.70,0,1,0,30,100,-7663,1041,14680,3097.50,4,P-GPS,1,0,0,0,0,0,0,1619952880179,3682,3682,3673,3655,0,0,27,,,,,,,0,0,0,-11.00,31.00,-1757.00,-627.00,0.00,-1628.00,6,501.00,0.00,874.14,0.00,0.00,0.00,0,,,100,100,0,2,0,0,0,2,2,,,,,0.0,0.0,0
55.941083,-4.404962,50.10,0.00,0.00,87.41,50.10,50.10,0.00,87.42,8960,2021-05-02 10:54:40.270,2021-05-02 11:54:40.270,17,0,0,14.680,55.940871,-4.406299,0.00,0.00,0.00,1.00,3.00,-175.70,0,1,0,30,100,-7663,1041,14680,3097.50,4,P-GPS,1,0,0,0,0,0,0,1619952880270,3682,3682,3673,3655,0,0,27,,,,,,,0,0,0,-10.00,30.00,-1757.00,-627.00,0.00,-1628.00,6,501.00,0.00,874.14,0.00,0.00,0.00,0,,,100,100,0,2,0,0,0,2,2,,,,,0.0,0.0,0
55.941083,-4.404962,50.10,0.00,0.00,87.41,50.10,50.10,0.00,87.42,9077,2021-05-02 10:54:40.387,2021-05-02 11:54:40.387,17,0,0,14.684,55.940871,-4.406299,0.00,0.00,0.00,1.20,2.90,-175.70,0,1,0,30,100,-7748,1039,14684,3097.50,4,P-GPS,1,0,0,0,0,0,0,1619952880387,3682,3682,3673,3655,0,0,27,,,,,,,0,0,0,-12.00,29.00,-1757.00,-627.00,0.00,-1628.00,6,501.00,0.00,874.12,0.00,0.00,0.00,0,,,100,100,0,2,0,0,0,2,2,,,,,0.0,0.0,0
55.941083,-4.404962,50.10,0.00,0.00,87.41,50.10,50.10,0.00,87.42,9164,2021-05-02 10:54:40.474,2021-05-02 11:54:40.474,17,0,0,14.684,55.940871,-4.406299,0.00,0.00,0.00,1.50,2.70,-175.60,0,1,0,30,100,-7748,1039,14684,3097.50,4,P-GPS,1,0,0,0,0,0,0,1619952880474,3682,3682,3673,3655,0,0,27,,,,,,,0,0,0,-15.00,27.00,-1756.00,-627.00,0.00,-1628.00,6,501.00,0.00,874.10,0.00,0.00,0.00,0,,,100,100,0,2,0,0,0,2,2,,,,,0.0,0.0,0
55.941083,-4.404962,50.10,0.00,0.00,87.41,50.10,50.10,0.00,87.42,9278,2021-05-02 10:54:40.588,2021-05-02 11:54:40.588,17,0,0,14.684,55.940871,-4.406299,0.00,0.00,0.00,1.40,2.60,-175.70,0,1,0,30,100,-7748,1039,14684,3097.50,4,P-GPS,1,0,0,0,0,0,0,1619952880588,3682,3682,3673,3655,0,0,27,,,,,,,0,0,0,-14.00,26.00,-1757.00,-627.00,0.00,-1628.00,6,501.00,0.00,874.08,0.00,0.00,0.00,0,,,100,100,0,2,0,0,0,2,2,,,,,0.0,0.0,0
55.941083,-4.404962,50.10,0.00,0.00,87.41,50.10,50.10,0.00,87.42,9369,2021-05-02 10:54:40.679,2021-05-02 11:54:40.679,17,0,0,14.684,55.940871,-4.406299,0.00,0.00,0.00,1.60,2.50,-175.60,0,1,0,30,100,-7748,1039,14684,3097.50,4,P-GPS,1,0,0,0,0,0,0,1619952880679,3682,3682,3673,3655,0,0,27,,,,,,,0,0,0,-16.00,25.00,-1756.00,-627.00,0.00,-1628.00,6,501.00,0.00,874.06,0.00,0.00,0.00,0,,,100,100,0,2,0,0,0,2,2,,,,,0.0,0.0,0
55.941083,-4.404962,50.10,0.00,0.00,87.41,50.10,50.10,0.00,87.42,9471,2021-05-02 10:54:40.781,2021-05-02 11:54:40.781,17,0,0,14.684,55.940871,-4.406299,0.00,0.00,0.00,1.50,2.40,-175.70,0,1,0,30,100,-7748,1039,14684,3097.50,4,P-GPS,1,0,0,0,0,0,0,1619952880781,3682,3682,3673,3655,0,0,27,,,,,,,0,0,0,-15.00,24.00,-1757.00,-627.00,0.00,-1628.00,6,501.00,0.00,874.09,0.00,0.00,0.00,0,,,100,100,0,2,0,0,0,2,2,,,,,0.0,0.0,0
55.941083,-4.404962,50.10,0.00,0.00,87.41,50.10,50.10,0.00,87.42,9590,2021-05-02 10:54:40.900,2021-05-02 11:54:40.900,17,0,0,14.684,55.940871,-4.406299,0.00,0.00,0.00,1.20,2.70,-175.60,0,1,0,30,100,-7748,1039,14684,3097.50,4,P-GPS,1,0,0,0,0,0,0,1619952880900,3682,3682,3673,3655,0,0,27,,,,,,,0,0,0,-12.00,27.00,-1756.00,-627.00,0.00,-1628.00,6,501.00,0.00,874.09,0.00,0.00,0.00,0,,,100,100,0,2,0,0,0,2,2,,,,,0.0,0.0,0
55.941083,-4.404962,50.10,0.00,0.00,87.41,50.10,50.10,0.00,87.42,9662,2021-05-02 10:54:40.972,2021-05-02 11:54:40.972,17,0,0,14.684,55.940871,-4.406299,0.00,0.00,0.00,1.20,2.80,-175.60,0,1,0,30,100,-7748,1039,14684,3097.50,4,P-GPS,1,0,0,0,0,0,0,1619952880972,3682,3682,3673,3655,0,0,27,,,,,,,0,0,0,-12.00,28.00,-1756.00,-627.00,0.00,-1628.00,6,501.00,0.00,874.13,0.00,0.00,0.00,0,,,100,100,0,2,0,0,0,2,2,,,,,0.0,0.0,0
55.941083,-4.404962,50.10,0.00,0.00,87.41,50.10,50.10,0.00,87.42,9765,2021-05-02 10:54:41.075,2021-05-02 11:54:41.075,17,0,0,14.684,55.940871,-4.406299,0.00,0.00,0.00,1.10,3.00,-175.60,0,1,0,30,100,-7748,1039,14684,3097.50,4,P-GPS,1,0,0,0,0,0,0,1619952881075,3682,3682,3673,3655,0,0,27,,,,,,,0,0,0,-11.00,30.00,-1756.00,-627.00,0.00,-1628.00,6,501.00,0.00,874.14,0.00,0.00,0.00,0,,,100,100,0,2,0,0,0,2,2,,,,,0.0,0.0,0
55.941083,-4.404962,50.10,0.00,0.00,87.42,50.10,50.10,0.00,87.42,9863,2021-05-02 10:54:41.173,2021-05-02 11:54:41.173,17,0,0,14.684,55.940871,-4.406299,0.00,0.00,0.00,1.10,2.80,-175.60,0,1,0,30,100,-7748,1039,14684,3097.50,4,P-GPS,1,0,0,0,0,0,0,1619952881173,3682,3682,3673,3655,0,0,27,,,,,,,0,0,0,-11.00,28.00,-1756.00,-627.00,0.00,-1628.00,6,501.00,0.00,874.17,0.00,0.00,0.00,0,,,100,100,0,2,0,0,0,2,2,,,,,0.0,0.0,0
55.941083,-4.404962,50.10,0.00,0.00,87.42,50.10,50.10,0.00,87.42,9967,2021-05-02 10:54:41.277,2021-05-02 11:54:41.277,17,0,0,14.684,55.940871,-4.406299,0.00,0.00,0.00,0.90,3.00,-175.60,0,1,0,30,100,-7748,1039,14684,3097.50,4,P-GPS,1,0,0,0,0,0,0,1619952881277,3682,3682,3673,3655,0,0,27,,,,,,,0,0,0,-9.00,30.00,-1756.00,-627.00,0.00,-1628.00,6,501.00,0.00,874.19,0.00,0.00,0.00,0,,,100,100,0,2,0,0,0,2,2,,,,,0.0,0.0,0
55.941083,-4.404962,50.10,0.00,0.00,87.43,50.10,50.10,0.00,87.43,10062,2021-05-02 10:54:41.373,2021-05-02 11:54:41.373,17,0,0,14.685,55.940871,-4.406299,0.00,0.00,0.00,0.80,3.20,-175.60,0,1,0,30,100,-7721,1037,14685,3097.50,4,P-GPS,1,0,0,0,0,0,0,1619952881372,3682,3682,3673,3655,0,0,27,,,,,,,0,0,0,-8.00,32.00,-1756.00,-627.00,0.00,-1628.00,6,501.00,0.00,874.27,0.00,0.00,0.00,0,,,100,100,0,2,0,0,0,2,2,,,,,0.0,0.0,0
55.941083,-4.404962,50.10,0.00,0.00,87.43,50.10,50.10,0.00,87.43,10166,2021-05-02 10:54:41.476,2021-05-02 11:54:41.476,17,0,0,14.685,55.940871,-4.406299,0.00,0.00,0.00,0.60,3.20,-175.70,0,1,0,30,100,-7721,1037,14685,3097.50,4,P-GPS,1,0,0,0,0,0,0,1619952881476,3682,3682,3673,3655,0,0,27,,,,,,,0,0,0,-6.00,32.00,-1757.00,-627.00,0.00,-1628.00,6,501.00,0.00,874.29,0.00,0.00,0.00,0,,,100,100,0,2,0,0,0,2,2,,,,,0.0,0.0,0
55.941083,-4.404962,50.10,0.00,0.00,87.44,50.10,50.10,0.00,87.44,10263,2021-05-02 10:54:41.573,2021-05-02 11:54:41.573,17,0,0,14.685,55.940871,-4.406299,0.00,0.00,0.00,0.50,3.30,-175.60,0,1,0,30,100,-7721,1037,14685,3097.50,4,P-GPS,1,0,0,0,0,0,0,1619952881573,3682,3682,3673,3655,0,0,27,,,,,,,0,0,0,-5.00,33.00,-1756.00,-627.00,0.00,-1628.00,6,501.00,0.00,874.36,0.00,0.00,0.00,0,,,100,100,0,2,0,0,0,2,2,,,,,0.0,0.0,0
55.941083,-4.404962,50.10,0.00,0.00,87.44,50.10,50.10,0.00,87.44,10364,2021-05-02 10:54:41.674,2021-05-02 11:54:41.674,17,0,0,14.685,55.940871,-4.406299,0.00,0.00,0.00,0.60,3.20,-175.60,0,1,0,30,100,-7721,1037,14685,3097.50,4,P-GPS,1,0,0,0,0,0,0,1619952881674,3682,3682,3673,3655,0,0,27,,,,,,,0,0,0,-6.00,32.00,-1756.00,-627.00,0.00,-1628.00,6,501.00,0.00,874.39,0.00,0.00,0.00,0,,,100,100,0,2,0,0,0,2,2,,,,,0.0,0.0,0
55.941084,-4.404962,50.10,0.00,0.00,87.44,50.10,50.10,0.00,87.44,10467,2021-05-02 10:54:41.777,2021-05-02 11:54:41.777,17,0,0,14.685,55.940871,-4.406299,0.00,0.00,0.00,0.80,3.30,-175.70,0,1,0,30,100,-7721,1037,14685,3097.50,4,P-GPS,1,0,0,0,0,0,0,1619952881777,3682,3682,3673,3655,0,0,27,,,,,,,0,0,0,-8.00,33.00,-1757.00,-627.00,0.00,-1628.00,6,501.00,0.00,874.43,0.00,0.00,0.00,0,,,100,100,0,2,0,0,0,2,2,,,,,0.0,0.0,0
55.941084,-4.404962,50.10,0.00,0.00,87.45,50.10,50.10,0.00,87.45,10567,2021-05-02 10:54:41.877,2021-05-02 11:54:41.877,17,0,0,14.685,55.940871,-4.406299,0.00,0.00,0.00,0.70,3.40,-175.80,0,1,0,30,100,-7721,1037,14685,3097.50,4,P-GPS,1,0,0,0,0,0,0,1619952881877,3682,3682,3673,3655,0,0,27,,,,,,,0,0,0,-7.00,34.00,-1758.00,-627.00,0.00,-1628.00,6,501.00,0.00,874.46,0.00,0.00,0.00,0,,,100,100,0,2,0,0,0,2,2,,,,,0.0,0.0,0
55.941083,-4.404962,50.10,0.00,0.00,87.45,50.10,50.10,0.00,87.45,10664,2021-05-02 10:54:41.974,2021-05-02 11:54:41.974,17,0,0,14.685,55.940871,-4.406299,0.00,0.00,0.00,0.60,3.30,-175.70,0,1,0,30,100,-7721,1037,14685,3097.50,4,P-GPS,1,0,0,0,0,0,0,1619952881974,3682,3682,3673,3655,0,0,27,,,,,,,0,0,0,-6.00,33.00,-1757.00,-627.00,0.00,-1628.00,6,501.00,0.00,874.48,0.00,0.00,0.00,0,,,100,100,0,2,0,0,0,2,2,,,,,0.0,0.0,0
55.941083,-4.404962,50.10,0.00,0.00,87.45,50.10,50.10,0.00,87.45,10763,2021-05-02 10:54:42.074,2021-05-02 11:54:42.073,17,0,0,14.685,55.940871,-4.406299,0.00,0.00,0.00,0.60,3.20,-175.70,0,1,0,30,100,-7721,1037,14685,3097.50,4,P-GPS,1,0,0,0,0,0,0,1619952882073,3682,3682,3673,3655,0,0,27,,,,,,,0,0,0,-6.00,32.00,-1757.00,-627.00,0.00,-1628.00,6,501.00,0.00,874.48,0.00,0.00,0.00,0,,,100,100,0,2,0,0,0,2,2,,,,,0.0,0.0,0
55.941084,-4.404961,50.10,0.00,0.00,87.46,50.10,50.10,0.00,87.46,10869,2021-05-02 10:54:42.179,2021-05-02 11:54:42.179,17,0,0,14.685,55.940871,-4.406299,0.00,0.00,0.00,1.10,3.20,-175.70,0,1,0,30,100,-7721,1037,14685,3097.50,4,P-GPS,1,0,0,0,0,0,0,1619952882179,3682,3682,3673,3655,0,0,27,,,,,,,0,0,0,-11.00,32.00,-1757.00,-627.00,0.00,-1628.00,6,501.00,0.00,874.60,0.00,0.00,0.00,0,,,100,100,0,2,0,0,0,2,2,,,,,0.0,0.0,0
55.941083,-4.404961,50.10,0.00,0.00,87.46,50.10,50.10,0.00,87.46,10965,2021-05-02 10:54:42.275,2021-05-02 11:54:42.275,17,0,0,14.685,55.940871,-4.406299,0.00,0.00,0.00,1.50,3.00,-175.80,0,1,0,30,100,-7721,1037,14685,3097.50,4,P-GPS,1,0,0,0,0,0,0,1619952882275,3682,3682,3673,3655,0,0,27,,,,,,,0,0,0,-15.00,30.00,-1758.00,-627.00,0.00,-1628.00,6,501.00,0.00,874.61,0.00,0.00,0.00,0,,,100,100,0,2,0,0,0,2,2,,,,,0.0,0.0,0
55.941083,-4.404961,50.10,0.00,0.00,87.45,50.10,50.10,0.00,87.46,11059,2021-05-02 10:54:42.369,2021-05-02 11:54:42.369,17,0,0,14.679,55.940871,-4.406299,0.00,0.00,0.00,1.70,3.10,-175.80,0,1,0,30,100,-7696,1035,14679,3097.50,4,P-GPS,1,0,0,0,0,0,0,1619952882369,3682,3682,3673,3655,0,0,27,,,,,,,0,0,0,-17.00,31.00,-1758.00,-627.00,0.00,-1628.00,6,501.00,0.00,874.54,0.00,0.00,0.00,0,,,100,100,0,2,0,0,0,2,2,,,,,0.0,0.0,0
55.941083,-4.404961,50.10,0.00,0.00,87.45,50.10,50.10,0.00,87.46,11165,2021-05-02 10:54:42.475,2021-05-02 11:54:42.475,17,0,0,14.679,55.940871,-4.406299,0.00,0.00,0.00,2.10,2.90,-175.70,0,1,0,30,100,-7696,1035,14679,3097.50,4,P-GPS,1,0,0,0,0,0,0,1619952882475,3682,3682,3673,3655,0,0,27,,,,,,,0,0,0,-21.00,29.00,-1757.00,-627.00,0.00,-1628.00,6,501.00,0.00,874.53,0.00,0.00,0.00,0,,,100,100,0,2,0,0,0,2,2,,,,,0.0,0.0,0
55.941083,-4.404962,50.10,0.00,0.00,87.45,50.10,50.10,0.00,87.46,11268,2021-05-02 10:54:42.579,2021-05-02 11:54:42.578,17,0,0,14.679,55.940871,-4.406299,0.00,0.00,0.00,2.00,2.80,-175.80,0,1,0,30,100,-7696,1035,14679,3097.50,4,P-GPS,1,0,0,0,0,0,0,1619952882578,3682,3682,3673,3655,0,0,27,,,,,,,0,0,0,-20.00,28.00,-1758.00,-627.00,0.00,-1628.00,6,501.00,0.00,874.51,0.00,0.00,0.00,0,,,100,100,0,2,0,0,0,2,2,,,,,0.0,0.0,0
55.941083,-4.404962,50.10,0.00,0.00,87.45,50.10,50.10,0.00,87.46,11368,2021-05-02 10:54:42.678,2021-05-02 11:54:42.678,17,0,0,14.679,55.940871,-4.406299,0.00,0.00,0.00,2.10,2.80,-175.70,0,1,0,30,100,-7696,1035,14679,3097.50,4,P-GPS,1,0,0,0,0,0,0,1619952882678,3682,3682,3673,3655,0,0,27,,,,,,,0,0,0,-21.00,28.00,-1757.00,-627.00,0.00,-1628.00,6,501.00,0.00,874.51,0.00,0.00,0.00,0,,,100,100,0,2,0,0,0,2,2,,,,,0.0,0.0,0
55.941084,-4.404962,50.10,0.00,0.00,87.44,50.10,50.10,0.00,87.46,11464,2021-05-02 10:54:42.774,2021-05-02 11:54:42.774,17,0,0,14.679,55.940871,-4.406299,0.00,0.00,0.00,2.00,2.70,-175.70,0,1,0,30,100,-7696,1035,14679,3097.50,4,P-GPS,1,0,0,0,0,0,0,1619952882774,3682,3682,3673,3655,0,0,27,,,,,,,0,0,0,-20.00,27.00,-1757.00,-627.00,0.00,-1628.00,6,501.00,0.00,874.43,0.00,0.00,0.00,0,,,100,100,0,2,0,0,0,2,2,,,,,0.0,0.0,0
55.941084,-4.404962,50.10,0.00,0.00,87.44,50.10,50.10,0.00,87.46,11565,2021-05-02 10:54:42.875,2021-05-02 11:54:42.875,17,0,0,14.679,55.940871,-4.406299,0.00,0.00,0.00,1.90,2.60,-175.80,0,1,0,30,100,-7696,1035,14679,3097.50,4,P-GPS,1,0,0,0,0,0,0,1619952882875,3682,3682,3673,3655,0,0,27,,,,,,,0,0,0,-19.00,26.00,-1758.00,-627.00,0.00,-1628.00,6,501.00,0.00,874.43,0.00,0.00,0.00,0,,,100,100,0,2,0,0,0,2,2,,,,,0.0,0.0,0
55.941083,-4.404962,50.10,0.00,0.00,87.44,50.10,50.10,0.00,87.46,11666,2021-05-02 10:54:42.976,2021-05-02 11:54:42.976,17,0,0,14.679,55.940871,-4.406299,0.00,0.00,0.00,2.10,2.70,-175.70,0,1,0,30,100,-7696,1035,14679,3097.50,4,P-GPS,1,0,0,0,0,0,0,1619952882976,3682,3682,3673,3655,0,0,27,,,,,,,0,0,0,-21.00,27.00,-1757.00,-627.00,0.00,-1628.00,6,501.00,0.00,874.36,0.00,0.00,0.00,0,,,100,100,0,2,0,0,0,2,2,,,,,0.0,0.0,0
55.941083,-4.404962,50.10,0.00,0.00,87.44,50.10,50.10,0.00,87.46,11765,2021-05-02 10:54:43.075,2021-05-02 11:54:43.075,17,0,0,14.679,55.940871,-4.406299,0.00,0.00,0.00,1.70,2.80,-175.70,0,1,0,30,100,-7696,1035,14679,3097.50,4,P-GPS,1,0,0,0,0,0,0,1619952883075,3682,3682,3673,3655,0,0,27,,,,,,,0,0,0,-17.00,28.00,-1757.00,-627.00,0.00,-1628.00,6,501.00,0.00,874.36,0.00,0.00,0.00,0,,,100,100,0,2,0,0,0,2,2,,,,,0.0,0.0,0
55.941083,-4.404962,50.10,0.00,0.00,87.44,50.10,50.10,0.00,87.46,11862,2021-05-02 10:54:43.172,2021-05-02 11:54:43.172,17,0,0,14.679,55.940871,-4.406299,0.00,0.00,0.00,1.70,2.80,-175.90,0,1,0,30,100,-7696,1035,14679,3097.50,4,P-GPS,1,0,0,0,0,0,0,1619952883172,3682,3682,3673,3655,0,0,27,,,,,,,0,0,0,-17.00,28.00,-1759.00,-627.00,0.00,-1628.00,6,501.00,0.00,874.41,0.00,0.00,0.00,0,,,100,100,0,2,0,0,0,2,2,,,,,0.0,0.0,0
55.941084,-4.404962,50.10,0.00,0.00,87.44,50.10,50.10,0.00,87.46,11963,2021-05-02 10:54:43.274,2021-05-02 11:54:43.273,17,0,0,14.679,55.940871,-4.406299,0.00,0.00,0.00,1.60,2.80,-175.90,0,1,0,30,100,-7696,1035,14679,3097.50,4,P-GPS,1,0,0,0,0,0,0,1619952883273,3682,3682,3673,3655,0,0,27,,,,,,,0,0,0,-16.00,28.00,-1759.00,-627.00,0.00,-1628.00,6,501.00,0.00,874.43,0.00,0.00,0.00,0,,,100,100,0,2,0,0,0,2,2,,,,,0.0,0.0,0
55.941084,-4.404962,50.20,0.00,0.00,87.45,50.20,50.20,0.00,87.46,12061,2021-05-02 10:54:43.371,2021-05-02 11:54:43.371,17,0,0,14.679,55.940871,-4.406299,0.00,0.00,0.00,1.40,3.20,-175.80,0,1,0,30,100,-7650,1032,14679,3097.50,4,P-GPS,1,0,0,0,0,0,0,1619952883371,3682,3682,3673,3655,0,0,27,,,,,,,0,0,0,-14.00,32.00,-1758.00,-627.00,0.00,-1628.00,6,502.00,0.00,874.46,0.00,0.00,0.00,0,,,100,100,0,2,0,0,0,2,2,,,,,0.0,0.0,0
55.941084,-4.404962,50.20,0.00,0.00,87.45,50.20,50.20,0.00,87.46,12164,2021-05-02 10:54:43.474,2021-05-02 11:54:43.474,17,0,0,14.679,55.940871,-4.406299,0.00,0.00,0.00,1.60,3.30,-175.80,0,1,0,30,100,-7650,1032,14679,3097.50,4,P-GPS,1,0,0,0,0,0,0,1619952883474,3682,3682,3673,3655,0,0,27,,,,,,,0,0,0,-16.00,33.00,-1758.00,-627.00,0.00,-1628.00,6,502.00,0.00,874.49,0.00,0.00,0.00,0,,,100,100,0,2,0,0,0,2,2,,,,,0.0,0.0,0
55.941084,-4.404962,50.20,0.00,0.00,87.45,50.20,50.20,0.00,87.46,12276,2021-05-02 10:54:43.586,2021-05-02 11:54:43.586,17,0,0,14.679,55.940871,-4.406299,0.00,0.00,0.00,1.70,3.20,-175.90,0,1,0,30,100,-7650,1032,14679,3097.50,4,P-GPS,1,0,0,0,0,0,0,1619952883586,3682,3682,3673,3655,0,0,27,,,,,,,0,0,0,-17.00,32.00,-1759.00,-627.00,0.00,-1628.00,6,502.00,0.00,874.47,0.00,0.00,0.00,0,,,100,100,0,2,0,0,0,2,2,,,,,0.0,0.0,0
55.941084,-4.404962,50.20,0.00,0.00,87.45,50.20,50.20,0.00,87.46,12362,2021-05-02 10:54:43.672,2021-05-02 11:54:43.672,17,0,0,14.679,55.940871,-4.406299,0.00,0.00,0.00,1.90,2.90,-175.70,0,1,0,30,100,-7650,1032,14679,3097.50,4,P-GPS,1,0,0,0,0,0,0,1619952883672,3682,3682,3673,3655,0,0,27,,,,,,,0,0,0,-19.00,29.00,-1757.00,-627.00,0.00,-1628.00,6,502.00,0.00,874.48,0.00,0.00,0.00,0,,,100,100,0,2,0,0,0,2,2,,,,,0.0,0.0,0
55.941084,-4.404962,50.20,0.00,0.00,87.44,50.20,50.20,0.00,87.46,12461,2021-05-02 10:54:43.771,2021-05-02 11:54:43.771,17,0,0,14.679,55.940871,-4.406299,0.00,0.00,0.00,1.80,2.90,-175.80,0,1,0,30,100,-7650,1032,14679,3097.50,4,P-GPS,1,0,0,0,0,0,0,1619952883771,3682,3682,3673,3655,0,0,27,,,,,,,0,0,0,-18.00,29.00,-1758.00,-627.00,0.00,-1628.00,6,502.00,0.00,874.43,0.00,0.00,0.00,0,,,100,100,0,2,0,0,0,2,2,,,,,0.0,0.0,0
55.941084,-4.404962,50.20,0.00,0.00,87.44,50.20,50.20,0.00,87.46,12566,2021-05-02 10:54:43.876,2021-05-02 11:54:43.876,17,0,0,14.679,55.940871,-4.406299,0.00,0.00,0.00,1.40,3.00,-176.00,0,1,0,30,100,-7650,1032,14679,3097.50,4,P-GPS,1,0,0,0,0,0,0,1619952883876,3682,3682,3673,3655,0,0,27,,,,,,,0,0,0,-14.00,30.00,-1760.00,-627.00,0.00,-1628.00,6,502.00,0.00,874.44,0.00,0.00,0.00,0,,,100,100,0,2,0,0,0,2,2,,,,,0.0,0.0,0
55.941084,-4.404962,50.20,0.00,0.00,87.44,50.20,50.20,0.00,87.46,12661,2021-05-02 10:54:43.971,2021-05-02 11:54:43.971,17,0,0,14.679,55.940871,-4.406299,0.00,0.00,0.00,1.10,3.20,-175.90,0,1,0,30,100,-7650,1032,14679,3097.50,4,P-GPS,1,0,0,0,0,0,0,1619952883971,3682,3682,3673,3655,0,0,27,,,,,,,0,0,0,-11.00,32.00,-1759.00,-627.00,0.00,-1628.00,6,502.00,0.00,874.43,0.00,0.00,0.00,0,,,100,100,0,2,0,0,0,2,2,,,,,0.0,0.0,0
55.941084,-4.404962,50.20,0.00,0.00,87.44,50.20,50.20,0.00,87.46,12763,2021-05-02 10:54:44.073,2021-05-02 11:54:44.073,17,0,0,14.679,55.940871,-4.406299,0.00,0.00,0.00,1.40,3.30,-175.90,0,1,0,30,100,-7650,1032,14679,3097.50,4,P-GPS,1,0,0,0,0,0,0,1619952884073,3682,3682,3673,3655,0,0,27,,,,,,,0,0,0,-14.00,33.00,-1759.00,-627.00,0.00,-1628.00,6,502.00,0.00,874.43,0.00,0.00,0.00,0,,,100,100,0,2,0,0,0,2,2,,,,,0.0,0.0,0
55.941084,-4.404962,50.20,0.00,0.00,87.44,50.20,50.20,0.00,87.46,12863,2021-05-02 10:54:44.173,2021-05-02 11:54:44.173,17,0,0,14.679,55.940871,-4.406299,0.00,0.00,0.00,1.50,2.90,-175.80,0,1,0,30,100,-7650,1032,14679,3097.50,4,P-GPS,1,0,0,0,0,0,0,1619952884173,3679,3679,3668,3652,0,0,27,,,,,,,0,0,0,-15.00,29.00,-1758.00,-627.00,0.00,-1628.00,6,502.00,0.00,874.41,0.00,0.00,0.00,0,,,100,100,0,2,0,0,0,2,2,,,,,0.0,0.0,0
55.941084,-4.404962,50.20,0.00,0.00,87.44,50.20,50.20,0.00,87.46,12968,2021-05-02 10:54:44.278,2021-05-02 11:54:44.278,17,0,0,14.679,55.940871,-4.406299,0.00,0.00,0.00,1.90,2.80,-175.70,0,1,0,30,100,-7650,1032,14679,3097.50,4,P-GPS,1,0,0,0,0,0,0,1619952884278,3679,3679,3668,3652,0,0,27,,,,,,,0,0,0,-19.00,28.00,-1757.00,-627.00,0.00,-1628.00,6,502.00,0.00,874.39,0.00,0.00,0.00,0,,,100,100,0,2,0,0,0,2,2,,,,,0.0,0.0,0
55.941084,-4.404962,50.20,0.00,0.00,87.44,50.20,50.20,0.00,87.46,13060,2021-05-02 10:54:44.370,2021-05-02 11:54:44.370,17,0,0,14.677,55.940871,-4.406299,0.00,0.00,0.00,2.60,2.80,-175.60,0,1,0,30,100,-7569,1030,14677,3097.50,4,P-GPS,1,0,0,0,0,0,0,1619952884370,3679,3679,3668,3652,0,0,27,,,,,,,0,0,0,-26.00,28.00,-1756.00,-627.00,0.00,-1628.00,6,502.00,0.00,874.36,0.00,0.00,0.00,0,,,100,100,0,2,0,0,0,2,2,,,,,0.0,0.0,0
55.941084,-4.404962,50.20,0.00,0.00,87.43,50.20,50.20,0.00,87.46,13173,2021-05-02 10:54:44.483,2021-05-02 11:54:44.483,17,0,0,14.677,55.940871,-4.406299,0.00,0.00,0.00,2.90,3.20,-175.50,0,1,0,30,100,-7569,1030,14677,3097.50,4,P-GPS,1,0,0,0,0,0,0,1619952884483,3679,3679,3668,3652,0,0,27,,,,,,,0,0,0,-29.00,32.00,-1755.00,-627.00,0.00,-1628.00,6,502.00,0.00,874.34,0.00,0.00,0.00,0,,,100,100,0,2,0,0,0,2,2,,,,,0.0,0.0,0
55.941083,-4.404962,50.20,0.00,0.00,87.44,50.20,50.20,0.00,87.46,13266,2021-05-02 10:54:44.576,2021-05-02 11:54:44.576,17,0,0,14.677,55.940871,-4.406299,0.00,0.00,0.00,3.30,3.00,-175.60,0,1,0,30,100,-7569,1030,14677,3097.50,4,P-GPS,1,0,0,0,0,0,0,1619952884576,3679,3679,3668,3652,0,0,27,,,,,,,0,0,0,-33.00,30.00,-1756.00,-627.00,0.00,-1628.00,6,502.00,0.00,874.36,0.00,0.00,0.00,0,,,100,100,0,2,0,0,0,2,2,,,,,0.0,0.0,0
55.941083,-4.404962,50.20,0.00,0.00,87.43,50.20,50.20,0.00,87.46,13367,2021-05-02 10:54:44.677,2021-05-02 11:54:44.677,17,0,0,14.677,55.940871,-4.406299,0.00,0.00,0.00,3.50,2.90,-175.60,0,1,0,30,100,-7569,1030,14677,3097.50,4,P-GPS,1,0,0,0,0,0,0,1619952884677,3679,3679,3668,3652,0,0,27,,,,,,,0,0,0,-35.00,29.00,-1756.00,-627.00,0.00,-1628.00,6,502.00,0.00,874.35,0.00,0.00,0.00,0,,,100,100,0,2,0,0,0,2,2,,,,,0.0,0.0,0
55.941083,-4.404962,50.20,0.00,0.00,87.45,50.20,50.20,0.00,87.46,13463,2021-05-02 10:54:44.773,2021-05-02 11:54:44.773,17,0,0,14.677,55.940871,-4.406299,0.00,0.00,0.00,3.50,2.80,-175.50,0,1,0,30,100,-7569,1030,14677,3097.50,4,P-GPS,1,0,0,0,0,0,0,1619952884773,3679,3679,3668,3652,0,0,27,,,,,,,0,0,0,-35.00,28.00,-1755.00,-627.00,0.00,-1628.00,6,502.00,0.00,874.46,0.00,0.00,0.00,0,,,100,100,0,2,0,0,0,2,2,,,,,0.0,0.0,0
55.941083,-4.404962,50.20,0.00,0.00,87.45,50.20,50.20,0.00,87.46,13566,2021-05-02 10:54:44.876,2021-05-02 11:54:44.876,17,0,0,14.677,55.940871,-4.406299,0.00,0.00,0.00,3.40,2.50,-175.60,0,1,0,30,100,-7569,1030,14677,3097.50,4,P-GPS,1,0,0,0,0,0,0,1619952884876,3679,3679,3668,3652,0,0,27,,,,,,,0,0,0,-34.00,25.00,-1756.00,-627.00,0.00,-1628.00,6,502.00,0.00,874.47,0.00,0.00,0.00,0,,,100,100,0,2,0,0,0,2,2,,,,,0.0,0.0,0
55.941083,-4.404962,50.20,0.00,0.00,87.45,50.20,50.20,0.00,87.46,13665,2021-05-02 10:54:44.975,2021-05-02 11:54:44.975,17,0,0,14.677,55.940871,-4.406299,0.00,0.00,0.00,3.20,2.70,-175.60,0,1,0,30,100,-7569,1030,14677,3097.50,4,P-GPS,1,0,0,0,0,0,0,1619952884975,3679,3679,3668,3652,0,0,27,,,,,,,0,0,0,-32.00,27.00,-1756.00,-627.00,0.00,-1628.00,6,502.00,0.00,874.49,0.00,0.00,0.00,0,,,100,100,0,2,0,0,0,2,2,,,,,0.0,0.0,0
55.941083,-4.404961,50.20,0.00,0.00,87.45,50.20,50.20,0.00,87.46,13770,2021-05-02 10:54:45.080,2021-05-02 11:54:45.080,17,0,0,14.677,55.940871,-4.406299,0.00,0.00,0.00,2.90,3.10,-175.70,0,1,0,30,100,-7569,1030,14677,3097.50,4,P-GPS,1,0,0,0,0,0,0,1619952885080,3679,3679,3668,3652,0,0,27,,,,,,,0,0,0,-29.00,31.00,-1757.00,-627.00,0.00,-1628.00,6,502.00,0.00,874.53,0.00,0.00,0.00,0,,,100,100,0,2,0,0,0,2,2,,,,,0.0,0.0,0
55.941083,-4.404961,50.20,0.00,0.00,87.46,50.20,50.20,0.00,87.46,13864,2021-05-02 10:54:45.174,2021-05-02 11:54:45.174,17,0,0,14.677,55.940871,-4.406299,0.00,0.00,0.00,2.80,3.50,-175.80,0,1,0,30,100,-7569,1030,14677,3097.50,4,P-GPS,1,0,0,0,0,0,0,1619952885174,3679,3679,3668,3652,0,0,27,,,,,,,0,0,0,-28.00,35.00,-1758.00,-627.00,0.00,-1628.00,6,502.00,0.00,874.64,0.00,0.00,0.00,0,,,100,100,0,2,0,0,0,2,2,,,,,0.0,0.0,0
55.941083,-4.404961,50.20,0.00,0.00,87.47,50.20,50.20,0.00,87.47,13965,2021-05-02 10:54:45.275,2021-05-02 11:54:45.275,17,0,0,14.677,55.940871,-4.406299,0.00,0.00,0.00,2.80,3.70,-175.60,0,1,0,30,100,-7569,1030,14677,3097.50,4,P-GPS,1,0,0,0,0,0,0,1619952885275,3679,3679,3668,3652,0,0,27,,,,,,,0,0,0,-28.00,37.00,-1756.00,-627.00,0.00,-1628.00,6,502.00,0.00,874.68,0.00,0.00,0.00,0,,,100,100,0,2,0,0,0,2,2,,,,,0.0,0.0,0
55.941083,-4.404961,50.20,0.00,0.00,87.48,50.20,50.20,0.00,87.48,14067,2021-05-02 10:54:45.377,2021-05-02 11:54:45.377,17,0,0,14.684,55.940871,-4.406299,0.00,0.00,0.00,2.70,3.40,-175.70,0,1,0,30,100,-7535,1028,14684,3097.50,4,P-GPS,1,0,0,0,0,0,0,1619952885377,3679,3679,3668,3652,0,0,27,,,,,,,0,0,0,-27.00,34.00,-1757.00,-627.00,0.00,-1628.00,6,502.00,0.00,874.79,0.00,0.00,0.00,0,,,100,100,0,2,0,0,0,2,2,,,,,0.0,0.0,0
55.941083,-4.404961,50.20,0.00,0.00,87.48,50.20,50.20,0.00,87.48,14170,2021-05-02 10:54:45.480,2021-05-02 11:54:45.480,17,0,0,14.684,55.940871,-4.406299,0.00,0.00,0.00,2.50,3.30,-175.60,0,1,0,30,100,-7535,1028,14684,3097.50,4,P-GPS,1,0,0,0,0,0,0,1619952885480,3679,3679,3668,3652,0,0,27,,,,,,,0,0,0,-25.00,33.00,-1756.00,-627.00,0.00,-1628.00,6,502.00,0.00,874.81,0.00,0.00,0.00,0,,,100,100,0,2,0,0,0,2,2,,,,,0.0,0.0,0
