latitude,longitude,altitude(m),ultrasonicHeight(m),speed(mps),distance(m),max_altitude(m),max_ascent(m),max_speed(mps),max_distance(m),time(millisecond),datetime(utc),datetime(local),satellites,pressure(Pa),temperature(F),voltage(v),home_latitude,home_longitude,velocityX(mps),velocityY(mps),velocityZ(mps),pitch(deg),roll(deg),yaw(deg),powerlevel,isflying,istakingphoto,remainPowerPercent,remainLifePercent,currentCurrent,currentElectricity,currentVoltage,batteryTemperature,dischargeCount,flightmode,isMotorsOn,isTakingVideo,Rc_elevator,Rc_aileron,Rc_throttle,Rc_rudder,Rc_gyro,timestamp,Battery_Cell1,Battery_Cell2,Battery_Cell3,Battery_Cell4,Battery_Cell5,Battery_Cell6,Dronetype,AppVersion,Planename,FlyControllerSerialNumber,RemoteSerialNumber,BatterySerialNumber,CENTER_BATTERY.productDate,CENTER_BATTERY.serialNo,CENTER_BATTERY.fullCapacity,CENTER_BATTERY.productDateRaw,pitchRaw,rollRaw,yawRaw,gimbalPitchRaw,gimbalRollRaw,gimbalYawRaw,flyState,altitudeRaw,speedRaw,distanceRaw,velocityXRaw,velocityYRaw,velocityZRaw,data_reuse,App_Tip,App_Warning,downlinkSignalQuality,uplinkSignalQuality,transmissionChannel,rcModeSwitch,rcHome,rcPause,rcTransform,rcJoystickMode,appMode,FlyControllerSerialNumber_legacy,RemoteSerialNumber_legacy,BatterySerialNumber_legacy,Battery2SerialNumber,frontAvoidDist,backAvoidDist,isBrakingToAvoid
55.940862,-4.406292,0.40,0.40,0.40,0.14,0.40,0.40,0.40,0.14,0,2021-05-02 11:19:33.069,2021-05-02 12:19:33.068,18,0,0,16.784,55.940862,-4.406294,0.00,0.00,-0.40,1.30,-1.50,60.00,0,1,0,98,100,-4312,3399,16784,2912.50,3,TakeOff,1,0,0,0,0,0,0,1619954373068,4223,4202,4185,4174,0,0,27,Litchi_4.18.0-g,CJTMAVIC,163DFAS001K45C,0VECFAK0072T52,0P2AFB353405ER,,0,0,0,-13.00,-15.00,600.00,0.00,0.00,605.00,11,4.00,4.00,1.45,0.00,0.00,-4.00,0,,,100,100,0,2,0,0,0,2,0,,,,null,0.0,2.5,0
55.940861,-4.406292,0.50,0.50,0.40,0.15,0.50,0.50,0.40,0.15,98,2021-05-02 11:19:33.166,2021-05-02 12:19:33.166,18,0,0,16.784,55.940862,-4.406294,0.00,0.00,-0.40,1.40,-1.50,60.00,0,1,0,98,100,-4312,3399,16784,2912.50,3,TakeOff,1,0,0,0,0,0,0,1619954373166,4223,4202,4185,4174,0,0,27,,,,,,,0,0,0,-14.00,-15.00,600.00,0.00,0.00,605.00,11,5.00,4.00,1.52,0.00,0.00,-4.00,0,,,100,100,0,2,0,0,0,2,0,,,,,0.0,2.5,0
55.940861,-4.406292,0.50,0.50,0.50,0.17,0.50,0.50,0.50,0.17,197,2021-05-02 11:19:33.265,2021-05-02 12:19:33.265,18,0,0,16.784,55.940862,-4.406294,0.00,0.00,-0.50,1.50,-1.50,60.00,0,1,0,98,100,-4312,3399,16784,2912.50,3,TakeOff,1,0,0,0,0,0,0,1619954373265,4223,4202,4185,4174,0,0,27,,,,,,,0,0,0,-15.00,-15.00,600.00,0.00,0.00,605.00,11,5.00,5.00,1.68,0.00,0.00,-5.00,0,,,100,100,0,2,0,0,0,2,0,,,,,0.0,2.5,0
55.940861,-4.406292,0.50,0.60,0.50,0.17,0.50,0.50,0.50,0.17,288,2021-05-02 11:19:33.356,2021-05-02 12:19:33.356,18,0,0,16.784,55.940862,-4.406294,0.00,0.00,-0.50,1.80,-1.40,60.00,0,1,0,98,100,-4312,3399,16784,2912.50,3,TakeOff,1,0,0,0,0,0,0,1619954373356,4223,4202,4185,4174,0,0,27,,,,,,,0,0,0,-18.00,-14.00,600.00,0.00,0.00,604.00,11,5.00,5.00,1.75,0.00,0.00,-5.00,0,,,100,100,0,2,0,0,0,2,0,,,,,0.0,2.5,0
55.940861,-4.406292,0.60,0.60,0.50,0.17,0.60,0.60,0.50,0.17,389,2021-05-02 11:19:33.457,2021-05-02 12:19:33.457,18,0,0,16.784,55.940862,-4.406294,0.00,0.00,-0.50,2.00,-1.30,60.00,0,1,0,98,100,-4312,3399,16784,2912.50,3,TakeOff,1,0,0,0,0,0,0,1619954373457,4223,4202,4185,4174,0,0,27,,,,,,,0,0,0,-20.00,-13.00,600.00,0.00,0.00,604.00,11,6.00,5.00,1.71,0.00,0.00,-5.00,0,,,100,100,0,2,0,0,0,2,0,,,,,0.0,2.6,0
55.940861,-4.406292,0.60,0.70,0.50,0.17,0.60,0.60,0.50,0.17,489,2021-05-02 11:19:33.557,2021-05-02 12:19:33.557,18,0,0,16.784,55.940862,-4.406294,0.00,0.00,-0.50,2.00,-1.20,60.00,0,1,0,98,100,-4312,3399,16784,2912.50,3,TakeOff,1,0,0,0,0,0,0,1619954373557,4223,4202,4185,4174,0,0,27,,,,,,,0,0,0,-20.00,-12.00,600.00,0.00,0.00,604.00,11,6.00,5.00,1.75,0.00,0.00,-5.00,0,,,100,100,0,2,0,0,0,2,0,,,,,0.0,2.6,0
55.940861,-4.406292,0.70,0.70,0.40,0.18,0.70,0.70,0.50,0.18,587,2021-05-02 11:19:33.655,2021-05-02 12:19:33.655,18,0,0,16.784,55.940862,-4.406294,0.00,0.00,-0.40,2.00,-0.90,60.00,0,1,0,98,100,-4312,3399,16784,2912.50,3,TakeOff,1,0,0,0,0,0,0,1619954373655,4223,4202,4185,4174,0,0,27,,,,,,,0,0,0,-20.00,-9.00,600.00,0.00,0.00,604.00,11,7.00,4.00,1.85,0.00,0.00,-4.00,0,,,100,100,0,2,0,0,0,2,0,,,,,0.0,3.2,0
55.940861,-4.406292,0.70,0.80,0.40,0.19,0.70,0.70,0.50,0.19,686,2021-05-02 11:19:33.755,2021-05-02 12:19:33.754,18,0,0,16.784,55.940862,-4.406294,0.00,0.00,-0.40,2.00,-0.70,59.90,0,1,0,98,100,-4312,3399,16784,2912.50,3,TakeOff,1,0,0,0,0,0,0,1619954373754,4223,4202,4185,4174,0,0,27,,,,,,,0,0,0,-20.00,-7.00,599.00,0.00,0.00,604.00,11,7.00,4.00,1.88,0.00,0.00,-4.00,0,,,100,100,0,2,0,0,0,2,0,,,,,0.0,3.2,0
55.940861,-4.406292,0.80,0.80,0.40,0.19,0.80,0.80,0.50,0.19,799,2021-05-02 11:19:33.867,2021-05-02 12:19:33.867,18,0,0,16.784,55.940862,-4.406294,0.00,0.00,-0.40,1.90,-0.70,60.00,0,1,0,98,100,-4312,3399,16784,2912.50,3,TakeOff,1,0,0,0,0,0,0,1619954373867,4223,4202,4185,4174,0,0,27,,,,,,,0,0,0,-19.00,-7.00,600.00,0.00,0.00,604.00,11,8.00,4.00,1.87,0.00,0.00,-4.00,0,,,100,100,0,2,0,0,0,2,0,,,,,0.0,5.3,0
55.940861,-4.406292,0.80,0.90,0.40,0.19,0.80,0.80,0.50,0.19,888,2021-05-02 11:19:33.956,2021-05-02 12:19:33.956,18,0,0,16.784,55.940862,-4.406294,0.00,0.00,-0.40,2.00,-0.70,60.00,0,1,0,98,100,-4312,3399,16784,2912.50,3,TakeOff,1,0,0,0,0,0,0,1619954373956,4223,4202,4185,4174,0,0,27,,,,,,,0,0,0,-20.00,-7.00,600.00,0.00,0.00,604.00,11,8.00,4.00,1.91,0.00,0.00,-4.00,0,,,100,100,0,2,0,0,0,2,0,,,,,0.0,5.3,0
55.940861,-4.406292,0.90,0.90,0.40,0.19,0.90,0.90,0.50,0.19,998,2021-05-02 11:19:34.067,2021-05-02 12:19:34.066,18,0,0,16.457,55.940862,-4.406294,0.00,0.00,-0.40,1.90,-0.80,59.90,0,1,0,98,100,-7001,3397,16457,2912.50,3,TakeOff,1,0,0,0,0,0,0,1619954374066,4223,4202,4185,4174,0,0,27,,,,,,,0,0,0,-19.00,-8.00,599.00,0.00,0.00,604.00,11,9.00,4.00,1.87,0.00,0.00,-4.00,0,,,100,100,0,2,0,0,0,2,0,,,,,0.0,5.3,0
55.940861,-4.406292,0.90,0.90,0.40,0.19,0.90,0.90,0.50,0.19,1087,2021-05-02 11:19:34.155,2021-05-02 12:19:34.155,18,0,0,16.457,55.940862,-4.406294,0.00,0.00,-0.40,1.90,-0.90,60.00,0,1,0,98,100,-7001,3397,16457,2912.50,3,TakeOff,1,0,0,0,0,0,0,1619954374155,4223,4202,4185,4174,0,0,27,,,,,,,0,0,0,-19.00,-9.00,600.00,0.00,0.00,604.00,11,9.00,4.00,1.91,0.00,0.00,-4.00,0,,,100,100,0,2,0,0,0,2,0,,,,,0.0,5.3,0
55.940861,-4.406292,1.00,1.00,0.40,0.18,1.00,1.00,0.50,0.19,1188,2021-05-02 11:19:34.256,2021-05-02 12:19:34.256,18,0,0,16.457,55.940862,-4.406294,0.00,0.00,-0.40,2.00,-0.90,60.00,0,1,0,98,100,-7001,3397,16457,2912.50,3,TakeOff,1,0,0,0,0,0,0,1619954374256,4223,4202,4185,4174,0,0,27,,,,,,,0,0,0,-20.00,-9.00,600.00,0.00,0.00,604.00,11,10.00,4.00,1.81,0.00,0.00,-4.00,0,,,100,100,0,2,0,0,0,2,0,,,,,0.0,5.9,0
55.940861,-4.406292,1.00,1.00,0.40,0.18,1.00,1.00,0.50,0.19,1300,2021-05-02 11:19:34.369,2021-05-02 12:19:34.368,18,0,0,16.457,55.940862,-4.406294,0.00,0.00,-0.40,2.00,-0.90,60.00,0,1,0,98,100,-7001,3397,16457,2912.50,3,TakeOff,1,0,0,0,0,0,0,1619954374368,4223,4202,4185,4174,0,0,27,,,,,,,0,0,0,-20.00,-9.00,600.00,0.00,0.00,604.00,11,10.00,4.00,1.83,0.00,0.00,-4.00,0,,,100,100,0,2,0,0,0,2,0,,,,,0.0,5.9,0
55.940861,-4.406292,1.00,1.10,0.40,0.19,1.00,1.00,0.50,0.19,1400,2021-05-02 11:19:34.468,2021-05-02 12:19:34.468,18,0,0,16.457,55.940862,-4.406294,0.00,0.00,-0.40,2.00,-0.80,60.00,0,1,0,98,100,-7001,3397,16457,2912.50,3,TakeOff,1,0,0,0,0,0,0,1619954374468,4223,4202,4185,4174,0,0,27,,,,,,,0,0,0,-20.00,-8.00,600.00,0.00,0.00,604.00,6,10.00,4.00,1.90,0.00,0.00,-4.00,0,,,100,100,0,2,0,0,0,2,0,,,,,0.0,5.5,0
55.940861,-4.406292,1.10,1.10,0.30,0.19,1.10,1.10,0.50,0.19,1501,2021-05-02 11:19:34.569,2021-05-02 12:19:34.569,18,0,0,16.457,55.940862,-4.406294,0.00,0.00,-0.30,2.20,-0.80,60.00,0,1,0,98,100,-7001,3397,16457,2912.50,3,P-GPS,1,0,0,0,0,0,0,1619954374569,4223,4202,4185,4174,0,0,27,,,,,,,0,0,0,-22.00,-8.00,600.00,0.00,0.00,604.00,6,11.00,3.00,1.93,0.00,0.00,-3.00,0,,,100,100,0,2,0,0,0,2,0,,,,,0.0,5.5,0
55.940861,-4.406292,1.10,1.20,0.10,0.20,1.10,1.10,0.50,0.20,1687,2021-05-02 11:19:34.755,2021-05-02 12:19:34.755,18,0,0,16.457,55.940862,-4.406294,0.00,0.00,-0.10,2.20,-0.90,60.00,0,1,0,98,100,-7001,3397,16457,2912.50,3,P-GPS,1,0,0,0,0,0,0,1619954374755,4223,4202,4185,4174,0,0,27,,,,,,,0,0,0,-22.00,-9.00,600.00,0.00,0.00,604.00,6,11.00,1.00,1.96,0.00,0.00,-1.00,0,,,100,100,0,2,0,0,0,2,0,,,,,0.0,5.5,0
55.940861,-4.406293,1.10,1.20,0.00,0.19,1.10,1.10,0.50,0.20,1803,2021-05-02 11:19:34.871,2021-05-02 12:19:34.871,18,0,0,16.457,55.940862,-4.406294,0.00,0.00,0.00,2.00,-0.90,60.00,0,1,0,98,100,-7001,3397,16457,2912.50,3,P-GPS,1,0,0,0,0,0,0,1619954374871,4223,4202,4185,4174,0,0,27,,,,,,,0,0,0,-20.00,-9.00,600.00,0.00,0.00,604.00,6,11.00,0.00,1.92,0.00,0.00,0.00,0,,,100,100,0,2,0,0,0,2,0,,,,,0.0,5.6,0
55.940861,-4.406293,1.10,1.20,0.00,0.20,1.10,1.10,0.50,0.20,1898,2021-05-02 11:19:34.966,2021-05-02 12:19:34.966,18,0,0,16.457,55.940862,-4.406294,0.00,0.00,0.00,1.90,-0.80,60.00,0,1,0,98,100,-7001,3397,16457,2912.50,3,P-GPS,1,0,0,0,0,0,0,1619954374966,4223,4202,4185,4174,0,0,27,,,,,,,0,0,0,-19.00,-8.00,600.00,0.00,0.00,604.00,6,11.00,0.00,1.96,0.00,0.00,0.00,0,,,100,100,0,2,0,0,0,2,0,,,,,0.0,5.6,0
55.940861,-4.406293,1.10,1.10,0.00,0.20,1.10,1.10,0.50,0.20,1999,2021-05-02 11:19:35.067,2021-05-02 12:19:35.067,18,0,0,16.440,55.940862,-4.406294,0.00,0.00,0.00,1.90,-0.80,60.00,0,1,0,98,100,-7072,3395,16440,2912.50,3,P-GPS,1,0,0,0,0,0,0,1619954375067,4223,4202,4185,4174,0,0,27,,,,,,,0,0,0,-19.00,-8.00,600.00,0.00,0.00,604.00,6,11.00,0.00,2.04,0.00,0.00,0.00,0,,,100,100,0,2,0,0,0,2,0,,,,,0.0,5.6,0
55.940861,-4.406293,1.10,1.10,0.00,0.21,1.10,1.10,0.50,0.21,2088,2021-05-02 11:19:35.156,2021-05-02 12:19:35.156,18,0,0,16.440,55.940862,-4.406294,0.00,0.00,0.00,1.90,-0.90,60.00,0,1,0,98,100,-7072,3395,16440,2912.50,3,P-GPS,1,0,0,0,0,0,0,1619954375156,4223,4202,4185,4174,0,0,27,,,,,,,0,0,0,-19.00,-9.00,600.00,0.00,0.00,604.00,6,11.00,0.00,2.10,0.00,0.00,0.00,0,,,100,100,0,2,0,0,0,2,0,,,,,0.0,5.6,0
55.940861,-4.406293,1.10,1.10,0.00,0.21,1.10,1.10,0.50,0.21,2186,2021-05-02 11:19:35.254,2021-05-02 12:19:35.254,18,0,0,16.440,55.940862,-4.406294,0.00,0.00,0.00,1.80,-1.00,59.90,0,1,0,98,100,-7072,3395,16440,2912.50,3,P-GPS,1,0,0,0,0,0,0,1619954375254,4223,4202,4185,4174,0,0,27,,,,,,,0,0,0,-18.00,-10.00,599.00,0.00,0.00,604.00,6,11.00,0.00,2.07,0.00,0.00,0.00,0,,,100,100,0,2,0,0,0,2,0,,,,,0.0,5.7,0
55.940860,-4.406293,1.10,1.10,0.00,0.21,1.10,1.10,0.50,0.21,2289,2021-05-02 11:19:35.357,2021-05-02 12:19:35.357,18,0,0,16.440,55.940862,-4.406294,0.00,0.00,0.00,1.90,-1.00,60.00,0,1,0,98,100,-7072,3395,16440,2912.50,3,P-GPS,1,0,0,0,0,0,0,1619954375357,4223,4202,4185,4174,0,0,27,,,,,,,0,0,0,-19.00,-10.00,600.00,0.00,0.00,604.00,6,11.00,0.00,2.13,0.00,0.00,0.00,0,,,100,100,0,2,0,0,0,2,0,,,,,0.0,5.7,0
55.940860,-4.406293,1.10,1.10,0.00,0.21,1.10,1.10,0.50,0.21,2403,2021-05-02 11:19:35.471,2021-05-02 12:19:35.471,18,0,0,16.440,55.940862,-4.406294,0.00,0.00,0.00,1.80,-1.00,60.00,0,1,0,98,100,-7072,3395,16440,2912.50,3,P-GPS,1,0,0,0,0,0,0,1619954375471,4223,4202,4185,4174,0,0,27,,,,,,,0,0,0,-18.00,-10.00,600.00,0.00,0.00,604.00,6,11.00,0.00,2.11,0.00,0.00,0.00,0,,,100,100,0,2,0,0,0,2,0,,,,,0.0,5.8,0
55.940860,-4.406293,1.10,1.10,0.00,0.22,1.10,1.10,0.50,0.22,2489,2021-05-02 11:19:35.557,2021-05-02 12:19:35.557,18,0,0,16.440,55.940862,-4.406294,0.00,0.00,0.00,1.80,-1.00,59.90,0,1,0,98,100,-7072,3395,16440,2912.50,3,P-GPS,1,0,0,0,0,0,0,1619954375557,4223,4202,4185,4174,0,0,27,,,,,,,0,0,0,-18.00,-10.00,599.00,0.00,0.00,604.00,6,11.00,0.00,2.17,0.00,0.00,0.00,0,,,100,100,0,2,0,0,0,2,0,,,,,0.0,5.8,0
55.940860,-4.406293,1.10,1.10,0.00,0.22,1.10,1.10,0.50,0.22,2601,2021-05-02 11:19:35.669,2021-05-02 12:19:35.669,18,0,0,16.440,55.940862,-4.406294,0.00,0.00,0.00,1.90,-1.00,60.00,0,1,0,98,100,-7072,3395,16440,2912.50,3,P-GPS,1,0,0,0,0,0,0,1619954375669,4223,4202,4185,4174,0,0,27,,,,,,,0,0,0,-19.00,-10.00,600.00,0.00,0.00,604.00,6,11.00,0.00,2.15,0.00,0.00,0.00,0,,,100,100,0,2,0,0,0,2,0,,,,,0.0,5.8,0
55.940860,-4.406294,1.10,1.10,0.00,0.22,1.10,1.10,0.50,0.22,2700,2021-05-02 11:19:35.768,2021-05-02 12:19:35.768,18,0,0,16.440,55.940862,-4.406294,0.00,0.00,0.00,1.80,-1.00,59.90,0,1,0,98,100,-7072,3395,16440,2912.50,3,P-GPS,1,0,0,0,0,0,0,1619954375768,4223,4202,4185,4174,0,0,27,,,,,,,0,0,0,-18.00,-10.00,599.00,0.00,0.00,604.00,6,11.00,0.00,2.21,0.00,0.00,0.00,0,,,100,100,0,2,0,0,0,2,0,,,,,0.0,5.8,0
55.940860,-4.406294,1.00,1.10,0.00,0.22,1.10,1.10,0.50,0.22,2808,2021-05-02 11:19:35.876,2021-05-02 12:19:35.876,18,0,0,16.440,55.940862,-4.406294,0.00,0.00,0.00,1.80,-1.00,59.90,0,1,0,98,100,-7072,3395,16440,2912.50,3,P-GPS,1,0,0,0,0,0,130,1619954375876,4223,4202,4185,4174,0,0,27,,,,,,,0,0,0,-18.00,-10.00,599.00,0.00,0.00,604.00,6,10.00,0.00,2.20,0.00,0.00,0.00,0,,,100,100,0,2,0,0,0,2,0,,,,,0.0,5.8,0
55.940860,-4.406294,1.00,1.10,0.00,0.23,1.10,1.10,0.50,0.23,2903,2021-05-02 11:19:35.971,2021-05-02 12:19:35.971,18,0,0,16.440,55.940862,-4.406294,0.00,0.00,0.00,1.80,-0.90,60.00,0,1,0,98,100,-7072,3395,16440,2912.50,3,P-GPS,1,0,0,0,0,0,116,1619954375971,4223,4202,4185,4174,0,0,27,,,,,,,0,0,0,-18.00,-9.00,600.00,4.00,0.00,604.00,6,10.00,0.00,2.25,0.00,0.00,0.00,0,,,100,100,0,2,0,0,0,2,0,,,,,0.0,5.8,0
55.940860,-4.406294,1.00,1.10,0.00,0.24,1.10,1.10,0.50,0.24,3002,2021-05-02 11:19:36.071,2021-05-02 12:19:36.070,18,0,0,16.513,55.940862,-4.406294,0.00,0.00,0.00,1.70,-1.00,59.90,0,1,0,97,100,-6560,3394,16513,2912.50,3,P-GPS,1,0,0,0,0,0,62,1619954376070,4223,4202,4185,4174,0,0,27,,,,,,,0,0,0,-17.00,-10.00,599.00,7.00,0.00,604.00,6,10.00,0.00,2.43,0.00,0.00,0.00,0,,,100,100,0,2,0,0,0,2,0,,,,,0.0,5.9,0
55.940860,-4.406294,1.00,1.10,0.00,0.25,1.10,1.10,0.50,0.25,3097,2021-05-02 11:19:36.165,2021-05-02 12:19:36.165,18,0,0,16.513,55.940862,-4.406294,0.00,0.00,0.00,1.60,-0.90,60.00,0,1,0,97,100,-6560,3394,16513,2912.50,3,P-GPS,1,0,0,0,0,0,0,1619954376165,4223,4202,4185,4174,0,0,27,,,,,,,0,0,0,-16.00,-9.00,600.00,8.00,0.00,604.00,6,10.00,0.00,2.50,0.00,0.00,0.00,0,,,100,100,0,2,0,0,0,2,0,,,,,0.0,5.9,0
55.940860,-4.406294,1.00,1.10,0.00,0.25,1.10,1.10,0.50,0.25,3201,2021-05-02 11:19:36.269,2021-05-02 12:19:36.269,18,0,0,16.513,55.940862,-4.406294,0.00,0.00,0.00,1.50,-0.80,60.00,0,1,0,97,100,-6560,3394,16513,2912.50,3,P-GPS,1,0,0,0,0,0,0,1619954376269,4223,4202,4185,4174,0,0,27,,,,,,,0,0,0,-15.00,-8.00,600.00,8.00,0.00,604.00,6,10.00,0.00,2.50,0.00,0.00,0.00,0,,,100,100,0,2,0,0,0,2,0,,,,,0.0,5.9,0
55.940860,-4.406294,1.00,1.10,0.00,0.26,1.10,1.10,0.50,0.26,3400,2021-05-02 11:19:36.468,2021-05-02 12:19:36.468,18,0,0,16.513,55.940862,-4.406294,0.00,0.00,0.00,1.60,-0.80,60.00,0,1,0,97,100,-6560,3394,16513,2912.50,3,P-GPS,1,0,0,0,10,0,0,1619954376468,4223,4202,4185,4174,0,0,27,,,,,,,0,0,0,-16.00,-8.00,600.00,8.00,0.00,604.00,6,10.00,0.00,2.58,0.00,0.00,0.00,0,,,100,100,0,2,0,0,0,2,0,,,,,0.0,6.3,0
55.940860,-4.406295,1.00,1.10,0.00,0.26,1.10,1.10,0.50,0.26,3501,2021-05-02 11:19:36.569,2021-05-02 12:19:36.569,18,0,0,16.513,55.940862,-4.406294,0.00,0.00,0.00,1.60,-0.80,60.00,0,1,0,97,100,-6560,3394,16513,2912.50,3,P-GPS,1,0,0,0,53,0,0,1619954376569,4223,4202,4185,4174,0,0,27,,,,,,,0,0,0,-16.00,-8.00,600.00,8.00,0.00,604.00,6,10.00,0.00,2.65,0.00,0.00,0.00,0,,,100,100,0,2,0,0,0,2,0,,,,,0.0,6.3,0
55.940860,-4.406295,1.00,1.10,0.00,0.27,1.10,1.10,0.50,0.27,3599,2021-05-02 11:19:36.668,2021-05-02 12:19:36.667,18,0,0,16.513,55.940862,-4.406294,0.00,0.00,0.00,1.60,-0.70,60.00,0,1,0,97,100,-6560,3394,16513,2912.50,3,P-GPS,1,0,0,0,141,0,0,1619954376667,4223,4202,4185,4174,0,0,27,,,,,,,0,0,0,-16.00,-7.00,600.00,8.00,0.00,604.00,6,10.00,0.00,2.66,0.00,0.00,0.00,0,,,100,100,0,2,0,0,0,2,0,,,,,0.0,6.3,0
55.940860,-4.406295,1.00,1.10,0.00,0.27,1.10,1.10,0.50,0.27,3693,2021-05-02 11:19:36.761,2021-05-02 12:19:36.761,18,0,0,16.513,55.940862,-4.406294,0.00,0.00,0.00,1.60,-0.60,60.00,0,1,0,97,100,-6560,3394,16513,2912.50,3,P-GPS,1,0,0,0,231,0,0,1619954376761,4223,4202,4185,4174,0,0,27,,,,,,,0,0,0,-16.00,-6.00,600.00,8.00,0.00,604.00,6,10.00,0.00,2.72,0.00,0.00,0.00,0,,,100,100,0,2,0,0,0,2,0,,,,,0.0,6.3,0
55.940860,-4.406295,1.00,1.10,0.20,0.28,1.10,1.10,0.50,0.28,3795,2021-05-02 11:19:36.863,2021-05-02 12:19:36.863,18,0,0,16.513,55.940862,-4.406294,0.00,0.00,-0.20,1.60,-0.40,59.90,0,1,0,97,100,-6560,3394,16513,2912.50,3,P-GPS,1,0,0,0,321,0,0,1619954376863,4223,4202,4185,4174,0,0,27,,,,,,,0,0,0,-16.00,-4.00,599.00,8.00,0.00,604.00,6,10.00,2.00,2.77,0.00,0.00,-2.00,0,,,100,100,0,2,0,0,0,2,0,,,,,0.0,6.3,0
55.940860,-4.406295,1.10,1.10,0.40,0.28,1.10,1.10,0.50,0.28,3890,2021-05-02 11:19:36.958,2021-05-02 12:19:36.958,18,0,0,16.513,55.940862,-4.406294,0.00,0.00,-0.40,1.40,-0.20,59.90,0,1,0,97,100,-6560,3394,16513,2912.50,3,P-GPS,1,0,0,0,363,0,0,1619954376958,4223,4202,4185,4174,0,0,27,,,,,,,0,0,0,-14.00,-2.00,599.00,8.00,0.00,604.00,6,11.00,4.00,2.82,0.00,0.00,-4.00,0,,,100,100,0,2,0,0,0,2,0,,,,,0.0,6.4,0
55.940860,-4.406295,1.10,1.20,0.70,0.29,1.10,1.10,0.70,0.29,3990,2021-05-02 11:19:37.058,2021-05-02 12:19:37.058,18,0,0,16.418,55.940862,-4.406294,0.00,0.00,-0.70,1.80,-0.50,59.90,0,1,0,97,100,-6845,3392,16418,2913.50,3,P-GPS,1,0,0,0,392,0,0,1619954377058,4223,4202,4185,4174,0,0,27,,,,,,,0,0,0,-18.00,-5.00,599.00,8.00,0.00,604.00,6,11.00,7.00,2.89,0.00,0.00,-7.00,0,,,100,100,0,2,0,0,0,2,0,,,,,0.0,6.4,0
55.940860,-4.406295,1.20,1.30,1.00,0.30,1.20,1.20,1.00,0.30,4090,2021-05-02 11:19:37.158,2021-05-02 12:19:37.158,18,0,0,16.418,55.940862,-4.406294,0.00,0.00,-1.00,2.50,-1.10,59.90,0,1,0,97,100,-6845,3392,16418,2913.50,3,P-GPS,1,0,0,0,393,0,0,1619954377158,4223,4202,4185,4174,0,0,27,,,,,,,0,0,0,-25.00,-11.00,599.00,8.00,0.00,604.00,6,12.00,10.00,2.96,0.00,0.00,-10.00,0,,,100,100,0,2,0,0,0,2,0,,,,,0.0,6.4,0
55.940859,-4.406295,1.30,1.40,1.10,0.30,1.30,1.30,1.10,0.30,4198,2021-05-02 11:19:37.266,2021-05-02 12:19:37.266,18,0,0,16.418,55.940862,-4.406294,0.00,0.00,-1.10,2.70,-1.10,59.90,0,1,0,97,100,-6845,3392,16418,2913.50,3,P-GPS,1,0,0,0,390,0,0,1619954377266,4223,4202,4185,4174,0,0,27,,,,,,,0,0,0,-27.00,-11.00,599.00,8.00,0.00,604.00,6,13.00,11.00,3.01,0.00,0.00,-11.00,0,,,100,100,0,2,0,0,0,2,0,,,,,0.0,6.4,0
55.940859,-4.406295,1.50,1.50,1.20,0.31,1.50,1.50,1.20,0.31,4299,2021-05-02 11:19:37.367,2021-05-02 12:19:37.367,18,0,0,16.418,55.940862,-4.406294,0.00,0.00,-1.20,2.70,-1.30,59.90,0,1,0,97,100,-6845,3392,16418,2913.50,3,P-GPS,1,0,0,0,385,0,0,1619954377367,4223,4202,4185,4174,0,0,27,,,,,,,0,0,0,-27.00,-13.00,599.00,8.00,0.00,604.00,6,15.00,12.00,3.08,0.00,0.00,-12.00,0,,,100,100,0,2,0,0,0,2,0,,,,,0.0,6.3,0
55.940859,-4.406295,1.60,1.60,1.20,0.31,1.60,1.60,1.20,0.31,4400,2021-05-02 11:19:37.468,2021-05-02 12:19:37.468,18,0,0,16.418,55.940862,-4.406294,0.00,0.00,-1.20,2.40,-1.30,59.90,0,1,0,97,100,-6845,3392,16418,2913.50,3,P-GPS,1,0,0,0,378,0,0,1619954377468,4223,4202,4185,4174,0,0,27,,,,,,,0,0,0,-24.00,-13.00,599.00,8.00,0.00,604.00,6,16.00,12.00,3.13,0.00,0.00,-12.00,0,,,100,100,0,2,0,0,0,2,0,,,,,0.0,6.3,0
55.940859,-4.406295,1.70,1.80,1.20,0.32,1.70,1.70,1.20,0.32,4501,2021-05-02 11:19:37.569,2021-05-02 12:19:37.569,17,0,0,16.418,55.940862,-4.406294,0.00,0.00,-1.20,2.10,-1.40,59.90,0,1,0,97,100,-6845,3392,16418,2913.50,3,P-GPS,1,0,0,0,363,0,0,1619954377569,4223,4202,4185,4174,0,0,27,,,,,,,0,0,0,-21.00,-14.00,599.00,8.00,0.00,604.00,6,17.00,12.00,3.21,0.00,0.00,-12.00,0,,,100,100,0,2,0,0,0,2,0,,,,,0.0,14.1,0
55.940860,-4.406295,1.80,1.90,1.10,0.29,1.80,1.80,1.20,0.32,4599,2021-05-02 11:19:37.667,2021-05-02 12:19:37.667,17,0,0,16.418,55.940862,-4.406294,0.00,0.00,-1.10,2.20,-1.40,59.90,0,1,0,97,100,-6845,3392,16418,2913.50,3,P-GPS,1,0,0,0,322,0,0,1619954377667,4223,4202,4185,4174,0,0,27,,,,,,,0,0,0,-22.00,-14.00,599.00,8.00,0.00,604.00,6,18.00,11.00,2.90,0.00,0.00,-11.00,0,,,100,100,0,2,0,0,0,2,0,,,,,0.0,14.1,0
55.940860,-4.406295,1.90,2.00,1.00,0.29,1.90,1.90,1.20,0.32,4700,2021-05-02 11:19:37.769,2021-05-02 12:19:37.768,18,0,0,16.418,55.940862,-4.406294,0.00,0.00,-1.00,2.30,-1.20,59.90,0,1,0,97,100,-6845,3392,16418,2913.50,3,P-GPS,1,0,0,0,299,0,0,1619954377768,4223,4202,4185,4174,0,0,27,,,,,,,0,0,0,-23.00,-12.00,599.00,8.00,0.00,604.00,6,19.00,10.00,2.93,0.00,0.00,-10.00,0,,,100,100,0,2,0,0,0,2,0,,,,,0.0,0.0,0
55.940860,-4.406294,2.00,2.10,0.80,0.30,2.00,2.00,1.20,0.32,4800,2021-05-02 11:19:37.868,2021-05-02 12:19:37.868,18,0,0,16.418,55.940862,-4.406294,0.00,0.00,-0.80,2.00,-1.00,59.90,0,1,0,97,100,-6845,3392,16418,2913.50,3,P-GPS,1,0,0,0,296,0,0,1619954377868,4223,4202,4185,4174,0,0,27,,,,,,,0,0,0,-20.00,-10.00,599.00,8.00,0.00,604.00,6,20.00,8.00,3.00,0.00,0.00,-8.00,0,,,100,100,0,2,0,0,0,2,0,,,,,0.0,0.0,0
55.940859,-4.406294,2.10,2.20,0.80,0.30,2.10,2.10,1.20,0.32,4899,2021-05-02 11:19:37.967,2021-05-02 12:19:37.967,18,0,0,16.418,55.940862,-4.406294,0.00,0.00,-0.80,1.70,-0.90,60.00,0,1,0,97,100,-6845,3392,16418,2913.50,3,P-GPS,1,0,0,0,298,0,0,1619954377967,4223,4202,4185,4174,0,0,27,,,,,,,0,0,0,-17.00,-9.00,600.00,8.00,0.00,604.00,6,21.00,8.00,3.04,0.00,0.00,-8.00,0,,,100,100,0,2,0,0,0,2,0,,,,,0.0,6.1,0
55.940860,-4.406294,2.20,2.30,0.70,0.28,2.20,2.20,1.20,0.32,4999,2021-05-02 11:19:38.067,2021-05-02 12:19:38.067,18,0,0,16.398,55.940862,-4.406294,0.00,0.00,-0.70,1.60,-1.20,59.90,0,1,0,97,100,-7906,3390,16398,2913.50,3,P-GPS,1,0,0,0,309,0,0,1619954378067,4223,4202,4185,4174,0,0,27,,,,,,,0,0,0,-16.00,-12.00,599.00,8.00,0.00,604.00,6,22.00,7.00,2.79,0.00,0.00,-7.00,0,,,100,100,0,2,0,0,0,2,0,,,,,0.0,6.1,0
55.940860,-4.406294,2.30,2.30,0.70,0.28,2.30,2.30,1.20,0.32,5100,2021-05-02 11:19:38.168,2021-05-02 12:19:38.168,18,0,0,16.398,55.940862,-4.406294,0.00,0.00,-0.70,1.90,-1.10,59.90,0,1,0,97,100,-7906,3390,16398,2913.50,3,P-GPS,1,0,0,0,316,0,0,1619954378168,4223,4202,4185,4174,0,0,27,,,,,,,0,0,0,-19.00,-11.00,599.00,8.00,0.00,604.00,6,23.00,7.00,2.79,0.00,0.00,-7.00,0,,,100,100,0,2,0,0,0,2,0,,,,,0.0,6.1,0
55.940860,-4.406294,2.40,2.40,0.70,0.27,2.40,2.40,1.20,0.32,5201,2021-05-02 11:19:38.269,2021-05-02 12:19:38.269,18,0,0,16.398,55.940862,-4.406294,0.00,0.00,-0.70,2.10,-1.20,59.90,0,1,0,97,100,-7906,3390,16398,2913.50,3,P-GPS,1,0,0,0,335,0,0,1619954378269,4223,4202,4185,4174,0,0,27,,,,,,,0,0,0,-21.00,-12.00,599.00,8.00,0.00,604.00,6,24.00,7.00,2.75,0.00,0.00,-7.00,0,,,100,100,0,2,0,0,0,2,0,,,,,0.0,6.1,0
55.940860,-4.406294,2.40,2.50,0.80,0.27,2.40,2.40,1.20,0.32,5301,2021-05-02 11:19:38.369,2021-05-02 12:19:38.369,17,0,0,16.398,55.940862,-4.406294,0.00,0.00,-0.80,2.30,-1.20,59.80,0,1,0,97,100,-7906,3390,16398,2913.50,3,P-GPS,1,0,0,0,368,0,0,1619954378369,4223,4202,4185,4174,0,0,27,,,,,,,0,0,0,-23.00,-12.00,598.00,8.00,0.00,604.00,6,24.00,8.00,2.74,0.00,0.00,-8.00,0,,,100,100,0,2,0,0,0,2,0,,,,,0.0,0.0,0
55.940859,-4.406294,2.50,2.60,0.90,0.31,2.50,2.50,1.20,0.32,5405,2021-05-02 11:19:38.474,2021-05-02 12:19:38.474,17,0,0,16.398,55.940862,-4.406294,0.00,0.00,-0.90,2.20,-0.90,59.90,0,1,0,97,100,-7906,3390,16398,2913.50,3,P-GPS,1,0,0,0,417,0,0,1619954378473,4223,4202,4185,4174,0,0,27,,,,,,,0,0,0,-22.00,-9.00,599.00,8.00,0.00,604.00,6,25.00,9.00,3.07,0.00,0.00,-9.00,0,,,100,100,0,2,0,0,0,2,0,,,,,0.0,0.0,0
55.940859,-4.406294,2.60,2.70,1.20,0.31,2.60,2.60,1.20,0.32,5501,2021-05-02 11:19:38.569,2021-05-02 12:19:38.569,17,0,0,16.398,55.940862,-4.406294,0.00,0.00,-1.20,2.30,-1.10,59.80,0,1,0,97,100,-7906,3390,16398,2913.50,3,P-GPS,1,0,78,0,388,0,0,1619954378569,4223,4202,4185,4174,0,0,27,,,,,,,0,0,0,-23.00,-11.00,598.00,8.00,0.00,604.00,6,26.00,12.00,3.10,0.00,0.00,-12.00,0,,,100,100,0,2,0,0,0,2,0,,,,,0.0,0.0,0
55.940859,-4.406294,2.80,2.80,1.20,0.31,2.80,2.80,1.20,0.32,5601,2021-05-02 11:19:38.669,2021-05-02 12:19:38.669,18,0,0,16.398,55.940862,-4.406294,0.00,0.00,-1.20,2.10,-1.40,59.90,0,1,0,97,100,-7906,3390,16398,2913.50,3,P-GPS,1,0,245,0,388,0,0,1619954378669,4223,4202,4185,4174,0,0,27,,,,,,,0,0,0,-21.00,-14.00,599.00,8.00,0.00,604.00,6,28.00,12.00,3.06,0.00,0.00,-12.00,0,,,100,100,0,2,0,0,0,2,0,,,,,0.0,0.0,0
55.940859,-4.406294,2.90,2.90,1.20,0.31,2.90,2.90,1.20,0.32,5715,2021-05-02 11:19:38.783,2021-05-02 12:19:38.783,18,0,0,16.398,55.940862,-4.406294,0.00,0.00,-1.20,0.00,-1.60,59.90,0,1,0,97,100,-7906,3390,16398,2913.50,3,P-GPS,1,0,307,0,388,0,0,1619954378783,4223,4202,4185,4174,0,0,27,,,,,,,0,0,0,-0.00,-16.00,599.00,8.00,0.00,604.00,6,29.00,12.00,3.07,0.00,0.00,-12.00,0,,,100,100,0,2,0,0,0,2,0,,,,,0.0,0.0,0
55.940859,-4.406294,3.00,3.00,1.20,0.34,3.00,3.00,1.20,0.34,5801,2021-05-02 11:19:38.869,2021-05-02 12:19:38.869,18,0,0,16.398,55.940862,-4.406294,0.00,0.00,-1.20,-2.50,-1.50,59.90,0,1,0,97,100,-7906,3390,16398,2913.50,3,P-GPS,1,0,367,0,388,0,0,1619954378869,4223,4202,4185,4174,0,0,27,,,,,,,0,0,0,25.00,-15.00,599.00,8.00,0.00,604.00,6,30.00,12.00,3.36,0.00,0.00,-12.00,0,,,100,100,0,2,0,0,0,2,0,,,,,0.0,0.0,0
55.940859,-4.406294,3.10,3.20,1.20,0.33,3.10,3.10,1.20,0.34,5917,2021-05-02 11:19:38.985,2021-05-02 12:19:38.985,18,0,0,16.398,55.940862,-4.406294,0.00,0.10,-1.20,-5.60,-1.30,59.90,0,1,0,97,100,-7906,3390,16398,2913.50,3,P-GPS,1,0,428,0,384,0,0,1619954378985,4223,4202,4185,4174,0,0,27,,,,,,,0,0,0,56.00,-13.00,599.00,8.00,0.00,604.00,6,31.00,12.04,3.33,0.00,1.00,-12.00,0,,,100,100,0,2,0,0,0,2,0,,,,,0.0,0.0,0
55.940859,-4.406294,3.20,3.30,1.22,0.31,3.20,3.20,1.22,0.34,6003,2021-05-02 11:19:39.071,2021-05-02 12:19:39.071,18,0,0,16.410,55.940862,-4.406294,0.10,0.20,-1.20,-9.30,-1.00,60.00,0,1,0,97,100,-7021,3388,16410,2913.50,3,P-GPS,1,0,462,0,379,0,0,1619954379071,4223,4202,4185,4174,0,0,27,,,,,,,0,0,0,93.00,-10.00,600.00,8.00,0.00,604.00,6,32.00,12.21,3.11,1.00,2.00,-12.00,0,,,100,100,0,2,0,0,0,2,0,,,,,0.0,0.0,0
55.940860,-4.406293,3.40,3.40,1.28,0.30,3.40,3.40,1.28,0.34,6110,2021-05-02 11:19:39.179,2021-05-02 12:19:39.178,18,0,0,16.410,55.940862,-4.406294,0.20,0.40,-1.20,-12.60,-0.80,60.00,0,1,0,97,100,-7021,3388,16410,2913.50,3,P-GPS,1,0,469,0,376,0,0,1619954379178,4223,4202,4185,4174,0,0,27,,,,,,,0,0,0,126.00,-8.00,600.00,8.00,0.00,604.00,6,34.00,12.81,2.98,2.00,4.00,-12.00,0,,,100,100,0,2,0,0,0,2,0,,,,,0.0,0.0,0
55.940860,-4.406293,3.50,3.50,1.37,0.30,3.50,3.50,1.37,0.34,6200,2021-05-02 11:19:39.268,2021-05-02 12:19:39.268,18,0,0,16.410,55.940862,-4.406294,0.30,0.60,-1.20,-14.60,-0.80,60.10,0,1,0,97,100,-7021,3388,16410,2913.50,3,P-GPS,1,0,470,0,376,0,0,1619954379268,4223,4202,4185,4174,0,0,27,,,,,,,0,0,0,146.00,-8.00,601.00,8.00,0.00,604.00,6,35.00,13.75,2.97,3.00,6.00,-12.00,0,,,100,100,0,2,0,0,0,2,0,,,,,0.0,0.0,0
55.940860,-4.406291,3.60,3.60,1.58,0.30,3.60,3.60,1.58,0.34,6301,2021-05-02 11:19:39.369,2021-05-02 12:19:39.369,17,0,0,16.410,55.940862,-4.406294,0.50,0.90,-1.20,-15.30,-0.80,60.20,0,1,0,97,100,-7021,3388,16410,2913.50,3,P-GPS,1,0,470,0,376,0,0,1619954379369,4223,4202,4185,4174,0,0,27,,,,,,,0,0,0,153.00,-8.00,602.00,8.00,0.00,604.00,6,36.00,15.81,3.03,5.00,9.00,-12.00,0,,,100,100,0,2,0,0,0,2,0,,,,,0.0,0.0,0
55.940861,-4.406290,3.70,3.70,1.73,0.34,3.70,3.70,1.73,0.34,6402,2021-05-02 11:19:39.470,2021-05-02 12:19:39.470,17,0,0,16.410,55.940862,-4.406294,0.60,1.10,-1.20,-15.30,-1.00,60.90,0,1,0,97,100,-7021,3388,16410,2913.50,3,P-GPS,1,0,470,0,378,0,0,1619954379470,4223,4202,4185,4174,0,0,27,,,,,,,0,0,0,153.00,-10.00,609.00,8.00,0.00,604.00,6,37.00,17.35,3.36,6.00,11.00,-12.00,0,,,100,100,0,2,0,0,0,2,0,,,,,0.0,0.0,0
55.940861,-4.406288,3.90,3.80,1.97,0.44,3.90,3.90,1.97,0.44,6497,2021-05-02 11:19:39.565,2021-05-02 12:19:39.565,18,0,0,16.410,55.940862,-4.406294,0.70,1.40,-1.20,-15.00,-1.10,61.40,0,1,0,97,100,-7021,3388,16410,2913.50,3,P-GPS,1,0,468,0,387,0,0,1619954379565,4223,4202,4185,4174,0,0,27,,,,,,,0,0,0,150.00,-11.00,614.00,8.00,0.00,604.00,6,39.00,19.72,4.35,7.00,14.00,-12.00,0,,,100,100,0,2,0,0,0,2,0,,,,,0.0,0.0,0
55.940862,-4.406285,4.00,3.90,2.15,0.59,4.00,4.00,2.15,0.59,6599,2021-05-02 11:19:39.668,2021-05-02 12:19:39.667,18,0,0,16.410,55.940862,-4.406294,0.80,1.60,-1.20,-14.50,-1.20,62.00,0,1,0,97,100,-7021,3388,16410,2913.50,3,P-GPS,1,0,451,0,388,0,0,1619954379667,4223,4202,4185,4174,0,0,27,,,,,,,0,0,0,145.00,-12.00,620.00,8.00,0.00,604.00,6,40.00,21.54,5.92,8.00,16.00,-12.00,0,,,100,100,0,2,0,0,0,2,0,,,,,0.0,0.0,0
55.940862,-4.406282,4.10,4.00,2.46,0.77,4.10,4.10,2.46,0.77,6702,2021-05-02 11:19:39.770,2021-05-02 12:19:39.770,18,0,0,16.410,55.940862,-4.406294,1.00,1.90,-1.20,-13.30,-1.30,62.50,0,1,0,97,100,-7021,3388,16410,2913.50,3,P-GPS,1,0,427,0,389,0,0,1619954379770,4223,4202,4185,4174,0,0,27,,,,,,,0,0,0,133.00,-13.00,625.00,8.00,0.00,604.00,6,41.00,24.60,7.73,10.00,19.00,-12.00,0,,,100,100,0,2,0,0,0,2,0,,,,,0.0,0.0,0
55.940863,-4.406278,4.20,4.20,2.66,1.00,4.20,4.20,2.66,1.00,6800,2021-05-02 11:19:39.868,2021-05-02 12:19:39.868,18,0,0,16.410,55.940862,-4.406294,1.10,2.10,-1.20,-11.80,-1.30,62.90,0,1,0,97,100,-7021,3388,16410,2913.50,3,P-GPS,1,0,403,0,394,0,0,1619954379868,4223,4202,4185,4174,0,0,27,,,,,,,0,0,0,118.00,-13.00,629.00,8.00,0.00,604.00,6,42.00,26.57,10.01,11.00,21.00,-12.00,0,,,100,100,0,2,0,0,0,2,0,,,,,0.0,0.0,0
55.940864,-4.406275,4.40,4.30,2.90,1.24,4.40,4.40,2.90,1.24,6899,2021-05-02 11:19:39.967,2021-05-02 12:19:39.967,17,0,0,16.410,55.940862,-4.406294,1.20,2.30,-1.30,-9.60,-1.10,63.20,0,1,0,97,100,-7021,3388,16410,2913.50,3,P-GPS,1,0,357,0,395,0,0,1619954379967,4223,4202,4185,4174,0,0,27,,,,,,,0,0,0,96.00,-11.00,632.00,8.00,0.00,604.00,6,44.00,29.02,12.39,12.00,23.00,-13.00,0,,,100,100,0,2,0,0,0,2,0,,,,,0.0,0.0,0
55.940865,-4.406267,4.60,4.50,3.14,1.74,4.60,4.60,3.14,1.74,7088,2021-05-02 11:19:40.156,2021-05-02 12:19:40.156,18,0,0,16.319,55.940862,-4.406294,1.20,2.60,-1.30,-3.60,-0.80,64.00,0,1,0,97,100,-7785,3385,16319,2913.50,3,P-GPS,1,0,310,0,410,0,0,1619954380156,4223,4202,4185,4174,0,0,27,,,,,,,0,0,0,36.00,-8.00,640.00,8.00,0.00,604.00,6,46.00,31.45,17.43,12.00,26.00,-13.00,0,,,100,100,0,2,0,0,0,2,0,,,,,0.0,0.0,0
55.940866,-4.406262,4.80,4.70,3.18,2.07,4.80,4.80,3.18,2.07,7207,2021-05-02 11:19:40.275,2021-05-02 12:19:40.275,18,0,0,16.319,55.940862,-4.406294,1.30,2.60,-1.30,-1.60,-0.70,64.30,0,1,0,97,100,-7785,3385,16319,2913.50,3,P-GPS,1,0,294,0,419,0,0,1619954380275,4223,4202,4185,4174,0,0,27,,,,,,,0,0,0,16.00,-7.00,643.00,8.00,0.00,604.00,6,48.00,31.84,20.74,13.00,26.00,-13.00,0,,,100,100,0,2,0,0,0,2,0,,,,,0.0,0.0,0
55.940868,-4.406253,5.00,5.00,3.35,2.63,5.00,5.00,3.35,2.63,7389,2021-05-02 11:19:40.457,2021-05-02 12:19:40.457,18,0,0,16.319,55.940862,-4.406294,1.30,2.70,-1.50,0.20,-1.00,64.60,0,1,0,97,100,-7785,3385,16319,2913.50,3,P-GPS,1,0,277,0,444,0,0,1619954380457,4223,4202,4185,4174,0,0,27,,,,,,,0,0,0,-2.00,-10.00,646.00,8.00,0.00,604.00,6,50.00,33.51,26.35,13.00,27.00,-15.00,0,,,100,100,0,2,0,0,0,2,0,,,,,0.0,0.0,0
55.940869,-4.406249,5.20,5.10,3.31,2.92,5.20,5.20,3.35,2.92,7484,2021-05-02 11:19:40.552,2021-05-02 12:19:40.552,18,0,0,16.319,55.940862,-4.406294,1.20,2.70,-1.50,0.90,-0.90,64.70,0,1,0,97,100,-7785,3385,16319,2913.50,3,P-GPS,1,0,259,0,457,0,0,1619954380552,4223,4202,4185,4174,0,0,27,,,,,,,0,0,0,-9.00,-9.00,647.00,8.00,0.00,604.00,6,52.00,33.14,29.20,12.00,27.00,-15.00,0,,,100,100,0,2,0,0,0,2,0,,,,,0.0,0.0,0
55.940869,-4.406244,5.40,5.30,3.41,3.22,5.40,5.40,3.41,3.22,7593,2021-05-02 11:19:40.661,2021-05-02 12:19:40.661,18,0,0,16.319,55.940862,-4.406294,1.20,2.70,-1.70,1.50,-1.10,64.70,0,1,0,97,100,-7785,3385,16319,2913.50,3,P-GPS,1,0,232,0,461,0,0,1619954380661,4223,4202,4185,4174,0,0,27,,,,,,,0,0,0,-15.00,-11.00,647.00,8.00,0.00,604.00,6,54.00,34.09,32.23,12.00,27.00,-17.00,0,,,100,100,0,2,0,0,0,2,0,,,,,0.0,0.0,0
55.940870,-4.406240,5.50,5.50,3.33,3.50,5.50,5.50,3.41,3.50,7704,2021-05-02 11:19:40.772,2021-05-02 12:19:40.772,18,0,0,16.319,55.940862,-4.406294,1.20,2.60,-1.70,2.20,-1.20,64.80,0,1,0,97,100,-7785,3385,16319,2913.50,3,P-GPS,1,0,217,0,463,0,0,1619954380772,4223,4202,4185,4174,0,0,27,,,,,,,0,0,0,-22.00,-12.00,648.00,8.00,0.00,604.00,6,55.00,33.30,35.03,12.00,26.00,-17.00,0,,,100,100,0,2,0,0,0,2,0,,,,,0.0,0.0,0
55.940871,-4.406236,5.70,5.60,3.38,3.78,5.70,5.70,3.41,3.78,7799,2021-05-02 11:19:40.867,2021-05-02 12:19:40.867,18,0,0,16.319,55.940862,-4.406294,1.20,2.60,-1.80,2.80,-1.30,65.60,0,1,0,97,100,-7785,3385,16319,2913.50,3,P-GPS,1,0,187,0,471,0,0,1619954380867,4223,4202,4185,4174,0,0,27,,,,,,,0,0,0,-28.00,-13.00,656.00,8.00,0.00,604.00,6,57.00,33.82,37.83,12.00,26.00,-18.00,0,,,100,100,0,2,0,0,0,2,0,,,,,0.0,0.0,0
55.940871,-4.406232,5.90,5.80,3.32,4.05,5.90,5.90,3.41,4.05,7901,2021-05-02 11:19:40.969,2021-05-02 12:19:40.969,18,0,0,16.319,55.940862,-4.406294,1.00,2.60,-1.80,3.30,-0.90,67.60,0,1,0,97,100,-7785,3385,16319,2913.50,3,P-GPS,1,0,128,0,477,0,0,1619954380969,4223,4202,4185,4174,0,0,27,,,,,,,0,0,0,-33.00,-9.00,676.00,8.00,0.00,604.00,6,59.00,33.17,40.53,10.00,26.00,-18.00,0,,,100,100,0,2,0,0,0,2,0,,,,,0.0,0.0,0
55.940873,-4.406223,6.30,6.20,3.16,4.59,6.30,6.30,3.41,4.59,8101,2021-05-02 11:19:41.169,2021-05-02 12:19:41.169,18,0,0,16.248,55.940862,-4.406294,0.80,2.40,-1.90,13.50,-1.40,68.90,0,1,0,97,100,-7723,3385,16248,2913.50,3,P-GPS,1,0,0,0,479,0,0,1619954381169,4223,4202,4185,4174,0,0,27,,,,,,,0,0,0,-135.00,-14.00,689.00,8.00,0.00,604.00,6,63.00,31.64,45.89,8.00,24.00,-19.00,0,,,100,100,0,2,0,0,0,2,0,,,,,0.0,0.0,0
55.940873,-4.406220,6.50,6.40,2.92,4.79,6.50,6.50,3.41,4.79,8212,2021-05-02 11:19:41.280,2021-05-02 12:19:41.280,18,0,0,16.248,55.940862,-4.406294,0.70,2.10,-1.90,20.70,-1.40,69.40,0,1,0,97,100,-7723,3385,16248,2913.50,3,P-GPS,1,0,0,0,481,0,0,1619954381280,4223,4202,4185,4174,0,0,27,,,,,,,0,0,0,-207.00,-14.00,694.00,8.00,0.00,604.00,6,65.00,29.17,47.93,7.00,21.00,-19.00,0,,,100,100,0,2,0,0,0,2,0,,,,,0.0,0.0,0
55.940874,-4.406215,6.90,6.70,2.42,5.15,6.90,6.90,3.41,5.15,8403,2021-05-02 11:19:41.471,2021-05-02 12:19:41.471,18,0,0,16.248,55.940862,-4.406294,0.40,1.30,-2.00,20.20,-0.90,70.20,0,1,0,97,100,-7723,3385,16248,2913.50,3,P-GPS,1,0,0,0,485,0,0,1619954381471,4223,4202,4185,4174,0,0,27,,,,,,,0,0,0,-202.00,-9.00,702.00,8.00,0.00,604.00,6,69.00,24.19,51.48,4.00,13.00,-20.00,0,,,100,100,0,2,0,0,0,2,0,,,,,0.0,0.0,0
55.940875,-4.406213,7.00,6.90,2.26,5.26,7.00,7.00,3.41,5.26,8498,2021-05-02 11:19:41.566,2021-05-02 12:19:41.566,18,0,0,16.248,55.940862,-4.406294,0.30,1.00,-2.00,16.40,-1.20,70.30,0,1,0,97,100,-7723,3385,16248,2913.50,3,P-GPS,1,0,0,0,487,0,0,1619954381566,4223,4202,4185,4174,0,0,27,,,,,,,0,0,0,-164.00,-12.00,703.00,8.00,0.00,604.00,6,70.00,22.56,52.63,3.00,10.00,-20.00,0,,,100,100,0,2,0,0,0,2,0,,,,,0.0,0.0,0
55.940875,-4.406212,7.20,7.20,2.16,5.36,7.20,7.20,3.41,5.36,8593,2021-05-02 11:19:41.661,2021-05-02 12:19:41.661,18,0,0,16.248,55.940862,-4.406294,0.20,0.80,-2.00,13.10,-1.30,70.30,0,1,0,97,100,-7723,3385,16248,2913.50,3,P-GPS,1,0,0,0,487,0,0,1619954381661,4223,4202,4185,4174,0,0,27,,,,,,,0,0,0,-131.00,-13.00,703.00,8.00,0.00,604.00,6,72.00,21.63,53.60,2.00,8.00,-20.00,0,,,100,100,0,2,0,0,0,2,0,,,,,0.0,0.0,0
55.940875,-4.406211,7.50,7.40,2.10,5.42,7.50,7.50,3.41,5.42,8701,2021-05-02 11:19:41.769,2021-05-02 12:19:41.769,18,0,0,16.248,55.940862,-4.406294,0.20,0.60,-2.00,10.60,-1.20,70.20,0,1,0,97,100,-7723,3385,16248,2913.50,3,P-GPS,1,0,0,0,488,0,0,1619954381769,4223,4202,4185,4174,0,0,27,,,,,,,0,0,0,-106.00,-12.00,702.00,8.00,0.00,604.00,6,75.00,20.98,54.22,2.00,6.00,-20.00,0,,,100,100,0,2,0,0,0,2,0,,,,,0.0,0.0,0
55.940875,-4.406209,7.70,7.60,2.14,5.50,7.70,7.70,3.41,5.50,8797,2021-05-02 11:19:41.865,2021-05-02 12:19:41.865,18,0,0,16.248,55.940862,-4.406294,0.10,0.40,-2.10,8.80,-1.10,70.30,0,1,0,97,100,-7723,3385,16248,2913.50,3,P-GPS,1,0,0,0,489,0,0,1619954381865,4223,4202,4185,4174,0,0,27,,,,,,,0,0,0,-88.00,-11.00,703.00,8.00,0.00,604.00,6,77.00,21.40,55.04,1.00,4.00,-21.00,0,,,100,100,0,2,0,0,0,2,0,,,,,0.0,0.0,0
55.940875,-4.406209,7.90,7.80,2.12,5.54,7.90,7.90,3.41,5.54,8901,2021-05-02 11:19:41.970,2021-05-02 12:19:41.969,18,0,0,16.248,55.940862,-4.406294,0.10,0.30,-2.10,7.30,-0.90,70.40,0,1,0,97,100,-7723,3385,16248,2913.50,3,P-GPS,1,0,0,0,489,0,0,1619954381969,4223,4202,4185,4174,0,0,27,,,,,,,0,0,0,-73.00,-9.00,704.00,8.00,0.00,604.00,6,79.00,21.24,55.35,1.00,3.00,-21.00,0,,,100,100,0,2,0,0,0,2,0,,,,,0.0,0.0,0
55.940875,-4.406209,8.10,8.00,2.10,5.52,8.10,8.10,3.41,5.54,9001,2021-05-02 11:19:42.069,2021-05-02 12:19:42.069,18,0,0,16.248,55.940862,-4.406294,0.00,0.10,-2.10,6.10,-0.70,70.40,0,1,0,97,100,-7723,3381,16248,2914.50,3,P-GPS,1,0,0,0,489,0,0,1619954382069,4223,4202,4185,4174,0,0,27,,,,,,,0,0,0,-61.00,-7.00,704.00,8.00,0.00,604.00,6,81.00,21.02,55.22,0.00,1.00,-21.00,0,,,100,100,0,2,0,0,0,2,0,,,,,0.0,0.0,0
55.940875,-4.406209,8.30,8.20,2.10,5.53,8.30,8.30,3.41,5.54,9097,2021-05-02 11:19:42.165,2021-05-02 12:19:42.165,18,0,0,16.248,55.940862,-4.406294,0.00,0.00,-2.10,5.10,-0.60,70.40,0,1,0,97,100,-7723,3381,16248,2914.50,3,P-GPS,1,0,0,0,489,0,0,1619954382165,4223,4202,4185,4174,0,0,27,,,,,,,0,0,0,-51.00,-6.00,704.00,8.00,0.00,604.00,6,83.00,21.00,55.30,0.00,0.00,-21.00,0,,,100,100,0,2,0,0,0,2,0,,,,,0.0,0.0,0
55.940875,-4.406209,8.50,8.40,2.10,5.53,8.50,8.50,3.41,5.54,9206,2021-05-02 11:19:42.274,2021-05-02 12:19:42.274,18,0,0,16.248,55.940862,-4.406294,0.00,0.00,-2.10,4.10,-0.80,70.50,0,1,0,97,100,-7723,3381,16248,2914.50,3,P-GPS,1,0,0,0,489,0,0,1619954382274,4223,4202,4185,4174,0,0,27,,,,,,,0,0,0,-41.00,-8.00,705.00,8.00,0.00,604.00,6,85.00,21.00,55.27,0.00,0.00,-21.00,0,,,100,100,0,2,0,0,0,2,0,,,,,0.0,0.0,0
55.940875,-4.406209,8.70,8.60,2.10,5.52,8.70,8.70,3.41,5.54,9299,2021-05-02 11:19:42.367,2021-05-02 12:19:42.367,18,0,0,16.248,55.940862,-4.406294,0.00,0.00,-2.10,3.30,-0.90,70.50,0,1,0,97,100,-7723,3381,16248,2914.50,3,P-GPS,1,0,0,0,489,0,0,1619954382367,4223,4202,4185,4174,0,0,27,,,,,,,0,0,0,-33.00,-9.00,705.00,8.00,0.00,604.00,6,87.00,21.00,55.24,0.00,0.00,-21.00,0,,,100,100,0,2,0,0,0,2,0,,,,,0.0,0.0,0
55.940875,-4.406209,8.90,8.70,2.10,5.51,8.90,8.90,3.41,5.54,9406,2021-05-02 11:19:42.474,2021-05-02 12:19:42.474,18,0,0,16.195,55.940862,-4.406294,0.00,0.00,-2.10,2.70,-0.90,70.50,0,1,0,97,100,-8218,3379,16195,2914.50,3,P-GPS,1,0,0,0,489,0,0,1619954382474,4083,4058,4036,4032,0,0,27,,,,,,,0,0,0,-27.00,-9.00,705.00,8.00,0.00,604.00,6,89.00,21.00,55.05,0.00,0.00,-21.00,0,,,100,100,0,2,0,0,0,2,0,,,,,0.0,0.0,0
55.940875,-4.406209,9.20,8.90,2.10,5.50,9.20,9.20,3.41,5.54,9505,2021-05-02 11:19:42.574,2021-05-02 12:19:42.574,18,0,0,16.195,55.940862,-4.406294,0.00,0.00,-2.10,2.30,-0.90,70.50,0,1,0,97,100,-8218,3379,16195,2914.50,3,P-GPS,1,0,0,0,489,0,0,1619954382573,4083,4058,4036,4032,0,0,27,,,,,,,0,0,0,-23.00,-9.00,705.00,8.00,0.00,604.00,6,92.00,21.00,54.97,0.00,0.00,-21.00,0,,,100,100,0,2,0,0,0,2,0,,,,,0.0,0.0,0
55.940875,-4.406210,9.40,9.10,2.10,5.49,9.40,9.40,3.41,5.54,9591,2021-05-02 11:19:42.659,2021-05-02 12:19:42.659,18,0,0,16.195,55.940862,-4.406294,0.00,0.00,-2.10,2.10,-0.70,70.50,0,1,0,97,100,-8218,3379,16195,2914.50,3,P-GPS,1,0,0,0,489,0,0,1619954382659,4083,4058,4036,4032,0,0,27,,,,,,,0,0,0,-21.00,-7.00,705.00,8.00,0.00,604.00,6,94.00,21.00,54.88,0.00,0.00,-21.00,0,,,100,100,0,2,0,0,0,2,0,,,,,0.0,0.0,0
55.940875,-4.406210,9.60,9.30,2.10,5.48,9.60,9.60,3.41,5.54,9688,2021-05-02 11:19:42.756,2021-05-02 12:19:42.756,18,0,0,16.195,55.940862,-4.406294,0.00,0.00,-2.10,1.80,-0.70,70.40,0,1,0,97,100,-8218,3379,16195,2914.50,3,P-GPS,1,0,0,0,479,0,0,1619954382756,4083,4058,4036,4032,0,0,27,,,,,,,0,0,0,-18.00,-7.00,704.00,8.00,0.00,604.00,6,96.00,21.00,54.80,0.00,0.00,-21.00,0,,,100,100,0,2,0,0,0,2,0,,,,,0.0,0.0,0
55.940875,-4.406210,9.80,9.50,2.00,5.46,9.80,9.80,3.41,5.54,9803,2021-05-02 11:19:42.871,2021-05-02 12:19:42.871,18,0,0,16.195,55.940862,-4.406294,0.00,0.00,-2.00,1.60,-1.00,70.50,0,1,0,97,100,-8218,3379,16195,2914.50,3,P-GPS,1,0,0,0,466,0,0,1619954382871,4083,4058,4036,4032,0,0,27,,,,,,,0,0,0,-16.00,-10.00,705.00,8.00,0.00,604.00,6,98.00,20.00,54.56,0.00,0.00,-20.00,0,,,100,100,0,2,0,0,0,2,0,,,,,0.0,0.0,0
55.940875,-4.406210,10.00,9.60,1.90,5.45,10.00,10.00,3.41,5.54,9902,2021-05-02 11:19:42.971,2021-05-02 12:19:42.970,18,0,0,16.195,55.940862,-4.406294,0.00,0.00,-1.90,1.40,-1.20,70.40,0,1,0,97,100,-8218,3379,16195,2914.50,3,P-GPS,1,0,0,0,466,0,0,1619954382970,4083,4058,4036,4032,0,0,27,,,,,,,0,0,0,-14.00,-12.00,704.00,8.00,0.00,604.00,6,100.00,19.00,54.47,0.00,0.00,-19.00,0,,,100,100,0,2,0,0,0,2,0,,,,,0.0,0.0,0
55.940875,-4.406210,10.20,9.80,1.90,5.45,10.20,10.20,3.41,5.54,9988,2021-05-02 11:19:43.056,2021-05-02 12:19:43.056,18,0,0,16.195,55.940862,-4.406294,0.00,0.00,-1.90,1.40,-1.20,70.40,0,1,0,97,100,-8218,3379,16195,2914.50,3,P-GPS,1,0,0,0,466,0,0,1619954383056,4083,4058,4036,4032,0,0,27,,,,,,,0,0,0,-14.00,-12.00,704.00,8.00,0.00,604.00,6,102.00,19.00,54.49,0.00,0.00,-19.00,0,,,100,100,0,2,0,0,0,2,0,,,,,0.0,0.0,0
55.940875,-4.406210,10.40,9.90,1.90,5.44,10.40,10.40,3.41,5.54,10094,2021-05-02 11:19:43.162,2021-05-02 12:19:43.162,18,0,0,16.195,55.940862,-4.406294,0.00,0.00,-1.90,1.40,-1.30,70.50,0,1,0,97,100,-8218,3379,16195,2914.50,3,P-GPS,1,0,0,0,466,0,0,1619954383162,4083,4058,4036,4032,0,0,27,,,,,,,0,0,0,-14.00,-13.00,705.00,8.00,0.00,604.00,6,104.00,19.00,54.43,0.00,0.00,-19.00,0,,,100,100,0,2,0,0,0,2,0,,,,,0.0,0.0,0
55.940875,-4.406211,10.60,10.10,1.90,5.40,10.60,10.60,3.41,5.54,10193,2021-05-02 11:19:43.261,2021-05-02 12:19:43.261,18,0,0,16.195,55.940862,-4.406294,0.00,0.00,-1.90,1.20,-1.30,70.50,0,1,0,97,100,-8218,3379,16195,2914.50,3,P-GPS,1,0,0,0,466,0,0,1619954383261,4083,4058,4036,4032,0,0,27,,,,,,,0,0,0,-12.00,-13.00,705.00,8.00,0.00,604.00,6,106.00,19.00,54.00,0.00,0.00,-19.00,0,,,100,100,0,2,0,0,0,2,0,,,,,0.0,0.0,0
55.940875,-4.406211,10.80,10.30,1.90,5.39,10.80,10.80,3.41,5.54,10294,2021-05-02 11:19:43.362,2021-05-02 12:19:43.362,18,0,0,16.195,55.940862,-4.406294,0.00,0.00,-1.90,1.20,-1.40,70.40,0,1,0,97,100,-8218,3379,16195,2914.50,3,P-GPS,1,0,0,0,466,0,0,1619954383362,4083,4058,4036,4032,0,0,27,,,,,,,0,0,0,-12.00,-14.00,704.00,8.00,0.00,604.00,6,108.00,19.00,53.93,0.00,0.00,-19.00,0,,,100,100,0,2,0,0,0,2,0,,,,,0.0,0.0,0
55.940875,-4.406211,11.00,10.50,1.80,5.40,11.00,11.00,3.41,5.54,10391,2021-05-02 11:19:43.459,2021-05-02 12:19:43.459,18,0,0,16.195,55.940862,-4.406294,0.00,0.00,-1.80,1.30,-1.60,70.50,0,1,0,97,100,-8218,3379,16195,2914.50,3,P-GPS,1,0,0,0,463,0,0,1619954383459,4083,4058,4036,4032,0,0,27,,,,,,,0,0,0,-13.00,-16.00,705.00,8.00,0.00,604.00,6,110.00,18.00,53.95,0.00,0.00,-18.00,0,,,100,100,0,2,0,0,0,2,0,,,,,0.0,0.0,0
55.940875,-4.406211,11.10,10.60,1.80,5.39,11.10,11.10,3.41,5.54,10487,2021-05-02 11:19:43.555,2021-05-02 12:19:43.555,18,0,0,16.195,55.940862,-4.406294,0.00,0.00,-1.80,1.40,-1.70,70.50,0,1,0,97,100,-8218,3379,16195,2914.50,3,P-GPS,1,0,0,0,455,0,0,1619954383555,4083,4058,4036,4032,0,0,27,,,,,,,0,0,0,-14.00,-17.00,705.00,8.00,0.00,604.00,6,111.00,18.00,53.92,0.00,0.00,-18.00,0,,,100,100,0,2,0,0,0,2,0,,,,,0.0,0.0,0
55.940875,-4.406211,11.30,10.80,1.80,5.38,11.30,11.30,3.41,5.54,10607,2021-05-02 11:19:43.675,2021-05-02 12:19:43.675,18,0,0,16.195,55.940862,-4.406294,0.00,0.00,-1.80,1.80,-2.00,70.60,0,1,0,97,100,-8218,3379,16195,2914.50,3,P-GPS,1,0,0,0,390,0,0,1619954383675,4083,4058,4036,4032,0,0,27,,,,,,,0,0,0,-18.00,-20.00,706.00,8.00,0.00,604.00,6,113.00,18.00,53.82,0.00,0.00,-18.00,0,,,100,100,0,2,0,0,0,2,0,,,,,0.0,0.0,0
55.940875,-4.406211,11.50,11.00,1.50,5.38,11.50,11.50,3.41,5.54,10703,2021-05-02 11:19:43.771,2021-05-02 12:19:43.771,18,0,0,16.195,55.940862,-4.406294,0.00,0.00,-1.50,2.30,-2.00,70.60,0,1,0,97,100,-8218,3379,16195,2914.50,3,P-GPS,1,0,0,0,304,0,0,1619954383771,4083,4058,4036,4032,0,0,27,,,,,,,0,0,0,-23.00,-20.00,706.00,8.00,0.00,604.00,6,115.00,15.00,53.80,0.00,0.00,-15.00,0,,,100,100,0,2,0,0,0,2,0,,,,,0.0,0.0,0
55.940875,-4.406211,11.50,11.00,1.50,5.38,11.50,11.50,3.41,5.54,10800,2021-05-02 11:19:43.868,2021-05-02 12:19:43.868,18,0,0,16.195,55.940862,-4.406294,0.00,0.00,-1.50,2.30,-2.00,70.60,0,1,0,97,100,-8218,3379,16195,2914.50,3,P-GPS,1,0,0,0,217,0,0,1619954383868,4083,4058,4036,4032,0,0,27,,,,,,,0,0,0,-23.00,-20.00,706.00,8.00,0.00,604.00,6,115.00,15.00,53.80,0.00,0.00,-12.00,0,,,100,100,0,2,0,0,0,2,0,,,,,0.0,0.0,0
55.940875,-4.406211,11.70,0.00,0.80,5.38,11.70,11.70,3.41,5.54,10900,2021-05-02 11:19:43.968,2021-05-02 12:19:43.968,18,0,0,16.272,55.940862,-4.406294,0.00,0.00,-0.80,2.80,-1.80,70.50,0,1,0,97,100,-7438,3377,16272,2914.50,3,P-GPS,1,0,0,0,103,0,0,1619954383968,4083,4058,4036,4032,0,0,27,,,,,,,0,0,0,-28.00,-18.00,705.00,8.00,0.00,604.00,6,117.00,8.00,53.84,0.00,0.00,-8.00,0,,,100,100,0,2,0,0,0,2,0,,,,,0.0,0.0,0
55.940875,-4.406211,11.80,0.00,0.40,5.38,11.80,11.80,3.41,5.54,10988,2021-05-02 11:19:44.056,2021-05-02 12:19:44.056,18,0,0,16.272,55.940862,-4.406294,0.00,0.00,-0.40,2.50,-1.60,70.60,0,1,0,97,100,-7438,3377,16272,2914.50,3,P-GPS,1,0,0,0,0,0,0,1619954384056,4083,4058,4036,4032,0,0,27,,,,,,,0,0,0,-25.00,-16.00,706.00,8.00,0.00,604.00,6,118.00,4.00,53.84,0.00,0.00,-4.00,0,,,100,100,0,2,0,0,0,2,0,,,,,0.0,0.0,0
55.940875,-4.406211,11.80,0.00,0.20,5.38,11.80,11.80,3.41,5.54,11105,2021-05-02 11:19:44.174,2021-05-02 12:19:44.174,18,0,0,16.272,55.940862,-4.406294,0.00,0.00,-0.20,2.10,-1.40,70.60,0,1,0,97,100,-7438,3377,16272,2914.50,3,P-GPS,1,0,0,0,0,0,0,1619954384173,4083,4058,4036,4032,0,0,27,,,,,,,0,0,0,-21.00,-14.00,706.00,8.00,0.00,604.00,6,118.00,2.00,53.84,0.00,0.00,-2.00,0,,,100,100,0,2,0,0,0,2,0,,,,,0.0,0.0,0
55.940875,-4.406211,11.80,0.00,0.00,5.39,11.80,11.80,3.41,5.54,11209,2021-05-02 11:19:44.277,2021-05-02 12:19:44.277,18,0,0,16.272,55.940862,-4.406294,0.00,0.00,0.00,2.00,-1.50,70.70,0,1,0,97,100,-7438,3377,16272,2914.50,3,P-GPS,1,0,0,0,0,0,0,1619954384277,4083,4058,4036,4032,0,0,27,,,,,,,0,0,0,-20.00,-15.00,707.00,8.00,0.00,604.00,6,118.00,0.00,53.92,0.00,0.00,0.00,0,,,100,100,0,2,0,0,0,2,0,,,,,0.0,0.0,0
55.940875,-4.406211,11.90,0.00,0.00,5.39,11.90,11.90,3.41,5.54,11300,2021-05-02 11:19:44.369,2021-05-02 12:19:44.368,18,0,0,16.272,55.940862,-4.406294,0.00,0.00,0.00,2.10,-1.80,70.60,0,1,0,97,100,-7438,3377,16272,2914.50,3,P-GPS,1,0,0,0,0,0,0,1619954384368,4083,4058,4036,4032,0,0,27,,,,,,,0,0,0,-21.00,-18.00,706.00,8.00,0.00,604.00,6,119.00,0.00,53.94,0.00,0.00,0.00,0,,,100,100,0,2,0,0,0,2,0,,,,,0.0,0.0,0
55.940874,-4.406211,11.80,0.00,0.00,5.39,11.90,11.90,3.41,5.54,11403,2021-05-02 11:19:44.472,2021-05-02 12:19:44.471,18,0,0,16.272,55.940862,-4.406294,0.00,0.00,0.00,2.30,-2.30,70.70,0,1,0,97,100,-7438,3377,16272,2914.50,3,P-GPS,1,0,0,0,0,0,0,1619954384471,4083,4058,4036,4032,0,0,27,,,,,,,0,0,0,-23.00,-23.00,707.00,8.00,0.00,604.00,6,118.00,0.00,53.90,0.00,0.00,0.00,0,,,100,100,0,2,0,0,0,2,0,,,,,0.0,0.0,0
55.940874,-4.406211,11.80,0.00,0.00,5.39,11.90,11.90,3.41,5.54,11594,2021-05-02 11:19:44.662,2021-05-02 12:19:44.662,18,0,0,16.272,55.940862,-4.406294,0.00,0.00,0.00,2.80,-2.20,70.50,0,1,0,97,100,-7438,3377,16272,2914.50,3,P-GPS,1,0,0,0,0,0,0,1619954384662,4083,4058,4036,4032,0,0,27,,,,,,,0,0,0,-28.00,-22.00,705.00,8.00,0.00,604.00,6,118.00,0.00,53.85,0.00,0.00,0.00,0,,,100,100,0,2,0,0,0,2,0,,,,,0.0,0.0,0
55.940874,-4.406211,11.80,0.00,0.00,5.38,11.90,11.90,3.41,5.54,11685,2021-05-02 11:19:44.753,2021-05-02 12:19:44.753,17,0,0,16.272,55.940862,-4.406294,0.00,0.00,0.00,2.80,-1.70,70.60,0,1,0,97,100,-7438,3377,16272,2914.50,3,P-GPS,1,0,0,0,0,0,0,1619954384753,4083,4058,4036,4032,0,0,27,,,,,,,0,0,0,-28.00,-17.00,706.00,8.00,0.00,604.00,6,118.00,0.00,53.84,0.00,0.00,0.00,0,,,100,100,0,2,0,0,0,2,0,,,,,0.0,0.0,0
55.940874,-4.406211,11.80,0.00,0.00,5.39,11.90,11.90,3.41,5.54,11793,2021-05-02 11:19:44.861,2021-05-02 12:19:44.861,17,0,0,16.272,55.940862,-4.406294,0.00,0.00,0.00,2.70,-1.70,70.60,0,1,0,97,100,-7438,3377,16272,2914.50,3,P-GPS,1,0,0,0,0,0,0,1619954384861,4083,4058,4036,4032,0,0,27,,,,,,,0,0,0,-27.00,-17.00,706.00,8.00,0.00,604.00,6,118.00,0.00,53.85,0.00,0.00,0.00,0,,,100,100,0,2,0,0,0,2,0,,,,,0.0,0.0,0
55.940874,-4.406211,11.80,0.00,0.00,5.38,11.90,11.90,3.41,5.54,11892,2021-05-02 11:19:44.960,2021-05-02 12:19:44.960,17,0,0,16.272,55.940862,-4.406294,0.00,0.00,0.00,2.60,-1.80,70.60,0,1,0,97,100,-7438,3377,16272,2914.50,3,P-GPS,1,0,0,0,0,0,0,1619954384960,4083,4058,4036,4032,0,0,27,,,,,,,0,0,0,-26.00,-18.00,706.00,8.00,0.00,604.00,6,118.00,0.00,53.83,0.00,0.00,0.00,0,,,100,100,0,2,0,0,0,2,0,,,,,0.0,0.0,0
55.940874,-4.406211,11.80,0.00,0.00,5.40,11.90,11.90,3.41,5.54,12000,2021-05-02 11:19:45.069,2021-05-02 12:19:45.068,17,0,0,16.460,55.940862,-4.406294,0.00,0.00,0.00,2.60,-2.00,70.60,0,1,0,97,100,-5692,3375,16460,2914.50,3,P-GPS,1,0,0,0,0,0,0,1619954385068,4083,4058,4036,4032,0,0,27,,,,,,,0,0,0,-26.00,-20.00,706.00,8.00,0.00,604.00,6,118.00,0.00,53.98,0.00,0.00,0.00,0,,,100,100,0,2,0,0,0,2,0,,,,,0.0,0.0,0
55.940874,-4.406211,11.70,0.00,0.00,5.40,11.90,11.90,3.41,5.54,12119,2021-05-02 11:19:45.187,2021-05-02 12:19:45.187,17,0,0,16.460,55.940862,-4.406294,0.00,0.00,0.00,2.70,-2.10,70.60,0,1,0,97,100,-5692,3375,16460,2914.50,3,P-GPS,1,0,0,0,0,0,0,1619954385187,4083,4058,4036,4032,0,0,27,,,,,,,0,0,0,-27.00,-21.00,706.00,8.00,0.00,604.00,6,117.00,0.00,53.96,0.00,0.00,0.00,0,,,100,100,0,2,0,0,0,2,0,,,,,0.0,0.0,0
55.940874,-4.406211,11.70,0.00,0.00,5.40,11.90,11.90,3.41,5.54,12199,2021-05-02 11:19:45.267,2021-05-02 12:19:45.267,17,0,0,16.460,55.940862,-4.406294,0.00,0.00,0.00,2.80,-2.40,70.50,0,1,0,97,100,-5692,3375,16460,2914.50,3,P-GPS,1,0,0,0,0,0,0,1619954385267,4083,4058,4036,4032,0,0,27,,,,,,,0,0,0,-28.00,-24.00,705.00,8.00,0.00,604.00,6,117.00,0.00,53.99,0.00,0.00,0.00,0,,,100,100,0,2,0,0,0,2,0,,,,,0.0,0.0,0
55.940874,-4.406211,11.70,0.00,0.00,5.40,11.90,11.90,3.41,5.54,12285,2021-05-02 11:19:45.353,2021-05-02 12:19:45.353,17,0,0,16.460,55.940862,-4.406294,0.00,0.00,0.00,2.80,-2.40,70.50,0,1,0,97,100,-5692,3375,16460,2914.50,3,P-GPS,1,0,0,0,0,0,0,1619954385353,4083,4058,4036,4032,0,0,27,,,,,,,0,0,0,-28.00,-24.00,705.00,8.00,0.00,604.00,6,117.00,0.00,53.98,0.00,0.00,0.00,0,,,100,100,0,2,0,0,0,2,0,,,,,0.0,0.0,0
55.940874,-4.406210,11.70,0.00,0.00,5.41,11.90,11.90,3.41,5.54,12390,2021-05-02 11:19:45.458,2021-05-02 12:19:45.458,17,0,0,16.460,55.940862,-4.406294,0.00,0.00,0.00,2.80,-2.60,70.40,0,1,0,97,100,-5692,3375,16460,2914.50,3,P-GPS,1,0,0,0,0,0,0,1619954385458,4083,4058,4036,4032,0,0,27,,,,,,,0,0,0,-28.00,-26.00,704.00,8.00,0.00,604.00,6,117.00,0.00,54.12,0.00,0.00,0.00,0,,,100,100,0,2,0,0,0,2,0,,,,,0.0,0.0,0
55.940874,-4.406210,11.70,0.00,0.00,5.41,11.90,11.90,3.41,5.54,12485,2021-05-02 11:19:45.554,2021-05-02 12:19:45.553,17,0,0,16.460,55.940862,-4.406294,0.00,0.00,0.00,2.80,-2.60,70.40,0,1,0,97,100,-5692,3375,16460,2914.50,3,P-GPS,1,0,0,0,0,0,0,1619954385553,4083,4058,4036,4032,0,0,27,,,,,,,0,0,0,-28.00,-26.00,704.00,8.00,0.00,604.00,6,117.00,0.00,54.11,0.00,0.00,0.00,0,,,100,100,0,2,0,0,0,2,0,,,,,0.0,0.0,0
55.940874,-4.406210,11.70,0.00,0.00,5.42,11.90,11.90,3.41,5.54,12582,2021-05-02 11:19:45.652,2021-05-02 12:19:45.650,17,0,0,16.460,55.940862,-4.406294,0.00,0.00,0.00,2.80,-2.70,70.40,0,1,0,97,100,-5692,3375,16460,2914.50,3,P-GPS,1,0,0,0,0,0,0,1619954385650,4083,4058,4036,4032,0,0,27,,,,,,,0,0,0,-28.00,-27.00,704.00,8.00,0.00,604.00,6,117.00,0.00,54.19,0.00,0.00,0.00,0,,,100,100,0,2,0,0,0,2,0,,,,,0.0,0.0,0
55.940874,-4.406210,11.70,0.00,0.00,5.42,11.90,11.90,3.41,5.54,12683,2021-05-02 11:19:45.751,2021-05-02 12:19:45.751,17,0,0,16.460,55.940862,-4.406294,0.00,0.00,0.00,2.50,-2.80,70.50,0,1,0,97,100,-5692,3375,16460,2914.50,3,P-GPS,1,0,0,0,0,0,0,1619954385751,4083,4058,4036,4032,0,0,27,,,,,,,0,0,0,-25.00,-28.00,705.00,8.00,0.00,604.00,6,117.00,0.00,54.18,0.00,0.00,0.00,0,,,100,100,0,2,0,0,0,2,0,,,,,0.0,0.0,0
55.940874,-4.406210,11.60,0.00,0.00,5.42,11.90,11.90,3.41,5.54,12784,2021-05-02 11:19:45.852,2021-05-02 12:19:45.852,17,0,0,16.460,55.940862,-4.406294,0.00,0.00,0.00,2.30,-2.90,70.50,0,1,0,97,100,-5692,3375,16460,2914.50,3,P-GPS,1,0,0,0,0,0,0,1619954385852,4083,4058,4036,4032,0,0,27,,,,,,,0,0,0,-23.00,-29.00,705.00,8.00,0.00,604.00,6,116.00,0.00,54.20,0.00,0.00,0.00,0,,,100,100,0,2,0,0,0,2,0,,,,,0.0,0.0,0
55.940874,-4.406210,11.60,0.00,0.00,5.42,11.90,11.90,3.41,5.54,12888,2021-05-02 11:19:45.956,2021-05-02 12:19:45.956,18,0,0,16.460,55.940862,-4.406294,0.00,0.00,0.00,2.20,-2.90,70.50,0,1,0,97,100,-5692,3375,16460,2914.50,3,P-GPS,1,0,0,0,0,0,0,1619954385956,4083,4058,4036,4032,0,0,27,,,,,,,0,0,0,-22.00,-29.00,705.00,8.00,0.00,604.00,6,116.00,0.00,54.19,0.00,0.00,0.00,0,,,100,100,0,2,0,0,0,2,0,,,,,0.0,0.0,0
55.940874,-4.406210,11.60,0.00,0.00,5.43,11.90,11.90,3.41,5.54,12993,2021-05-02 11:19:46.061,2021-05-02 12:19:46.061,18,0,0,16.282,55.940862,-4.406294,0.00,0.00,0.00,2.10,-2.90,70.50,0,1,0,97,100,-6992,3373,16282,2914.50,3,P-GPS,1,0,0,0,0,0,0,1619954386061,4083,4058,4036,4032,0,0,27,,,,,,,0,0,0,-21.00,-29.00,705.00,8.00,0.00,604.00,6,116.00,0.00,54.28,0.00,0.00,0.00,0,,,100,100,0,2,0,0,0,2,0,,,,,0.0,0.0,0
55.940874,-4.406210,11.60,0.00,0.00,5.43,11.90,11.90,3.41,5.54,13088,2021-05-02 11:19:46.157,2021-05-02 12:19:46.156,18,0,0,16.282,55.940862,-4.406294,0.00,0.00,0.00,2.10,-2.90,70.50,0,1,0,97,100,-6992,3373,16282,2914.50,3,P-GPS,1,0,0,0,0,0,0,1619954386156,4083,4058,4036,4032,0,0,27,,,,,,,0,0,0,-21.00,-29.00,705.00,8.00,0.00,604.00,6,116.00,0.00,54.30,0.00,0.00,0.00,0,,,100,100,0,2,0,0,0,2,0,,,,,0.0,0.0,0
55.940874,-4.406210,11.60,0.00,0.00,5.44,11.90,11.90,3.41,5.54,13192,2021-05-02 11:19:46.260,2021-05-02 12:19:46.260,18,0,0,16.282,55.940862,-4.406294,0.00,0.00,0.00,2.10,-2.80,70.50,0,1,0,97,100,-6992,3373,16282,2914.50,3,P-GPS,1,0,0,0,0,0,0,1619954386260,4083,4058,4036,4032,0,0,27,,,,,,,0,0,0,-21.00,-28.00,705.00,8.00,0.00,604.00,6,116.00,0.00,54.42,0.00,0.00,0.00,0,,,100,100,0,2,0,0,0,2,0,,,,,0.0,0.0,0
55.940874,-4.406210,11.60,0.00,0.00,5.45,11.90,11.90,3.41,5.54,13288,2021-05-02 11:19:46.356,2021-05-02 12:19:46.356,18,0,0,16.282,55.940862,-4.406294,0.00,0.00,0.00,2.10,-2.80,70.50,0,1,0,97,100,-6992,3373,16282,2914.50,3,P-GPS,1,0,0,0,0,0,0,1619954386356,4083,4058,4036,4032,0,0,27,,,,,,,0,0,0,-21.00,-28.00,705.00,8.00,0.00,604.00,6,116.00,0.00,54.46,0.00,0.00,0.00,0,,,100,100,0,2,0,0,0,2,0,,,,,0.0,0.0,0
55.940875,-4.406210,11.60,0.00,0.00,5.46,11.90,11.90,3.41,5.54,13387,2021-05-02 11:19:46.456,2021-05-02 12:19:46.455,18,0,0,16.282,55.940862,-4.406294,0.00,0.00,0.00,2.10,-2.70,70.50,0,1,0,97,100,-6992,3373,16282,2914.50,3,P-GPS,1,0,0,0,0,0,0,1619954386455,4083,4058,4036,4032,0,0,27,,,,,,,0,0,0,-21.00,-27.00,705.00,8.00,0.00,604.00,6,116.00,0.00,54.61,0.00,0.00,0.00,0,,,100,100,0,2,0,0,0,2,0,,,,,0.0,0.0,0
55.940875,-4.406210,11.60,0.00,0.00,5.46,11.90,11.90,3.41,5.54,13478,2021-05-02 11:19:46.546,2021-05-02 12:19:46.546,18,0,0,16.282,55.940862,-4.406294,0.00,0.00,0.00,2.10,-2.70,70.50,0,1,0,97,100,-6992,3373,16282,2914.50,3,P-GPS,1,0,0,0,0,0,0,1619954386546,4083,4058,4036,4032,0,0,27,,,,,,,0,0,0,-21.00,-27.00,705.00,8.00,0.00,604.00,6,116.00,0.00,54.61,0.00,0.00,0.00,0,,,100,100,0,2,0,0,0,2,0,,,,,0.0,0.0,0
55.940875,-4.406210,11.60,0.00,0.10,5.47,11.90,11.90,3.41,5.54,13602,2021-05-02 11:19:46.670,2021-05-02 12:19:46.670,18,0,0,16.282,55.940862,-4.406294,0.00,0.00,-0.10,2.30,-2.60,70.50,0,1,0,97,100,-6992,3373,16282,2914.50,3,P-GPS,1,0,0,0,0,0,0,1619954386670,4083,4058,4036,4032,0,0,27,,,,,,,0,0,0,-23.00,-26.00,705.00,8.00,0.00,604.00,6,116.00,1.00,54.71,0.00,0.00,-1.00,0,,,100,100,0,2,0,0,0,2,0,,,,,0.0,0.0,0
55.940875,-4.406210,11.60,0.00,0.10,5.48,11.90,11.90,3.41,5.54,13688,2021-05-02 11:19:46.756,2021-05-02 12:19:46.756,18,0,0,16.282,55.940862,-4.406294,0.00,0.00,-0.10,2.50,-2.50,70.50,0,1,0,97,100,-6992,3373,16282,2914.50,3,P-GPS,1,0,0,0,0,0,0,1619954386756,4083,4058,4036,4032,0,0,27,,,,,,,0,0,0,-25.00,-25.00,705.00,8.00,0.00,604.00,6,116.00,1.00,54.80,0.00,0.00,-1.00,0,,,100,100,0,2,0,0,0,2,0,,,,,0.0,0.0,0
55.940875,-4.406209,11.70,0.00,0.10,5.49,11.90,11.90,3.41,5.54,13790,2021-05-02 11:19:46.858,2021-05-02 12:19:46.858,18,0,0,16.282,55.940862,-4.406294,0.00,0.00,-0.10,2.80,-2.50,70.50,0,1,0,97,100,-6992,3373,16282,2914.50,3,P-GPS,1,0,0,0,0,0,0,1619954386858,4083,4058,4036,4032,0,0,27,,,,,,,0,0,0,-28.00,-25.00,705.00,8.00,0.00,604.00,6,117.00,1.00,54.88,0.00,0.00,-1.00,0,,,100,100,0,2,0,0,0,2,0,,,,,0.0,0.0,0
55.940875,-4.406209,11.70,0.00,0.10,5.50,11.90,11.90,3.41,5.54,13904,2021-05-02 11:19:46.972,2021-05-02 12:19:46.972,18,0,0,16.282,55.940862,-4.406294,0.00,0.00,-0.10,2.80,-2.40,70.40,0,1,0,97,100,-6992,3373,16282,2914.50,3,P-GPS,1,0,0,0,0,0,0,1619954386972,4083,4058,4036,4032,0,0,27,,,,,,,0,0,0,-28.00,-24.00,704.00,8.00,0.00,604.00,6,117.00,1.00,54.99,0.00,0.00,-1.00,0,,,100,100,0,2,0,0,0,2,0,,,,,0.0,0.0,0
55.940875,-4.406209,11.70,0.00,0.10,5.52,11.90,11.90,3.41,5.54,13990,2021-05-02 11:19:47.058,2021-05-02 12:19:47.058,18,0,0,16.268,55.940862,-4.406294,0.00,0.00,-0.10,2.80,-2.30,70.40,0,1,0,97,100,-7142,3371,16268,2914.50,3,P-GPS,1,0,0,0,0,0,0,1619954387058,4083,4058,4036,4032,0,0,27,,,,,,,0,0,0,-28.00,-23.00,704.00,8.00,0.00,604.00,6,117.00,1.00,55.24,0.00,0.00,-1.00,0,,,100,100,0,2,0,0,0,2,0,,,,,0.0,0.0,0
55.940875,-4.406209,11.70,0.00,0.10,5.54,11.90,11.90,3.41,5.54,14089,2021-05-02 11:19:47.157,2021-05-02 12:19:47.157,18,0,0,16.268,55.940862,-4.406294,0.00,0.00,-0.10,2.90,-2.40,70.40,0,1,0,97,100,-7142,3371,16268,2914.50,3,P-GPS,1,0,0,0,0,0,0,1619954387157,4083,4058,4036,4032,0,0,27,,,,,,,0,0,0,-29.00,-24.00,704.00,8.00,0.00,604.00,6,117.00,1.00,55.37,0.00,0.00,-1.00,0,,,100,100,0,2,0,0,0,2,0,,,,,0.0,0.0,0
55.940875,-4.406209,11.70,0.00,0.10,5.54,11.90,11.90,3.41,5.54,14193,2021-05-02 11:19:47.262,2021-05-02 12:19:47.262,18,0,0,16.268,55.940862,-4.406294,0.00,0.00,-0.10,3.00,-2.40,70.50,0,1,0,97,100,-7142,3371,16268,2914.50,3,P-GPS,1,0,0,0,0,0,0,1619954387261,4083,4058,4036,4032,0,0,27,,,,,,,0,0,0,-30.00,-24.00,705.00,8.00,0.00,604.00,6,117.00,1.00,55.44,0.00,0.00,-1.00,0,,,100,100,0,2,0,0,0,2,0,,,,,0.0,0.0,0
55.940875,-4.406209,11.70,0.00,0.10,5.56,11.90,11.90,3.41,5.56,14289,2021-05-02 11:19:47.357,2021-05-02 12:19:47.357,18,0,0,16.268,55.940862,-4.406294,0.00,0.00,-0.10,3.10,-2.50,70.50,0,1,0,97,100,-7142,3371,16268,2914.50,3,P-GPS,1,0,0,0,0,0,0,1619954387357,4083,4058,4036,4032,0,0,27,,,,,,,0,0,0,-31.00,-25.00,705.00,8.00,0.00,604.00,6,117.00,1.00,55.57,0.00,0.00,-1.00,0,,,100,100,0,2,0,0,0,2,0,,,,,0.0,0.0,0
55.940875,-4.406209,11.70,0.00,0.10,5.56,11.90,11.90,3.41,5.56,14405,2021-05-02 11:19:47.473,2021-05-02 12:19:47.473,18,0,0,16.268,55.940862,-4.406294,0.00,0.00,-0.10,3.10,-2.60,70.40,0,1,0,97,100,-7142,3371,16268,2914.50,3,P-GPS,1,0,0,0,0,0,0,1619954387473,4083,4058,4036,4032,0,0,27,,,,,,,0,0,0,-31.00,-26.00,704.00,8.00,0.00,604.00,6,117.00,1.00,55.57,0.00,0.00,-1.00,0,,,100,100,0,2,0,0,0,2,0,,,,,0.0,0.0,0
55.940876,-4.406208,11.70,0.00,0.10,5.58,11.90,11.90,3.41,5.58,14590,2021-05-02 11:19:47.658,2021-05-02 12:19:47.658,18,0,0,16.268,55.940862,-4.406294,0.00,0.00,-0.10,3.10,-2.80,70.50,0,1,0,97,100,-7142,3371,16268,2914.50,3,P-GPS,1,0,0,0,0,0,0,1619954387658,4083,4058,4036,4032,0,0,27,,,,,,,0,0,0,-31.00,-28.00,705.00,8.00,0.00,604.00,6,117.00,1.00,55.81,0.00,0.00,-1.00,0,,,100,100,0,2,0,0,0,2,0,,,,,0.0,0.0,0
55.940876,-4.406208,11.70,0.00,0.10,5.59,11.90,11.90,3.41,5.59,14690,2021-05-02 11:19:47.758,2021-05-02 12:19:47.758,18,0,0,16.268,55.940862,-4.406294,0.00,0.00,-0.10,3.00,-2.80,70.50,0,1,0,97,100,-7142,3371,16268,2914.50,3,P-GPS,1,0,0,0,0,0,0,1619954387758,4083,4058,4036,4032,0,0,27,,,,,,,0,0,0,-30.00,-28.00,705.00,8.00,0.00,604.00,6,117.00,1.00,55.93,0.00,0.00,-1.00,0,,,100,100,0,2,0,0,0,2,0,,,,,0.0,0.0,0
55.940876,-4.406208,11.70,0.00,0.10,5.60,11.90,11.90,3.41,5.60,14788,2021-05-02 11:19:47.856,2021-05-02 12:19:47.856,18,0,0,16.268,55.940862,-4.406294,0.00,0.00,-0.10,3.20,-2.80,70.60,0,1,0,97,100,-7142,3371,16268,2914.50,3,P-GPS,1,0,0,0,0,0,0,1619954387856,4083,4058,4036,4032,0,0,27,,,,,,,0,0,0,-32.00,-28.00,706.00,8.00,0.00,604.00,6,117.00,1.00,56.04,0.00,0.00,-1.00,0,,,100,100,0,2,0,0,0,2,0,,,,,0.0,0.0,0
55.940876,-4.406208,11.70,0.00,0.00,5.62,11.90,11.90,3.41,5.62,14909,2021-05-02 11:19:47.977,2021-05-02 12:19:47.977,18,0,0,16.268,55.940862,-4.406294,0.00,0.00,0.00,3.20,-2.90,70.70,0,1,0,97,100,-7142,3371,16268,2914.50,3,P-GPS,1,0,0,0,0,0,0,1619954387977,4083,4058,4036,4032,0,0,27,,,,,,,0,0,0,-32.00,-29.00,707.00,8.00,0.00,604.00,6,117.00,0.00,56.16,0.00,0.00,0.00,0,,,100,100,0,2,0,0,0,2,0,,,,,0.0,0.0,0
55.940876,-4.406208,11.70,0.00,0.10,5.63,11.90,11.90,3.41,5.63,15101,2021-05-02 11:19:48.169,2021-05-02 12:19:48.169,18,0,0,16.282,55.940862,-4.406294,0.00,0.00,-0.10,3.10,-2.60,70.60,0,1,0,97,100,-6935,3369,16282,2914.50,3,P-GPS,1,0,0,0,0,0,0,1619954388169,4083,4058,4036,4032,0,0,27,,,,,,,0,0,0,-31.00,-26.00,706.00,8.00,0.00,604.00,6,117.00,1.00,56.29,0.00,0.00,-1.00,0,,,100,100,0,2,0,0,0,2,0,,,,,0.0,0.0,0
