latitude,longitude,altitude(m),ultrasonicHeight(m),speed(mps),distance(m),max_altitude(m),max_ascent(m),max_speed(mps),max_distance(m),time(millisecond),datetime(utc),datetime(local),satellites,pressure(Pa),temperature(F),voltage(v),home_latitude,home_longitude,velocityX(mps),velocityY(mps),velocityZ(mps),pitch(deg),roll(deg),yaw(deg),powerlevel,isflying,istakingphoto,remainPowerPercent,remainLifePercent,currentCurrent,currentElectricity,currentVoltage,batteryTemperature,dischargeCount,flightmode,isMotorsOn,isTakingVideo,Rc_elevator,Rc_aileron,Rc_throttle,Rc_rudder,Rc_gyro,timestamp,Battery_Cell1,Battery_Cell2,Battery_Cell3,Battery_Cell4,Battery_Cell5,Battery_Cell6,Dronetype,AppVersion,Planename,FlyControllerSerialNumber,RemoteSerialNumber,BatterySerialNumber,CENTER_BATTERY.productDate,CENTER_BATTERY.serialNo,CENTER_BATTERY.fullCapacity,CENTER_BATTERY.productDateRaw,pitchRaw,rollRaw,yawRaw,gimbalPitchRaw,gimbalRollRaw,gimbalYawRaw,flyState,altitudeRaw,speedRaw,distanceRaw,velocityXRaw,velocityYRaw,velocityZRaw,data_reuse,App_Tip,App_Warning,downlinkSignalQuality,uplinkSignalQuality,transmissionChannel,rcModeSwitch,rcHome,rcPause,rcTransform,rcJoystickMode,appMode,FlyControllerSerialNumber_legacy,RemoteSerialNumber_legacy,BatterySerialNumber_legacy,Battery2SerialNumber,frontAvoidDist,backAvoidDist,isBrakingToAvoid
55.941233,-4.406596,49.90,0.00,0.00,45.39,49.90,49.90,0.00,45.39,0,2021-05-02 11:27:58.465,2021-05-02 12:27:58.465,17,0,0,15.609,55.940862,-4.406294,0.00,0.00,0.00,-3.40,-2.90,-34.30,0,1,0,69,100,-7077,2383,15609,3023.50,3,P-GPS,1,0,0,0,0,0,0,1619954878465,0,0,0,0,0,0,27,Litchi_4.18.0-g,,,,null,,0,0,0,34.00,-29.00,-343.00,-692.00,0.00,-456.00,6,499.00,0.00,453.90,0.00,0.00,0.00,0,,,100,100,0,2,0,0,0,2,0,,,,null,0.0,0.0,0
55.941233,-4.406596,49.90,0.00,0.00,45.39,49.90,49.90,0.00,45.39,114,2021-05-02 11:27:58.579,2021-05-02 12:27:58.579,17,0,0,15.609,55.940862,-4.406294,0.00,0.00,0.00,-3.30,-3.00,-34.40,0,1,0,69,100,-7077,2383,15609,3023.50,3,P-GPS,1,0,0,0,0,0,0,1619954878579,0,0,0,0,0,0,27,Litchi_4.18.0-g,CJTMAVIC,163DFAS001K45C,0VECFAK0072T52,0P2AFB353405ER,,0,0,0,33.00,-30.00,-344.00,-691.00,0.00,-456.00,6,499.00,0.00,453.95,0.00,0.00,0.00,0,,,100,100,0,2,0,0,0,2,0,,,,null,0.0,0.0,0
55.941233,-4.406596,49.90,0.00,0.00,45.39,49.90,49.90,0.00,45.39,207,2021-05-02 11:27:58.672,2021-05-02 12:27:58.672,17,0,0,15.609,55.940862,-4.406294,0.00,0.00,0.00,-3.50,-3.10,-34.30,0,1,0,69,100,-7077,2383,15609,3023.50,3,P-GPS,1,0,0,0,0,0,0,1619954878672,0,0,0,0,0,0,27,,,,,,,0,0,0,35.00,-31.00,-343.00,-692.00,0.00,-456.00,6,499.00,0.00,453.90,0.00,0.00,0.00,0,,,100,100,0,2,0,0,0,2,0,,,,,0.0,0.0,0
55.941233,-4.406596,49.90,0.00,0.00,45.40,49.90,49.90,0.00,45.40,405,2021-05-02 11:27:58.870,2021-05-02 12:27:58.870,17,0,0,15.609,55.940862,-4.406294,0.00,0.00,0.00,-3.30,-2.80,-34.30,0,1,0,69,100,-7077,2383,15609,3023.50,3,P-GPS,1,0,0,0,0,0,0,1619954878870,0,0,0,0,0,0,27,,,,,,,0,0,0,33.00,-28.00,-343.00,-692.00,0.00,-456.00,6,499.00,0.00,454.01,0.00,0.00,0.00,0,,,100,100,0,2,0,0,0,2,0,,,,,0.0,0.0,0
55.941233,-4.406596,49.90,0.00,0.00,45.41,49.90,49.90,0.00,45.41,497,2021-05-02 11:27:58.962,2021-05-02 12:27:58.962,17,0,0,15.609,55.940862,-4.406294,0.00,0.00,0.00,-3.10,-2.70,-34.30,0,1,0,69,100,-7077,2383,15609,3023.50,3,P-GPS,1,0,0,0,0,0,0,1619954878962,0,0,0,0,0,0,27,,,,,,,0,0,0,31.00,-27.00,-343.00,-692.00,0.00,-456.00,6,499.00,0.00,454.05,0.00,0.00,0.00,0,,,100,100,0,2,0,0,0,2,0,,,,,0.0,0.0,0
55.941233,-4.406596,49.90,0.00,0.00,45.42,49.90,49.90,0.00,45.42,601,2021-05-02 11:27:59.066,2021-05-02 12:27:59.066,17,0,0,15.609,55.940862,-4.406294,0.00,0.00,0.00,-3.10,-2.70,-34.20,0,1,0,69,100,-7077,2383,15609,3023.50,3,P-GPS,1,0,0,0,0,0,0,1619954879066,0,0,0,0,0,0,27,,,,,,,0,0,0,31.00,-27.00,-342.00,-692.00,0.00,-456.00,6,499.00,0.00,454.16,0.00,0.00,0.00,0,,,100,100,0,2,0,0,0,2,0,,,,,0.0,0.0,0
55.941233,-4.406596,49.90,0.00,0.00,45.42,49.90,49.90,0.00,45.42,706,2021-05-02 11:27:59.171,2021-05-02 12:27:59.171,17,0,0,15.609,55.940862,-4.406294,0.00,0.00,0.00,-3.10,-2.70,-34.20,0,1,0,69,100,-7077,2383,15609,3023.50,3,P-GPS,1,0,0,0,0,0,0,1619954879171,0,0,0,0,0,0,27,,,,,,,0,0,0,31.00,-27.00,-342.00,-691.00,0.00,-456.00,6,499.00,0.00,454.20,0.00,0.00,0.00,0,,,100,100,0,2,0,0,0,2,0,,,,,0.0,0.0,0
55.941233,-4.406596,49.90,0.00,0.00,45.43,49.90,49.90,0.00,45.43,800,2021-05-02 11:27:59.265,2021-05-02 12:27:59.265,17,0,0,15.614,55.940862,-4.406294,0.00,0.00,0.00,-3.20,-2.70,-34.20,0,1,0,69,100,-7033,2379,15614,3024.50,3,P-GPS,1,0,0,0,0,0,0,1619954879265,0,0,0,0,0,0,27,,,,,,,0,0,0,32.00,-27.00,-342.00,-692.00,0.00,-456.00,6,499.00,0.00,454.28,0.00,0.00,0.00,0,,,100,100,0,2,0,0,0,2,0,,,,,0.0,0.0,0
55.941233,-4.406596,49.90,0.00,0.00,45.43,49.90,49.90,0.00,45.43,908,2021-05-02 11:27:59.373,2021-05-02 12:27:59.373,17,0,0,15.614,55.940862,-4.406294,0.00,0.00,0.00,-3.30,-2.60,-34.30,0,1,0,69,100,-7033,2379,15614,3024.50,3,P-GPS,1,0,0,0,0,0,0,1619954879373,0,0,0,0,0,0,27,,,,,,,0,0,0,33.00,-26.00,-343.00,-692.00,0.00,-456.00,6,499.00,0.00,454.32,0.00,0.00,0.00,0,,,100,100,0,2,0,0,0,2,0,,,,,0.0,0.0,0
55.941233,-4.406596,49.90,0.00,0.00,45.44,49.90,49.90,0.00,45.44,997,2021-05-02 11:27:59.462,2021-05-02 12:27:59.462,17,0,0,15.614,55.940862,-4.406294,0.00,0.00,0.00,-3.20,-2.50,-34.30,0,1,0,69,100,-7033,2379,15614,3024.50,3,P-GPS,1,0,0,0,0,0,0,1619954879462,0,0,0,0,0,0,27,,,,,,,0,0,0,32.00,-25.00,-343.00,-691.00,0.00,-456.00,6,499.00,0.00,454.37,0.00,0.00,0.00,0,,,100,100,0,2,0,0,0,2,0,,,,,0.0,0.0,0
55.941233,-4.406596,49.90,0.00,0.00,45.44,49.90,49.90,0.00,45.44,1096,2021-05-02 11:27:59.561,2021-05-02 12:27:59.561,17,0,0,15.614,55.940862,-4.406294,0.00,0.00,0.00,-3.10,-2.70,-34.30,0,1,0,69,100,-7033,2379,15614,3024.50,3,P-GPS,1,0,0,0,0,0,0,1619954879561,0,0,0,0,0,0,27,,,,,,,0,0,0,31.00,-27.00,-343.00,-692.00,0.00,-456.00,6,499.00,0.00,454.40,0.00,0.00,0.00,0,,,100,100,0,2,0,0,0,2,0,,,,,0.0,0.0,0
55.941233,-4.406596,49.90,0.00,0.00,45.44,49.90,49.90,0.00,45.44,1189,2021-05-02 11:27:59.654,2021-05-02 12:27:59.654,17,0,0,15.614,55.940862,-4.406294,0.00,0.00,0.00,-3.30,-2.90,-34.30,0,1,0,69,100,-7033,2379,15614,3024.50,3,P-GPS,1,0,0,0,0,0,0,1619954879654,0,0,0,0,0,0,27,,,,,,,0,0,0,33.00,-29.00,-343.00,-692.00,0.00,-456.00,6,499.00,0.00,454.35,0.00,0.00,0.00,0,,,100,100,0,2,0,0,0,2,0,,,,,0.0,0.0,0
55.941233,-4.406596,49.90,0.00,0.00,45.44,49.90,49.90,0.00,45.44,1291,2021-05-02 11:27:59.756,2021-05-02 12:27:59.756,17,0,0,15.614,55.940862,-4.406294,0.00,0.00,0.00,-3.30,-2.80,-34.30,0,1,0,69,100,-7033,2379,15614,3024.50,3,P-GPS,1,0,0,0,0,0,0,1619954879756,0,0,0,0,0,0,27,,,,,,,0,0,0,33.00,-28.00,-343.00,-692.00,0.00,-456.00,6,499.00,0.00,454.37,0.00,0.00,0.00,0,,,100,100,0,2,0,0,0,2,0,,,,,0.0,0.0,0
55.941234,-4.406596,49.90,0.00,0.00,45.45,49.90,49.90,0.00,45.45,1413,2021-05-02 11:27:59.878,2021-05-02 12:27:59.878,17,0,0,15.614,55.940862,-4.406294,0.00,0.00,0.00,-3.40,-2.80,-34.30,0,1,0,69,100,-7033,2379,15614,3024.50,3,P-GPS,1,1,0,0,0,0,0,1619954879878,0,0,0,0,0,0,27,,,,,,,0,0,0,34.00,-28.00,-343.00,-691.00,0.00,-456.00,6,499.00,0.00,454.49,0.00,0.00,0.00,0,,,100,100,0,2,0,0,0,2,0,,,,,0.0,0.0,0
55.941234,-4.406597,49.90,0.00,0.00,45.45,49.90,49.90,0.00,45.45,1509,2021-05-02 11:27:59.974,2021-05-02 12:27:59.974,17,0,0,15.614,55.940862,-4.406294,0.00,0.00,0.00,-3.30,-2.80,-34.30,0,1,0,69,100,-7033,2379,15614,3024.50,3,P-GPS,1,1,0,0,0,0,0,1619954879974,0,0,0,0,0,0,27,,,,,,,0,0,0,33.00,-28.00,-343.00,-692.00,0.00,-456.00,6,499.00,0.00,454.53,0.00,0.00,0.00,0,,,100,100,0,2,0,0,0,2,0,,,,,0.0,0.0,0
55.941233,-4.406596,49.90,0.00,0.00,45.44,49.90,49.90,0.00,45.45,1605,2021-05-02 11:28:00.070,2021-05-02 12:28:00.070,17,0,0,15.614,55.940862,-4.406294,0.00,0.00,0.00,-3.20,-2.80,-34.30,0,1,0,69,100,-7033,2379,15614,3024.50,3,P-GPS,1,1,0,0,0,0,0,1619954880070,0,0,0,0,0,0,27,,,,,,,0,0,0,32.00,-28.00,-343.00,-692.00,0.00,-456.00,6,499.00,0.00,454.44,0.00,0.00,0.00,0,,,100,100,0,2,0,0,0,2,0,,,,,0.0,0.0,0
55.941234,-4.406596,49.90,0.00,0.00,45.45,49.90,49.90,0.00,45.45,1707,2021-05-02 11:28:00.173,2021-05-02 12:28:00.172,17,0,0,15.614,55.940862,-4.406294,0.00,0.00,0.00,-3.20,-2.80,-34.20,0,1,0,69,100,-7033,2379,15614,3024.50,3,P-GPS,1,1,0,0,0,0,0,1619954880172,0,0,0,0,0,0,27,,,,,,,0,0,0,32.00,-28.00,-342.00,-692.00,0.00,-456.00,6,499.00,0.00,454.47,0.00,0.00,0.00,0,,,100,100,0,2,0,0,0,2,0,,,,,0.0,0.0,0
55.941233,-4.406597,50.00,0.00,0.00,45.45,50.00,50.00,0.00,45.45,1895,2021-05-02 11:28:00.360,2021-05-02 12:28:00.360,17,0,0,15.598,55.940862,-4.406294,0.00,0.00,0.00,-3.20,-2.70,-34.30,0,1,0,68,100,-7199,2377,15598,3024.50,3,P-GPS,1,1,0,0,0,0,0,1619954880360,0,0,0,0,0,0,27,,,,,,,0,0,0,32.00,-27.00,-343.00,-692.00,0.00,-456.00,6,500.00,0.00,454.48,0.00,0.00,0.00,0,,,100,100,0,2,0,0,0,2,0,,,,,0.0,0.0,0
55.941233,-4.406597,50.00,0.00,0.00,45.44,50.00,50.00,0.00,45.45,2009,2021-05-02 11:28:00.474,2021-05-02 12:28:00.474,17,0,0,15.598,55.940862,-4.406294,0.00,0.00,0.00,-3.20,-2.70,-34.30,0,1,0,68,100,-7199,2377,15598,3024.50,3,P-GPS,1,1,0,0,0,0,0,1619954880474,0,0,0,0,0,0,27,,,,,,,0,0,0,32.00,-27.00,-343.00,-691.00,0.00,-456.00,6,500.00,0.00,454.44,0.00,0.00,0.00,0,,,100,100,0,2,0,0,0,2,0,,,,,0.0,0.0,0
55.941233,-4.406597,50.00,0.00,0.00,45.45,50.00,50.00,0.00,45.45,2110,2021-05-02 11:28:00.575,2021-05-02 12:28:00.575,17,0,0,15.598,55.940862,-4.406294,0.00,0.00,0.00,-3.10,-2.70,-34.30,0,1,0,68,100,-7199,2377,15598,3024.50,3,P-GPS,1,1,0,0,0,0,0,1619954880575,0,0,0,0,0,0,27,,,,,,,0,0,0,31.00,-27.00,-343.00,-691.00,0.00,-456.00,6,500.00,0.00,454.46,0.00,0.00,0.00,0,,,100,100,0,2,0,0,0,2,0,,,,,0.0,0.0,0
55.941233,-4.406597,50.00,0.00,0.00,45.44,50.00,50.00,0.00,45.45,2298,2021-05-02 11:28:00.763,2021-05-02 12:28:00.763,17,0,0,15.598,55.940862,-4.406294,0.00,0.00,0.00,-3.00,-2.70,-34.40,0,1,0,68,100,-7199,2377,15598,3024.50,3,P-GPS,1,1,0,0,0,0,0,1619954880763,0,0,0,0,0,0,27,,,,,,,0,0,0,30.00,-27.00,-344.00,-692.00,0.00,-456.00,6,500.00,0.00,454.45,0.00,0.00,0.00,0,,,100,100,0,2,0,0,0,2,0,,,,,0.0,0.0,0
55.941233,-4.406597,50.00,0.00,0.00,45.44,50.00,50.00,0.00,45.45,2387,2021-05-02 11:28:00.852,2021-05-02 12:28:00.852,17,0,0,15.598,55.940862,-4.406294,0.00,0.00,0.00,-2.90,-2.70,-34.40,0,1,0,68,100,-7199,2377,15598,3024.50,3,P-GPS,1,1,0,0,0,0,0,1619954880852,0,0,0,0,0,0,27,,,,,,,0,0,0,29.00,-27.00,-344.00,-691.00,0.00,-456.00,6,500.00,0.00,454.42,0.00,0.00,0.00,0,,,100,100,0,2,0,0,0,2,0,,,,,0.0,0.0,0
55.941233,-4.406597,50.00,0.00,0.00,45.44,50.00,50.00,0.00,45.45,2495,2021-05-02 11:28:00.961,2021-05-02 12:28:00.960,17,0,0,15.598,55.940862,-4.406294,0.00,0.00,0.00,-2.90,-2.80,-34.40,0,1,0,68,100,-7199,2377,15598,3024.50,3,P-GPS,1,1,0,0,0,0,0,1619954880960,0,0,0,0,0,0,27,,,,,,,0,0,0,29.00,-28.00,-344.00,-691.00,0.00,-456.00,6,500.00,0.00,454.42,0.00,0.00,0.00,0,,,100,100,0,2,0,0,0,2,0,,,,,0.0,0.0,0
55.941233,-4.406597,50.00,0.00,0.00,45.44,50.00,50.00,0.00,45.45,2610,2021-05-02 11:28:01.075,2021-05-02 12:28:01.075,17,0,0,15.598,55.940862,-4.406294,0.00,0.00,0.00,-3.00,-2.90,-34.40,0,1,0,68,100,-7199,2377,15598,3024.50,3,P-GPS,1,1,0,0,0,0,0,1619954881075,0,0,0,0,0,0,27,,,,,,,0,0,0,30.00,-29.00,-344.00,-692.00,0.00,-456.00,6,500.00,0.00,454.43,0.00,0.00,0.00,0,,,100,100,0,2,0,0,0,2,0,,,,,0.0,0.0,0
55.941233,-4.406597,50.00,0.00,0.00,45.44,50.00,50.00,0.00,45.45,2794,2021-05-02 11:28:01.260,2021-05-02 12:28:01.259,17,0,0,15.599,55.940862,-4.406294,0.00,0.00,0.00,-3.10,-3.00,-34.40,0,1,0,68,100,-7193,2377,15599,3024.50,3,P-GPS,1,1,0,0,0,0,0,1619954881259,0,0,0,0,0,0,27,,,,,,,0,0,0,31.00,-30.00,-344.00,-692.00,0.00,-456.00,6,500.00,0.00,454.39,0.00,0.00,0.00,0,,,100,100,0,2,0,0,0,2,0,,,,,0.0,0.0,0
55.941233,-4.406597,50.00,0.00,0.00,45.44,50.00,50.00,0.00,45.45,2908,2021-05-02 11:28:01.373,2021-05-02 12:28:01.373,17,0,0,15.599,55.940862,-4.406294,0.00,0.00,0.00,-3.30,-2.90,-34.40,0,1,0,68,100,-7193,2377,15599,3024.50,3,P-GPS,1,1,0,0,0,0,0,1619954881373,0,0,0,0,0,0,27,,,,,,,0,0,0,33.00,-29.00,-344.00,-692.00,0.00,-456.00,6,500.00,0.00,454.36,0.00,0.00,0.00,0,,,100,100,0,2,0,0,0,2,0,,,,,0.0,0.0,0
55.941233,-4.406597,50.00,0.00,0.00,45.42,50.00,50.00,0.00,45.45,3035,2021-05-02 11:28:01.501,2021-05-02 12:28:01.500,17,0,0,15.599,55.940862,-4.406294,0.00,0.00,0.00,-3.40,-2.80,-34.40,0,1,0,68,100,-7193,2377,15599,3024.50,3,P-GPS,1,1,0,0,0,0,0,1619954881500,0,0,0,0,0,0,27,,,,,,,0,0,0,34.00,-28.00,-344.00,-692.00,0.00,-456.00,6,500.00,0.00,454.19,0.00,0.00,0.00,0,,,100,100,0,2,0,0,0,2,0,,,,,0.0,0.0,0
55.941233,-4.406597,50.00,0.00,0.00,45.42,50.00,50.00,0.00,45.45,3202,2021-05-02 11:28:01.668,2021-05-02 12:28:01.667,17,0,0,15.608,55.940862,-4.406294,0.00,0.00,0.00,-3.60,-2.70,-34.40,0,1,0,68,100,-6993,2373,15608,3024.50,3,P-GPS,1,1,0,0,0,0,0,1619954881667,0,0,0,0,0,0,27,,,,,,,0,0,0,36.00,-27.00,-344.00,-692.00,0.00,-456.00,6,500.00,0.00,454.22,0.00,0.00,0.00,0,,,100,100,0,2,0,0,0,2,0,,,,,0.0,0.0,0
55.941233,-4.406597,50.00,0.00,0.00,45.42,50.00,50.00,0.00,45.45,3302,2021-05-02 11:28:01.768,2021-05-02 12:28:01.767,18,0,0,15.608,55.940862,-4.406294,0.00,0.00,0.00,-3.60,-2.70,-34.40,0,1,0,68,100,-6993,2373,15608,3024.50,3,P-GPS,1,1,0,0,0,0,0,1619954881767,0,0,0,0,0,0,27,,,,,,,0,0,0,36.00,-27.00,-344.00,-692.00,0.00,-456.00,6,500.00,0.00,454.20,0.00,0.00,0.00,0,,,100,100,0,2,0,0,0,2,0,,,,,0.0,0.0,0
55.941233,-4.406597,50.00,0.00,0.00,45.41,50.00,50.00,0.00,45.45,3394,2021-05-02 11:28:01.859,2021-05-02 12:28:01.859,18,0,0,15.608,55.940862,-4.406294,0.00,0.00,0.00,-3.50,-2.70,-34.40,0,1,0,68,100,-6993,2373,15608,3024.50,3,P-GPS,1,1,0,0,0,0,0,1619954881859,0,0,0,0,0,0,27,,,,,,,0,0,0,35.00,-27.00,-344.00,-691.00,0.00,-456.00,6,500.00,0.00,454.11,0.00,0.00,0.00,0,,,100,100,0,2,0,0,0,2,0,,,,,0.0,0.0,0
55.941233,-4.406597,50.00,0.00,0.00,45.41,50.00,50.00,0.00,45.45,3493,2021-05-02 11:28:01.958,2021-05-02 12:28:01.958,18,0,0,15.608,55.940862,-4.406294,0.00,0.00,0.00,-3.50,-2.90,-34.30,0,1,0,68,100,-6993,2373,15608,3024.50,3,P-GPS,1,1,0,0,0,0,0,1619954881958,0,0,0,0,0,0,27,,,,,,,0,0,0,35.00,-29.00,-343.00,-692.00,0.00,-456.00,6,500.00,0.00,454.08,0.00,0.00,0.00,0,,,100,100,0,2,0,0,0,2,0,,,,,0.0,0.0,0
55.941233,-4.406597,49.90,0.00,0.00,45.40,50.00,50.00,0.00,45.45,3605,2021-05-02 11:28:02.070,2021-05-02 12:28:02.070,18,0,0,15.608,55.940862,-4.406294,0.00,0.00,0.00,-3.60,-3.00,-34.30,0,1,0,68,100,-6993,2373,15608,3024.50,3,P-GPS,1,1,0,0,0,0,0,1619954882070,0,0,0,0,0,0,27,,,,,,,0,0,0,36.00,-30.00,-343.00,-692.00,0.00,-456.00,6,499.00,0.00,454.01,0.00,0.00,0.00,0,,,100,100,0,2,0,0,0,2,0,,,,,0.0,0.0,0
55.941233,-4.406597,50.00,0.00,0.00,45.40,50.00,50.00,0.00,45.45,3704,2021-05-02 11:28:02.169,2021-05-02 12:28:02.169,18,0,0,15.608,55.940862,-4.406294,0.00,0.00,0.00,-3.60,-2.80,-34.30,0,1,0,68,100,-6993,2373,15608,3024.50,3,P-GPS,1,1,0,0,0,0,0,1619954882169,0,0,0,0,0,0,27,,,,,,,0,0,0,36.00,-28.00,-343.00,-692.00,0.00,-456.00,6,500.00,0.00,453.99,0.00,0.00,0.00,0,,,100,100,0,2,0,0,0,2,0,,,,,0.0,0.0,0
55.941233,-4.406597,50.00,0.00,0.00,45.41,50.00,50.00,0.00,45.45,3892,2021-05-02 11:28:02.357,2021-05-02 12:28:02.357,18,0,0,15.608,55.940862,-4.406294,0.00,0.00,0.00,-3.10,-3.10,-34.30,0,1,0,68,100,-6993,2373,15608,3024.50,3,P-GPS,1,1,0,0,0,0,0,1619954882357,0,0,0,0,0,0,27,,,,,,,0,0,0,31.00,-31.00,-343.00,-691.00,0.00,-456.00,6,500.00,0.00,454.13,0.00,0.00,0.00,0,,,100,100,0,2,0,0,0,2,0,,,,,0.0,0.0,0
55.941233,-4.406597,50.00,0.00,0.00,45.40,50.00,50.00,0.00,45.45,3993,2021-05-02 11:28:02.458,2021-05-02 12:28:02.458,18,0,0,15.608,55.940862,-4.406294,0.00,0.00,0.00,-3.10,-3.10,-34.30,0,1,0,68,100,-6993,2373,15608,3024.50,3,P-GPS,1,1,0,0,0,0,0,1619954882458,0,0,0,0,0,0,27,,,,,,,0,0,0,31.00,-31.00,-343.00,-692.00,0.00,-456.00,6,500.00,0.00,454.03,0.00,0.00,0.00,0,,,100,100,0,2,0,0,0,2,0,,,,,0.0,0.0,0
55.941233,-4.406597,50.00,0.00,0.00,45.40,50.00,50.00,0.00,45.45,4094,2021-05-02 11:28:02.560,2021-05-02 12:28:02.559,18,0,0,15.608,55.940862,-4.406294,0.00,0.00,0.00,-3.10,-3.20,-34.30,0,1,0,68,100,-6993,2373,15608,3024.50,3,P-GPS,1,1,0,0,0,0,0,1619954882559,0,0,0,0,0,0,27,,,,,,,0,0,0,31.00,-32.00,-343.00,-691.00,0.00,-456.00,6,500.00,0.00,454.03,0.00,0.00,0.00,0,,,100,100,0,2,0,0,0,2,0,,,,,0.0,0.0,0
55.941233,-4.406597,50.00,0.00,0.00,45.40,50.00,50.00,0.00,45.45,4198,2021-05-02 11:28:02.663,2021-05-02 12:28:02.663,18,0,0,15.605,55.940862,-4.406294,0.00,0.00,0.00,-3.10,-3.20,-34.30,0,1,0,68,100,-6954,2371,15605,3024.50,3,P-GPS,1,1,0,0,0,0,0,1619954882663,0,0,0,0,0,0,27,,,,,,,0,0,0,31.00,-32.00,-343.00,-692.00,0.00,-456.00,6,500.00,0.00,453.95,0.00,0.00,0.00,0,,,100,100,0,2,0,0,0,2,0,,,,,0.0,0.0,0
55.941233,-4.406597,50.00,0.00,0.00,45.39,50.00,50.00,0.00,45.45,4299,2021-05-02 11:28:02.765,2021-05-02 12:28:02.764,18,0,0,15.605,55.940862,-4.406294,0.00,0.00,0.00,-3.10,-3.20,-34.30,0,1,0,68,100,-6954,2371,15605,3024.50,3,P-GPS,1,1,0,0,0,0,0,1619954882764,0,0,0,0,0,0,27,,,,,,,0,0,0,31.00,-32.00,-343.00,-692.00,0.00,-456.00,6,500.00,0.00,453.95,0.00,0.00,0.00,0,,,100,100,0,2,0,0,0,2,0,,,,,0.0,0.0,0
55.941233,-4.406597,50.00,0.00,0.00,45.39,50.00,50.00,0.00,45.45,4395,2021-05-02 11:28:02.860,2021-05-02 12:28:02.860,18,0,0,15.605,55.940862,-4.406294,0.00,0.00,0.00,-3.00,-3.20,-34.40,0,1,0,68,100,-6954,2371,15605,3024.50,3,P-GPS,1,1,0,0,0,0,0,1619954882860,0,0,0,0,0,0,27,,,,,,,0,0,0,30.00,-32.00,-344.00,-692.00,0.00,-456.00,6,500.00,0.00,453.85,0.00,0.00,0.00,0,,,100,100,0,2,0,0,0,2,0,,,,,0.0,0.0,0
55.941233,-4.406597,50.00,0.00,0.00,45.38,50.00,50.00,0.00,45.45,4495,2021-05-02 11:28:02.961,2021-05-02 12:28:02.960,18,0,0,15.605,55.940862,-4.406294,0.00,0.00,0.00,-2.80,-3.30,-34.30,0,1,0,68,100,-6954,2371,15605,3024.50,3,P-GPS,1,1,0,0,0,0,0,1619954882960,0,0,0,0,0,0,27,,,,,,,0,0,0,28.00,-33.00,-343.00,-692.00,0.00,-456.00,6,500.00,0.00,453.84,0.00,0.00,0.00,0,,,100,100,0,2,0,0,0,2,0,,,,,0.0,0.0,0
55.941233,-4.406597,50.00,0.00,0.00,45.39,50.00,50.00,0.00,45.45,4594,2021-05-02 11:28:03.060,2021-05-02 12:28:03.059,18,0,0,15.605,55.940862,-4.406294,0.00,0.00,0.00,-2.70,-3.30,-34.30,0,1,0,68,100,-6954,2371,15605,3024.50,3,P-GPS,1,1,0,0,0,0,0,1619954883059,0,0,0,0,0,0,27,,,,,,,0,0,0,27.00,-33.00,-343.00,-692.00,0.00,-456.00,6,500.00,0.00,453.86,0.00,0.00,0.00,0,,,100,100,0,2,0,0,0,2,0,,,,,0.0,0.0,0
55.941233,-4.406597,50.00,0.00,0.00,45.38,50.00,50.00,0.00,45.45,4694,2021-05-02 11:28:03.159,2021-05-02 12:28:03.159,18,0,0,15.605,55.940862,-4.406294,0.00,0.00,0.00,-2.80,-3.40,-34.30,0,1,0,68,100,-6954,2371,15605,3024.50,3,P-GPS,1,1,0,0,0,0,0,1619954883159,0,0,0,0,0,0,27,,,,,,,0,0,0,28.00,-34.00,-343.00,-692.00,0.00,-456.00,6,500.00,0.00,453.84,0.00,0.00,0.00,0,,,100,100,0,2,0,0,0,2,0,,,,,0.0,0.0,0
55.941233,-4.406597,50.00,0.00,0.00,45.38,50.00,50.00,0.00,45.45,4796,2021-05-02 11:28:03.261,2021-05-02 12:28:03.261,18,0,0,15.605,55.940862,-4.406294,0.00,0.00,0.00,-2.90,-3.40,-34.30,0,1,0,68,100,-6954,2371,15605,3024.50,3,P-GPS,1,1,0,0,0,0,0,1619954883261,0,0,0,0,0,0,27,,,,,,,0,0,0,29.00,-34.00,-343.00,-692.00,0.00,-456.00,6,500.00,0.00,453.76,0.00,0.00,0.00,0,,,100,100,0,2,0,0,0,2,0,,,,,0.0,0.0,0
55.941233,-4.406597,50.00,0.00,0.00,45.37,50.00,50.00,0.00,45.45,4898,2021-05-02 11:28:03.363,2021-05-02 12:28:03.363,18,0,0,15.605,55.940862,-4.406294,0.00,0.00,0.00,-3.00,-3.30,-34.40,0,1,0,68,100,-6954,2371,15605,3024.50,3,P-GPS,1,1,0,0,0,0,0,1619954883363,0,0,0,0,0,0,27,,,,,,,0,0,0,30.00,-33.00,-344.00,-692.00,0.00,-456.00,6,500.00,0.00,453.72,0.00,0.00,0.00,0,,,100,100,0,2,0,0,0,2,0,,,,,0.0,0.0,0
55.941233,-4.406597,50.00,0.00,0.00,45.37,50.00,50.00,0.00,45.45,4996,2021-05-02 11:28:03.461,2021-05-02 12:28:03.461,18,0,0,15.605,55.940862,-4.406294,0.00,0.00,0.00,-3.00,-3.50,-34.40,0,1,0,68,100,-6954,2371,15605,3024.50,3,P-GPS,1,1,0,0,0,0,0,1619954883461,0,0,0,0,0,0,27,,,,,,,0,0,0,30.00,-35.00,-344.00,-691.00,0.00,-456.00,6,500.00,0.00,453.74,0.00,0.00,0.00,0,,,100,100,0,2,0,0,0,2,0,,,,,0.0,0.0,0
55.941233,-4.406597,50.00,0.00,0.00,45.37,50.00,50.00,0.00,45.45,5111,2021-05-02 11:28:03.576,2021-05-02 12:28:03.576,18,0,0,15.605,55.940862,-4.406294,0.00,0.00,0.00,-3.00,-3.70,-34.30,0,1,0,68,100,-6954,2371,15605,3024.50,3,P-GPS,1,1,0,0,0,0,0,1619954883576,0,0,0,0,0,0,27,,,,,,,0,0,0,30.00,-37.00,-343.00,-692.00,0.00,-456.00,6,500.00,0.00,453.69,0.00,0.00,0.00,0,,,100,100,0,2,0,0,0,2,0,,,,,0.0,0.0,0
55.941233,-4.406597,50.00,0.00,0.00,45.37,50.00,50.00,0.00,45.45,5305,2021-05-02 11:28:03.772,2021-05-02 12:28:03.770,18,0,0,15.605,55.940862,-4.406294,0.00,0.00,0.00,-3.30,-3.20,-34.30,0,1,0,68,100,-6954,2371,15605,3024.50,3,P-GPS,1,1,0,0,0,0,0,1619954883770,0,0,0,0,0,0,27,,,,,,,0,0,0,33.00,-32.00,-343.00,-692.00,0.00,-456.00,6,500.00,0.00,453.73,0.00,0.00,0.00,0,,,100,100,0,2,0,0,0,2,0,,,,,0.0,0.0,0
55.941232,-4.406598,50.00,0.00,0.00,45.37,50.00,50.00,0.00,45.45,5412,2021-05-02 11:28:03.877,2021-05-02 12:28:03.877,18,0,0,15.605,55.940862,-4.406294,0.00,0.00,0.00,-3.30,-3.10,-34.30,0,1,0,68,100,-6954,2371,15605,3024.50,3,P-GPS,1,1,0,0,0,0,0,1619954883877,0,0,0,0,0,0,27,,,,,,,0,0,0,33.00,-31.00,-343.00,-692.00,0.00,-456.00,6,500.00,0.00,453.65,0.00,0.00,0.00,0,,,100,100,0,2,0,0,0,2,0,,,,,0.0,0.0,0
55.941232,-4.406598,50.00,0.00,0.00,45.36,50.00,50.00,0.00,45.45,5510,2021-05-02 11:28:03.975,2021-05-02 12:28:03.975,18,0,0,15.605,55.940862,-4.406294,0.00,0.00,0.00,-3.30,-3.00,-34.30,0,1,0,68,100,-6954,2371,15605,3024.50,3,P-GPS,1,1,0,0,0,0,0,1619954883975,0,0,0,0,0,0,27,,,,,,,0,0,0,33.00,-30.00,-343.00,-692.00,0.00,-456.00,6,500.00,0.00,453.61,0.00,0.00,0.00,0,,,100,100,0,2,0,0,0,2,0,,,,,0.0,0.0,0
55.941232,-4.406598,50.00,0.00,0.00,45.37,50.00,50.00,0.00,45.45,5594,2021-05-02 11:28:04.060,2021-05-02 12:28:04.059,18,0,0,15.605,55.940862,-4.406294,0.00,0.00,0.00,-3.20,-3.00,-34.30,0,1,0,68,100,-6954,2371,15605,3024.50,3,P-GPS,1,1,0,0,0,0,0,1619954884059,0,0,0,0,0,0,27,,,,,,,0,0,0,32.00,-30.00,-343.00,-692.00,0.00,-456.00,6,500.00,0.00,453.69,0.00,0.00,0.00,0,,,100,100,0,2,0,0,0,2,0,,,,,0.0,0.0,0
55.941232,-4.406598,50.00,0.00,0.00,45.37,50.00,50.00,0.00,45.45,5707,2021-05-02 11:28:04.172,2021-05-02 12:28:04.172,18,0,0,15.605,55.940862,-4.406294,0.00,0.00,0.00,-3.20,-3.20,-34.30,0,1,0,68,100,-6954,2371,15605,3024.50,3,P-GPS,1,1,0,0,0,0,0,1619954884172,0,0,0,0,0,0,27,,,,,,,0,0,0,32.00,-32.00,-343.00,-692.00,0.00,-456.00,6,500.00,0.00,453.66,0.00,0.00,0.00,0,,,100,100,0,2,0,0,0,2,0,,,,,0.0,0.0,0
55.941233,-4.406597,50.00,0.00,0.00,45.37,50.00,50.00,0.00,45.45,5798,2021-05-02 11:28:04.264,2021-05-02 12:28:04.263,18,0,0,15.605,55.940862,-4.406294,0.00,0.00,0.00,-3.30,-3.20,-34.20,0,1,0,68,100,-6954,2371,15605,3024.50,3,P-GPS,1,1,0,0,0,0,0,1619954884263,0,0,0,0,0,0,27,,,,,,,0,0,0,33.00,-32.00,-342.00,-692.00,0.00,-456.00,6,500.00,0.00,453.74,0.00,0.00,0.00,0,,,100,100,0,2,0,0,0,2,0,,,,,0.0,0.0,0
55.941232,-4.406598,50.00,0.00,0.00,45.37,50.00,50.00,0.00,45.45,5897,2021-05-02 11:28:04.362,2021-05-02 12:28:04.362,18,0,0,15.605,55.940862,-4.406294,0.00,0.00,0.00,-3.30,-3.10,-34.30,0,1,0,68,100,-6954,2371,15605,3024.50,3,P-GPS,1,1,0,0,0,0,0,1619954884362,0,0,0,0,0,0,27,,,,,,,0,0,0,33.00,-31.00,-343.00,-692.00,0.00,-456.00,6,500.00,0.00,453.72,0.00,0.00,0.00,0,,,100,100,0,2,0,0,0,2,0,,,,,0.0,0.0,0
55.941233,-4.406597,50.00,0.00,0.00,45.38,50.00,50.00,0.00,45.45,6004,2021-05-02 11:28:04.469,2021-05-02 12:28:04.469,18,0,0,15.605,55.940862,-4.406294,0.00,0.00,0.00,-3.20,-3.10,-34.30,0,1,0,68,100,-6954,2371,15605,3024.50,3,P-GPS,1,1,0,0,0,0,0,1619954884469,0,0,0,0,0,0,27,,,,,,,0,0,0,32.00,-31.00,-343.00,-691.00,0.00,-456.00,6,500.00,0.00,453.79,0.00,0.00,0.00,0,,,100,100,0,2,0,0,0,2,0,,,,,0.0,0.0,0
55.941233,-4.406597,50.00,0.00,0.00,45.38,50.00,50.00,0.00,45.45,6110,2021-05-02 11:28:04.575,2021-05-02 12:28:04.575,18,0,0,15.605,55.940862,-4.406294,0.00,0.00,0.00,-3.20,-3.20,-34.30,0,1,0,68,100,-6954,2371,15605,3024.50,3,P-GPS,1,1,0,0,0,0,0,1619954884575,0,0,0,0,0,0,27,,,,,,,0,0,0,32.00,-32.00,-343.00,-692.00,0.00,-456.00,6,500.00,0.00,453.79,0.00,0.00,0.00,0,,,100,100,0,2,0,0,0,2,0,,,,,0.0,0.0,0
55.941233,-4.406597,50.00,0.00,0.00,45.38,50.00,50.00,0.00,45.45,6192,2021-05-02 11:28:04.657,2021-05-02 12:28:04.657,18,0,0,15.605,55.940862,-4.406294,0.00,0.00,0.00,-3.00,-3.20,-34.30,0,1,0,68,100,-6998,2369,15605,3025.50,3,P-GPS,1,1,0,0,0,0,0,1619954884657,0,0,0,0,0,0,27,,,,,,,0,0,0,30.00,-32.00,-343.00,-691.00,0.00,-456.00,6,500.00,0.00,453.83,0.00,0.00,0.00,0,,,100,100,0,2,0,0,0,2,0,,,,,0.0,0.0,0
55.941233,-4.406597,50.00,0.00,0.00,45.38,50.00,50.00,0.00,45.45,6299,2021-05-02 11:28:04.764,2021-05-02 12:28:04.764,18,0,0,15.605,55.940862,-4.406294,0.00,0.00,0.00,-3.00,-3.20,-34.30,0,1,0,68,100,-6998,2369,15605,3025.50,3,P-GPS,1,1,0,0,0,0,0,1619954884764,0,0,0,0,0,0,27,,,,,,,0,0,0,30.00,-32.00,-343.00,-691.00,0.00,-456.00,6,500.00,0.00,453.84,0.00,0.00,0.00,0,,,100,100,0,2,0,0,0,2,0,,,,,0.0,0.0,0
55.941233,-4.406597,50.00,0.00,0.00,45.39,50.00,50.00,0.00,45.45,6403,2021-05-02 11:28:04.868,2021-05-02 12:28:04.868,18,0,0,15.605,55.940862,-4.406294,0.00,0.00,0.00,-3.00,-3.30,-34.40,0,1,0,68,100,-6998,2369,15605,3025.50,3,P-GPS,1,1,0,0,0,0,0,1619954884868,3923,3903,3903,3879,0,0,27,,,,,,,0,0,0,30.00,-33.00,-344.00,-692.00,0.00,-456.00,6,500.00,0.00,453.85,0.00,0.00,0.00,0,,,100,100,0,2,0,0,0,2,0,,,,,0.0,0.0,0
55.941233,-4.406597,50.00,0.00,0.00,45.39,50.00,50.00,0.00,45.45,6496,2021-05-02 11:28:04.962,2021-05-02 12:28:04.961,18,0,0,15.605,55.940862,-4.406294,0.00,0.00,0.00,-3.00,-3.30,-34.30,0,1,0,68,100,-6998,2369,15605,3025.50,3,P-GPS,1,1,0,0,0,0,0,1619954884961,3923,3903,3903,3879,0,0,27,,,,,,,0,0,0,30.00,-33.00,-343.00,-692.00,0.00,-456.00,6,500.00,0.00,453.86,0.00,0.00,0.00,0,,,100,100,0,2,0,0,0,2,0,,,,,0.0,0.0,0
55.941233,-4.406597,50.00,0.00,0.00,45.38,50.00,50.00,0.00,45.45,6601,2021-05-02 11:28:05.066,2021-05-02 12:28:05.066,18,0,0,15.605,55.940862,-4.406294,0.00,0.00,0.00,-3.30,-3.20,-34.30,0,1,0,68,100,-6998,2369,15605,3025.50,3,P-GPS,1,1,0,0,0,0,0,1619954885066,3923,3903,3903,3879,0,0,27,,,,,,,0,0,0,33.00,-32.00,-343.00,-692.00,0.00,-456.00,6,500.00,0.00,453.83,0.00,0.00,0.00,0,,,100,100,0,2,0,0,0,2,0,,,,,0.0,0.0,0
55.941233,-4.406597,50.00,0.00,0.00,45.38,50.00,50.00,0.00,45.45,6686,2021-05-02 11:28:05.151,2021-05-02 12:28:05.151,18,0,0,15.605,55.940862,-4.406294,0.00,0.00,0.00,-3.40,-3.10,-34.30,0,1,0,68,100,-6998,2369,15605,3025.50,3,P-GPS,1,1,0,0,0,0,0,1619954885151,3923,3903,3903,3879,0,0,27,,,,,,,0,0,0,34.00,-31.00,-343.00,-692.00,0.00,-456.00,6,500.00,0.00,453.82,0.00,0.00,0.00,0,,,100,100,0,2,0,0,0,2,0,,,,,0.0,0.0,0
55.941233,-4.406597,50.00,0.00,0.00,45.38,50.00,50.00,0.00,45.45,6805,2021-05-02 11:28:05.270,2021-05-02 12:28:05.270,18,0,0,15.605,55.940862,-4.406294,0.00,0.00,0.00,-3.50,-2.90,-34.20,0,1,0,68,100,-6998,2369,15605,3025.50,3,P-GPS,1,1,0,0,0,0,0,1619954885270,3923,3903,3903,3879,0,0,27,,,,,,,0,0,0,35.00,-29.00,-342.00,-691.00,0.00,-456.00,6,500.00,0.00,453.79,0.00,0.00,0.00,0,,,100,100,0,2,0,0,0,2,0,,,,,0.0,0.0,0
55.941233,-4.406597,50.00,0.00,0.00,45.38,50.00,50.00,0.00,45.45,6901,2021-05-02 11:28:05.367,2021-05-02 12:28:05.366,18,0,0,15.605,55.940862,-4.406294,0.00,0.00,0.00,-3.60,-2.90,-34.20,0,1,0,68,100,-6998,2369,15605,3025.50,3,P-GPS,1,1,0,0,0,0,0,1619954885366,3923,3903,3903,3879,0,0,27,,,,,,,0,0,0,36.00,-29.00,-342.00,-692.00,0.00,-456.00,6,500.00,0.00,453.79,0.00,0.00,0.00,0,,,100,100,0,2,0,0,0,2,0,,,,,0.0,0.0,0
55.941233,-4.406597,50.00,0.00,0.00,45.38,50.00,50.00,0.00,45.45,7014,2021-05-02 11:28:05.479,2021-05-02 12:28:05.479,18,0,0,15.605,55.940862,-4.406294,0.00,0.00,0.00,-3.50,-3.00,-34.30,0,1,0,68,100,-6998,2369,15605,3025.50,3,P-GPS,1,1,0,0,0,0,0,1619954885479,3923,3903,3903,3879,0,0,27,,,,,,,0,0,0,35.00,-30.00,-343.00,-691.00,0.00,-456.00,6,500.00,0.00,453.81,0.00,0.00,0.00,0,,,100,100,0,2,0,0,0,2,0,,,,,0.0,0.0,0
55.941233,-4.406597,50.00,0.00,0.00,45.38,50.00,50.00,0.00,45.45,7114,2021-05-02 11:28:05.579,2021-05-02 12:28:05.579,18,0,0,15.605,55.940862,-4.406294,0.00,0.00,0.00,-3.40,-3.20,-34.30,0,1,0,68,100,-6998,2369,15605,3025.50,3,P-GPS,1,1,0,0,0,0,0,1619954885579,3923,3903,3903,3879,0,0,27,,,,,,,0,0,0,34.00,-32.00,-343.00,-692.00,0.00,-456.00,6,500.00,0.00,453.83,0.00,0.00,0.00,0,,,100,100,0,2,0,0,0,2,0,,,,,0.0,0.0,0
55.941233,-4.406597,50.00,0.00,0.00,45.39,50.00,50.00,0.00,45.45,7216,2021-05-02 11:28:05.681,2021-05-02 12:28:05.681,18,0,0,15.608,55.940862,-4.406294,0.00,0.00,0.00,-3.20,-3.30,-34.30,0,1,0,68,100,-6944,2367,15608,3025.50,3,P-GPS,1,1,0,0,0,0,0,1619954885681,3923,3903,3903,3879,0,0,27,,,,,,,0,0,0,32.00,-33.00,-343.00,-692.00,0.00,-456.00,6,500.00,0.00,453.87,0.00,0.00,0.00,0,,,100,100,0,2,0,0,0,2,0,,,,,0.0,0.0,0
55.941233,-4.406597,50.00,0.00,0.00,45.39,50.00,50.00,0.00,45.45,7396,2021-05-02 11:28:05.862,2021-05-02 12:28:05.861,18,0,0,15.608,55.940862,-4.406294,0.00,0.00,0.00,-3.20,-3.40,-34.30,0,1,0,68,100,-6944,2367,15608,3025.50,3,P-GPS,1,1,0,0,0,0,0,1619954885861,3923,3903,3903,3879,0,0,27,,,,,,,0,0,0,32.00,-34.00,-343.00,-692.00,0.00,-456.00,6,500.00,0.00,453.87,0.00,0.00,0.00,0,,,100,100,0,2,0,0,0,2,0,,,,,0.0,0.0,0
55.941233,-4.406597,50.00,0.00,0.00,45.39,50.00,50.00,0.00,45.45,7494,2021-05-02 11:28:05.959,2021-05-02 12:28:05.959,18,0,0,15.608,55.940862,-4.406294,0.00,0.00,0.00,-3.00,-3.30,-34.40,0,1,0,68,100,-6944,2367,15608,3025.50,3,P-GPS,1,1,0,0,0,0,0,1619954885959,3923,3903,3903,3879,0,0,27,,,,,,,0,0,0,30.00,-33.00,-344.00,-692.00,0.00,-456.00,6,500.00,0.00,453.90,0.00,0.00,0.00,0,,,100,100,0,2,0,0,0,2,0,,,,,0.0,0.0,0
55.941233,-4.406597,50.00,0.00,0.00,45.38,50.00,50.00,0.00,45.45,7600,2021-05-02 11:28:06.066,2021-05-02 12:28:06.065,18,0,0,15.608,55.940862,-4.406294,0.00,0.00,0.00,-3.00,-3.30,-34.30,0,1,0,68,100,-6944,2367,15608,3025.50,3,P-GPS,1,1,0,0,0,0,0,1619954886065,3923,3903,3903,3879,0,0,27,,,,,,,0,0,0,30.00,-33.00,-343.00,-692.00,0.00,-456.00,6,500.00,0.00,453.84,0.00,0.00,0.00,0,,,100,100,0,2,0,0,0,2,0,,,,,0.0,0.0,0
55.941233,-4.406597,50.00,0.00,0.00,45.39,50.00,50.00,0.00,45.45,7696,2021-05-02 11:28:06.162,2021-05-02 12:28:06.161,18,0,0,15.608,55.940862,-4.406294,0.00,0.00,0.00,-2.90,-3.40,-34.40,0,1,0,68,100,-6944,2367,15608,3025.50,3,P-GPS,1,1,0,0,0,0,0,1619954886161,3923,3903,3903,3879,0,0,27,,,,,,,0,0,0,29.00,-34.00,-344.00,-692.00,0.00,-456.00,6,500.00,0.00,453.86,0.00,0.00,0.00,0,,,100,100,0,2,0,0,0,2,0,,,,,0.0,0.0,0
55.941233,-4.406597,50.00,0.00,0.00,45.38,50.00,50.00,0.00,45.45,7788,2021-05-02 11:28:06.253,2021-05-02 12:28:06.253,18,0,0,15.608,55.940862,-4.406294,0.00,0.00,0.00,-2.90,-3.30,-34.40,0,1,0,68,100,-6944,2367,15608,3025.50,3,P-GPS,1,1,0,0,0,0,0,1619954886253,3923,3903,3903,3879,0,0,27,,,,,,,0,0,0,29.00,-33.00,-344.00,-692.00,0.00,-456.00,6,500.00,0.00,453.80,0.00,0.00,0.00,0,,,100,100,0,2,0,0,0,2,0,,,,,0.0,0.0,0
55.941233,-4.406597,50.00,0.00,0.00,45.38,50.00,50.00,0.00,45.45,7898,2021-05-02 11:28:06.363,2021-05-02 12:28:06.363,18,0,0,15.608,55.940862,-4.406294,0.00,0.00,0.00,-2.90,-3.20,-34.40,0,1,0,68,100,-6944,2367,15608,3025.50,3,P-GPS,1,1,0,0,0,0,0,1619954886363,3923,3903,3903,3879,0,0,27,,,,,,,0,0,0,29.00,-32.00,-344.00,-692.00,0.00,-456.00,6,500.00,0.00,453.81,0.00,0.00,0.00,0,,,100,100,0,2,0,0,0,2,0,,,,,0.0,0.0,0
55.941233,-4.406597,49.90,0.00,0.00,45.37,50.00,50.00,0.00,45.45,8010,2021-05-02 11:28:06.476,2021-05-02 12:28:06.475,18,0,0,15.608,55.940862,-4.406294,0.00,0.00,0.00,-3.00,-3.10,-34.30,0,1,0,68,100,-6944,2367,15608,3025.50,3,P-GPS,1,1,0,0,0,0,0,1619954886475,3923,3903,3903,3879,0,0,27,,,,,,,0,0,0,30.00,-31.00,-343.00,-692.00,0.00,-456.00,6,499.00,0.00,453.74,0.00,0.00,0.00,0,,,100,100,0,2,0,0,0,2,0,,,,,0.0,0.0,0
55.941233,-4.406597,49.90,0.00,0.00,45.37,50.00,50.00,0.00,45.45,8192,2021-05-02 11:28:06.657,2021-05-02 12:28:06.657,18,0,0,15.602,55.940862,-4.406294,0.00,0.00,0.00,-2.80,-3.20,-34.40,0,1,0,68,100,-6977,2365,15602,3025.50,3,P-GPS,1,1,0,0,0,0,0,1619954886657,3923,3903,3903,3879,0,0,27,,,,,,,0,0,0,28.00,-32.00,-344.00,-691.00,0.00,-456.00,6,499.00,0.00,453.73,0.00,0.00,0.00,0,,,100,100,0,2,0,0,0,2,0,,,,,0.0,0.0,0
55.941233,-4.406597,49.90,0.00,0.00,45.37,50.00,50.00,0.00,45.45,8303,2021-05-02 11:28:06.768,2021-05-02 12:28:06.768,18,0,0,15.602,55.940862,-4.406294,0.00,0.00,0.00,-2.70,-3.40,-34.40,0,1,0,68,100,-6977,2365,15602,3025.50,3,P-GPS,1,1,0,0,0,0,0,1619954886768,3923,3903,3903,3879,0,0,27,,,,,,,0,0,0,27.00,-34.00,-344.00,-692.00,0.00,-456.00,6,499.00,0.00,453.73,0.00,0.00,0.00,0,,,100,100,0,2,0,0,0,2,0,,,,,0.0,0.0,0
55.941233,-4.406597,50.00,0.00,0.00,45.38,50.00,50.00,0.00,45.45,8392,2021-05-02 11:28:06.857,2021-05-02 12:28:06.857,18,0,0,15.602,55.940862,-4.406294,0.00,0.00,0.00,-2.70,-3.60,-34.40,0,1,0,68,100,-6977,2365,15602,3025.50,3,P-GPS,1,1,0,0,0,0,0,1619954886857,3923,3903,3903,3879,0,0,27,,,,,,,0,0,0,27.00,-36.00,-344.00,-692.00,0.00,-456.00,6,500.00,0.00,453.83,0.00,0.00,0.00,0,,,100,100,0,2,0,0,0,2,0,,,,,0.0,0.0,0
55.941233,-4.406597,50.00,0.00,0.00,45.38,50.00,50.00,0.00,45.45,8506,2021-05-02 11:28:06.971,2021-05-02 12:28:06.971,18,0,0,15.602,55.940862,-4.406294,0.00,0.00,0.00,-2.80,-3.80,-34.30,0,1,0,68,100,-6977,2365,15602,3025.50,3,P-GPS,1,1,0,0,0,0,0,1619954886971,3923,3903,3903,3879,0,0,27,,,,,,,0,0,0,28.00,-38.00,-343.00,-691.00,0.00,-456.00,6,500.00,0.00,453.84,0.00,0.00,0.00,0,,,100,100,0,2,0,0,0,2,0,,,,,0.0,0.0,0
55.941233,-4.406597,50.00,0.00,0.00,45.40,50.00,50.00,0.00,45.45,8609,2021-05-02 11:28:07.075,2021-05-02 12:28:07.075,18,0,0,15.602,55.940862,-4.406294,0.00,0.00,0.00,-2.80,-3.70,-34.30,0,1,0,68,100,-6977,2365,15602,3025.50,3,P-GPS,1,1,0,0,0,0,0,1619954887074,3923,3903,3903,3879,0,0,27,,,,,,,0,0,0,28.00,-37.00,-343.00,-692.00,0.00,-456.00,6,500.00,0.00,453.95,0.00,0.00,0.00,0,,,100,100,0,2,0,0,0,2,0,,,,,0.0,0.0,0
55.941233,-4.406596,49.90,0.00,0.00,45.40,50.00,50.00,0.00,45.45,8794,2021-05-02 11:28:07.259,2021-05-02 12:28:07.259,18,0,0,15.602,55.940862,-4.406294,0.00,0.00,0.00,-3.00,-3.60,-34.30,0,1,0,68,100,-6977,2365,15602,3025.50,3,P-GPS,1,1,0,0,0,0,0,1619954887259,3923,3903,3903,3879,0,0,27,,,,,,,0,0,0,30.00,-36.00,-343.00,-692.00,0.00,-456.00,6,499.00,0.00,453.99,0.00,0.00,0.00,0,,,100,100,0,2,0,0,0,2,0,,,,,0.0,0.0,0
55.941233,-4.406596,49.90,0.00,0.00,45.40,50.00,50.00,0.00,45.45,8908,2021-05-02 11:28:07.373,2021-05-02 12:28:07.373,18,0,0,15.602,55.940862,-4.406294,0.00,0.00,0.00,-3.00,-3.60,-34.30,0,1,0,68,100,-6977,2365,15602,3025.50,3,P-GPS,1,1,0,0,0,0,0,1619954887373,3923,3903,3903,3879,0,0,27,,,,,,,0,0,0,30.00,-36.00,-343.00,-692.00,0.00,-456.00,6,499.00,0.00,454.00,0.00,0.00,0.00,0,,,100,100,0,2,0,0,0,2,0,,,,,0.0,0.0,0
55.941233,-4.406596,49.90,0.00,0.00,45.39,50.00,50.00,0.00,45.45,9011,2021-05-02 11:28:07.476,2021-05-02 12:28:07.476,18,0,0,15.602,55.940862,-4.406294,0.00,0.00,0.00,-2.90,-3.60,-34.30,0,1,0,68,100,-6977,2365,15602,3025.50,3,P-GPS,1,1,0,0,0,0,0,1619954887476,3923,3903,3903,3879,0,0,27,,,,,,,0,0,0,29.00,-36.00,-343.00,-692.00,0.00,-456.00,6,499.00,0.00,453.93,0.00,0.00,0.00,0,,,100,100,0,2,0,0,0,2,0,,,,,0.0,0.0,0
55.941233,-4.406596,49.90,0.00,0.00,45.40,50.00,50.00,0.00,45.45,9102,2021-05-02 11:28:07.567,2021-05-02 12:28:07.567,18,0,0,15.602,55.940862,-4.406294,0.00,0.00,0.00,-2.80,-3.50,-34.30,0,1,0,68,100,-6977,2365,15602,3025.50,3,P-GPS,1,1,0,0,0,0,0,1619954887567,3923,3903,3903,3879,0,0,27,,,,,,,0,0,0,28.00,-35.00,-343.00,-692.00,0.00,-456.00,6,499.00,0.00,453.95,0.00,0.00,0.00,0,,,100,100,0,2,0,0,0,2,0,,,,,0.0,0.0,0
55.941233,-4.406596,49.90,0.00,0.00,45.41,50.00,50.00,0.00,45.45,9197,2021-05-02 11:28:07.662,2021-05-02 12:28:07.662,18,0,0,15.596,55.940862,-4.406294,0.00,0.00,0.00,-2.70,-3.50,-34.30,0,1,0,68,100,-7138,2363,15596,3025.50,3,P-GPS,1,1,0,0,0,0,0,1619954887662,3923,3903,3903,3879,0,0,27,,,,,,,0,0,0,27.00,-35.00,-343.00,-692.00,0.00,-456.00,6,499.00,0.00,454.07,0.00,0.00,0.00,0,,,100,100,0,2,0,0,0,2,0,,,,,0.0,0.0,0
55.941233,-4.406596,50.00,0.00,0.00,45.41,50.00,50.00,0.00,45.45,9310,2021-05-02 11:28:07.776,2021-05-02 12:28:07.775,18,0,0,15.596,55.940862,-4.406294,0.00,0.00,0.00,-2.60,-3.50,-34.40,0,1,0,68,100,-7138,2363,15596,3025.50,3,P-GPS,1,1,0,0,0,0,0,1619954887775,3923,3903,3903,3879,0,0,27,,,,,,,0,0,0,26.00,-35.00,-344.00,-691.00,0.00,-456.00,6,500.00,0.00,454.10,0.00,0.00,0.00,0,,,100,100,0,2,0,0,0,2,0,,,,,0.0,0.0,0
55.941233,-4.406596,50.00,0.00,0.00,45.42,50.00,50.00,0.00,45.45,9492,2021-05-02 11:28:07.957,2021-05-02 12:28:07.957,18,0,0,15.596,55.940862,-4.406294,0.00,0.00,0.00,-2.50,-3.60,-34.40,0,1,0,68,100,-7138,2363,15596,3025.50,3,P-GPS,1,1,0,0,0,0,0,1619954887957,3923,3903,3903,3879,0,0,27,,,,,,,0,0,0,25.00,-36.00,-344.00,-692.00,0.00,-456.00,6,500.00,0.00,454.23,0.00,0.00,0.00,0,,,100,100,0,2,0,0,0,2,0,,,,,0.0,0.0,0
55.941233,-4.406596,50.00,0.00,0.00,45.41,50.00,50.00,0.00,45.45,9596,2021-05-02 11:28:08.062,2021-05-02 12:28:08.061,18,0,0,15.596,55.940862,-4.406294,0.00,0.00,0.00,-2.50,-3.50,-34.40,0,1,0,68,100,-7138,2363,15596,3025.50,3,P-GPS,1,1,0,0,0,0,0,1619954888061,3923,3903,3903,3879,0,0,27,,,,,,,0,0,0,25.00,-35.00,-344.00,-692.00,0.00,-456.00,6,500.00,0.00,454.12,0.00,0.00,0.00,0,,,100,100,0,2,0,0,0,2,0,,,,,0.0,0.0,0
55.941233,-4.406596,50.00,0.00,0.00,45.41,50.00,50.00,0.00,45.45,9701,2021-05-02 11:28:08.166,2021-05-02 12:28:08.166,18,0,0,15.596,55.940862,-4.406294,0.00,0.00,0.00,-2.50,-3.50,-34.40,0,1,0,68,100,-7138,2363,15596,3025.50,3,P-GPS,1,1,0,0,0,0,0,1619954888166,3923,3903,3903,3879,0,0,27,,,,,,,0,0,0,25.00,-35.00,-344.00,-692.00,0.00,-456.00,6,500.00,0.00,454.14,0.00,0.00,0.00,0,,,100,100,0,2,0,0,0,2,0,,,,,0.0,0.0,0
55.941233,-4.406596,50.00,0.00,0.00,45.42,50.00,50.00,0.00,45.45,9794,2021-05-02 11:28:08.259,2021-05-02 12:28:08.259,18,0,0,15.596,55.940862,-4.406294,0.00,0.00,0.00,-2.60,-3.50,-34.40,0,1,0,68,100,-7138,2363,15596,3025.50,3,P-GPS,1,1,0,0,0,0,0,1619954888259,3923,3903,3903,3879,0,0,27,,,,,,,0,0,0,26.00,-35.00,-344.00,-692.00,0.00,-456.00,6,500.00,0.00,454.23,0.00,0.00,0.00,0,,,100,100,0,2,0,0,0,2,0,,,,,0.0,0.0,0
55.941233,-4.406596,49.90,0.00,0.00,45.43,50.00,50.00,0.00,45.45,9888,2021-05-02 11:28:08.353,2021-05-02 12:28:08.353,18,0,0,15.596,55.940862,-4.406294,0.00,0.00,0.00,-2.50,-3.50,-34.30,0,1,0,68,100,-7138,2363,15596,3025.50,3,P-GPS,1,1,0,0,0,0,0,1619954888353,3923,3903,3903,3879,0,0,27,,,,,,,0,0,0,25.00,-35.00,-343.00,-692.00,0.00,-456.00,6,499.00,0.00,454.25,0.00,0.00,0.00,0,,,100,100,0,2,0,0,0,2,0,,,,,0.0,0.0,0
55.941233,-4.406596,49.90,0.00,0.00,45.43,50.00,50.00,0.00,45.45,10005,2021-05-02 11:28:08.470,2021-05-02 12:28:08.470,18,0,0,15.596,55.940862,-4.406294,0.00,0.00,0.00,-2.50,-3.40,-34.40,0,1,0,68,100,-7138,2363,15596,3025.50,3,P-GPS,1,1,0,0,0,0,0,1619954888470,3923,3903,3903,3879,0,0,27,,,,,,,0,0,0,25.00,-34.00,-344.00,-692.00,0.00,-456.00,6,499.00,0.00,454.35,0.00,0.00,0.00,0,,,100,100,0,2,0,0,0,2,0,,,,,0.0,0.0,0
55.941234,-4.406596,49.90,0.00,0.00,45.44,50.00,50.00,0.00,45.45,10092,2021-05-02 11:28:08.557,2021-05-02 12:28:08.557,18,0,0,15.596,55.940862,-4.406294,0.00,0.00,0.00,-2.40,-3.40,-34.40,0,1,0,68,100,-7138,2363,15596,3025.50,3,P-GPS,1,1,0,0,0,0,0,1619954888557,3923,3903,3903,3879,0,0,27,,,,,,,0,0,0,24.00,-34.00,-344.00,-692.00,0.00,-456.00,6,499.00,0.00,454.38,0.00,0.00,0.00,0,,,100,100,0,2,0,0,0,2,0,,,,,0.0,0.0,0
55.941233,-4.406596,49.90,0.00,0.00,45.43,50.00,50.00,0.00,45.45,10209,2021-05-02 11:28:08.674,2021-05-02 12:28:08.674,18,0,0,15.596,55.940862,-4.406294,0.00,0.00,0.00,-2.40,-3.40,-34.40,0,1,0,68,100,-7060,2361,15596,3025.50,3,P-GPS,1,1,0,0,0,0,0,1619954888674,3923,3903,3903,3879,0,0,27,,,,,,,0,0,0,24.00,-34.00,-344.00,-692.00,0.00,-456.00,6,499.00,0.00,454.28,0.00,0.00,0.00,0,,,100,100,0,2,0,0,0,2,0,,,,,0.0,0.0,0
55.941234,-4.406596,49.90,0.00,0.00,45.44,50.00,50.00,0.00,45.45,10388,2021-05-02 11:28:08.853,2021-05-02 12:28:08.853,18,0,0,15.596,55.940862,-4.406294,0.00,0.00,0.00,-2.50,-3.30,-34.30,0,1,0,68,100,-7060,2361,15596,3025.50,3,P-GPS,1,1,0,0,0,0,0,1619954888853,3923,3903,3903,3879,0,0,27,,,,,,,0,0,0,25.00,-33.00,-343.00,-692.00,0.00,-456.00,6,499.00,0.00,454.36,0.00,0.00,0.00,0,,,100,100,0,2,0,0,0,2,0,,,,,0.0,0.0,0
55.941234,-4.406596,49.90,0.00,0.00,45.44,50.00,50.00,0.00,45.45,10497,2021-05-02 11:28:08.962,2021-05-02 12:28:08.962,18,0,0,15.596,55.940862,-4.406294,0.00,0.00,0.00,-2.60,-3.30,-34.30,0,1,0,68,100,-7060,2361,15596,3025.50,3,P-GPS,1,1,0,0,0,0,0,1619954888962,3923,3903,3903,3879,0,0,27,,,,,,,0,0,0,26.00,-33.00,-343.00,-691.00,0.00,-456.00,6,499.00,0.00,454.38,0.00,0.00,0.00,0,,,100,100,0,2,0,0,0,2,0,,,,,0.0,0.0,0
55.941234,-4.406596,49.90,0.00,0.00,45.45,50.00,50.00,0.00,45.45,10592,2021-05-02 11:28:09.058,2021-05-02 12:28:09.057,18,0,0,15.596,55.940862,-4.406294,0.00,0.00,0.00,-2.50,-3.40,-34.30,0,1,0,68,100,-7060,2361,15596,3025.50,3,P-GPS,1,1,0,0,0,0,0,1619954889057,3923,3903,3903,3879,0,0,27,,,,,,,0,0,0,25.00,-34.00,-343.00,-691.00,0.00,-456.00,6,499.00,0.00,454.49,0.00,0.00,0.00,0,,,100,100,0,2,0,0,0,2,0,,,,,0.0,0.0,0
55.941234,-4.406596,49.90,0.00,0.00,45.45,50.00,50.00,0.00,45.45,10687,2021-05-02 11:28:09.152,2021-05-02 12:28:09.152,18,0,0,15.596,55.940862,-4.406294,0.00,0.00,0.00,-2.50,-3.30,-34.30,0,1,0,68,100,-7060,2361,15596,3025.50,3,P-GPS,1,1,0,0,0,0,0,1619954889152,3923,3903,3903,3879,0,0,27,,,,,,,0,0,0,25.00,-33.00,-343.00,-691.00,0.00,-456.00,6,499.00,0.00,454.51,0.00,0.00,0.00,0,,,100,100,0,2,0,0,0,2,0,,,,,0.0,0.0,0
55.941234,-4.406596,49.90,0.00,0.00,45.46,50.00,50.00,0.00,45.46,10796,2021-05-02 11:28:09.261,2021-05-02 12:28:09.261,18,0,0,15.596,55.940862,-4.406294,0.00,0.00,0.00,-2.50,-3.20,-34.30,0,1,0,68,100,-7060,2361,15596,3025.50,3,P-GPS,1,1,0,0,0,0,0,1619954889261,3923,3903,3903,3879,0,0,27,,,,,,,0,0,0,25.00,-32.00,-343.00,-692.00,0.00,-456.00,6,499.00,0.00,454.57,0.00,0.00,0.00,0,,,100,100,0,2,0,0,0,2,0,,,,,0.0,0.0,0
55.941234,-4.406596,49.90,0.00,0.00,45.46,50.00,50.00,0.00,45.46,10897,2021-05-02 11:28:09.362,2021-05-02 12:28:09.362,18,0,0,15.596,55.940862,-4.406294,0.00,0.00,0.00,-2.60,-3.20,-34.30,0,1,0,68,100,-7060,2361,15596,3025.50,3,P-GPS,1,1,0,0,0,0,0,1619954889362,3923,3903,3903,3879,0,0,27,,,,,,,0,0,0,26.00,-32.00,-343.00,-692.00,0.00,-456.00,6,499.00,0.00,454.59,0.00,0.00,0.00,0,,,100,100,0,2,0,0,0,2,0,,,,,0.0,0.0,0
55.941234,-4.406596,49.90,0.00,0.00,45.47,50.00,50.00,0.00,45.47,10993,2021-05-02 11:28:09.458,2021-05-02 12:28:09.458,18,0,0,15.596,55.940862,-4.406294,0.00,0.00,0.00,-2.60,-3.20,-34.30,0,1,0,68,100,-7060,2361,15596,3025.50,3,P-GPS,1,1,0,0,0,0,0,1619954889458,3923,3903,3903,3879,0,0,27,,,,,,,0,0,0,26.00,-32.00,-343.00,-692.00,0.00,-456.00,6,499.00,0.00,454.69,0.00,0.00,0.00,0,,,100,100,0,2,0,0,0,2,0,,,,,0.0,0.0,0
55.941234,-4.406596,49.90,0.00,0.00,45.47,50.00,50.00,0.00,45.47,11093,2021-05-02 11:28:09.558,2021-05-02 12:28:09.558,18,0,0,15.596,55.940862,-4.406294,0.00,0.00,0.00,-2.60,-3.10,-34.40,0,1,0,68,100,-7060,2361,15596,3025.50,3,P-GPS,1,1,0,0,0,0,0,1619954889558,3923,3903,3903,3879,0,0,27,,,,,,,0,0,0,26.00,-31.00,-344.00,-691.00,0.00,-456.00,6,499.00,0.00,454.72,0.00,0.00,0.00,0,,,100,100,0,2,0,0,0,2,0,,,,,0.0,0.0,0
55.941234,-4.406596,49.90,0.00,0.00,45.46,50.00,50.00,0.00,45.47,11195,2021-05-02 11:28:09.660,2021-05-02 12:28:09.660,18,0,0,15.594,55.940862,-4.406294,0.00,0.00,0.00,-2.70,-3.10,-34.40,0,1,0,68,100,-7086,2359,15594,3025.50,3,P-GPS,1,1,0,0,0,0,0,1619954889660,3923,3903,3903,3879,0,0,27,,,,,,,0,0,0,27.00,-31.00,-344.00,-692.00,0.00,-456.00,6,499.00,0.00,454.61,0.00,0.00,0.00,0,,,100,100,0,2,0,0,0,2,0,,,,,0.0,0.0,0
55.941234,-4.406596,49.90,0.00,0.00,45.46,50.00,50.00,0.00,45.47,11293,2021-05-02 11:28:09.758,2021-05-02 12:28:09.758,18,0,0,15.594,55.940862,-4.406294,0.00,0.00,0.00,-2.80,-3.00,-34.30,0,1,0,68,100,-7086,2359,15594,3025.50,3,P-GPS,1,1,0,0,0,0,0,1619954889758,3923,3903,3903,3879,0,0,27,,,,,,,0,0,0,28.00,-30.00,-343.00,-692.00,0.00,-456.00,6,499.00,0.00,454.63,0.00,0.00,0.00,0,,,100,100,0,2,0,0,0,2,0,,,,,0.0,0.0,0
55.941234,-4.406596,49.90,0.00,0.00,45.46,50.00,50.00,0.00,45.47,11398,2021-05-02 11:28:09.864,2021-05-02 12:28:09.863,18,0,0,15.594,55.940862,-4.406294,0.00,0.00,0.00,-2.80,-3.00,-34.30,0,1,0,68,100,-7086,2359,15594,3025.50,3,P-GPS,1,1,0,0,0,0,0,1619954889863,3923,3903,3903,3879,0,0,27,,,,,,,0,0,0,28.00,-30.00,-343.00,-692.00,0.00,-456.00,6,499.00,0.00,454.60,0.00,0.00,0.00,0,,,100,100,0,2,0,0,0,2,0,,,,,0.0,0.0,0
55.941234,-4.406596,49.90,0.00,0.00,45.46,50.00,50.00,0.00,45.47,11492,2021-05-02 11:28:09.957,2021-05-02 12:28:09.957,18,0,0,15.594,55.940862,-4.406294,0.00,0.00,0.00,-2.70,-3.00,-34.30,0,1,0,68,100,-7086,2359,15594,3025.50,3,P-GPS,1,1,0,0,0,0,0,1619954889957,3923,3903,3903,3879,0,0,27,,,,,,,0,0,0,27.00,-30.00,-343.00,-691.00,0.00,-456.00,6,499.00,0.00,454.62,0.00,0.00,0.00,0,,,100,100,0,2,0,0,0,2,0,,,,,0.0,0.0,0
55.941234,-4.406596,49.90,0.00,0.00,45.47,50.00,50.00,0.00,45.47,11591,2021-05-02 11:28:10.056,2021-05-02 12:28:10.056,18,0,0,15.594,55.940862,-4.406294,0.00,0.00,0.00,-2.60,-3.00,-34.30,0,1,0,68,100,-7086,2359,15594,3025.50,3,P-GPS,1,1,0,0,0,0,0,1619954890056,3923,3903,3903,3879,0,0,27,,,,,,,0,0,0,26.00,-30.00,-343.00,-692.00,0.00,-456.00,6,499.00,0.00,454.72,0.00,0.00,0.00,0,,,100,100,0,2,0,0,0,2,0,,,,,0.0,0.0,0
55.941234,-4.406596,49.90,0.00,0.00,45.48,50.00,50.00,0.00,45.48,11705,2021-05-02 11:28:10.170,2021-05-02 12:28:10.170,18,0,0,15.594,55.940862,-4.406294,0.00,0.00,0.00,-2.50,-3.10,-34.30,0,1,0,68,100,-7086,2359,15594,3025.50,3,P-GPS,1,1,0,0,0,0,0,1619954890170,3923,3903,3903,3879,0,0,27,,,,,,,0,0,0,25.00,-31.00,-343.00,-691.00,0.00,-456.00,6,499.00,0.00,454.75,0.00,0.00,0.00,0,,,100,100,0,2,0,0,0,2,0,,,,,0.0,0.0,0
55.941234,-4.406596,49.90,0.00,0.00,45.47,50.00,50.00,0.00,45.48,11795,2021-05-02 11:28:10.260,2021-05-02 12:28:10.260,18,0,0,15.594,55.940862,-4.406294,0.00,0.00,0.00,-2.60,-3.10,-34.30,0,1,0,68,100,-7086,2359,15594,3025.50,3,P-GPS,1,1,0,0,0,0,0,1619954890260,3923,3903,3903,3879,0,0,27,,,,,,,0,0,0,26.00,-31.00,-343.00,-692.00,0.00,-456.00,6,499.00,0.00,454.71,0.00,0.00,0.00,0,,,100,100,0,2,0,0,0,2,0,,,,,0.0,0.0,0
55.941234,-4.406596,49.90,0.00,0.00,45.47,50.00,50.00,0.00,45.48,11910,2021-05-02 11:28:10.375,2021-05-02 12:28:10.375,17,0,0,15.594,55.940862,-4.406294,0.00,0.00,0.00,-2.60,-3.10,-34.30,0,1,0,68,100,-7086,2359,15594,3025.50,3,P-GPS,1,1,0,0,0,0,0,1619954890375,3923,3903,3903,3879,0,0,27,,,,,,,0,0,0,26.00,-31.00,-343.00,-691.00,0.00,-456.00,6,499.00,0.00,454.74,0.00,0.00,0.00,0,,,100,100,0,2,0,0,0,2,0,,,,,0.0,0.0,0
55.941234,-4.406596,49.90,0.00,0.00,45.47,50.00,50.00,0.00,45.48,11997,2021-05-02 11:28:10.462,2021-05-02 12:28:10.462,17,0,0,15.594,55.940862,-4.406294,0.00,0.00,0.00,-2.60,-3.20,-34.30,0,1,0,68,100,-7086,2359,15594,3025.50,3,P-GPS,1,1,0,0,0,0,0,1619954890462,3923,3903,3903,3879,0,0,27,,,,,,,0,0,0,26.00,-32.00,-343.00,-691.00,0.00,-456.00,6,499.00,0.00,454.66,0.00,0.00,0.00,0,,,100,100,0,2,0,0,0,2,0,,,,,0.0,0.0,0
55.941234,-4.406595,49.90,0.00,0.00,45.47,50.00,50.00,0.00,45.48,12098,2021-05-02 11:28:10.563,2021-05-02 12:28:10.563,17,0,0,15.594,55.940862,-4.406294,0.00,0.00,0.00,-2.60,-3.10,-34.30,0,1,0,68,100,-7086,2359,15594,3025.50,3,P-GPS,1,1,0,0,0,0,0,1619954890563,3923,3903,3903,3879,0,0,27,,,,,,,0,0,0,26.00,-31.00,-343.00,-692.00,0.00,-456.00,6,499.00,0.00,454.68,0.00,0.00,0.00,0,,,100,100,0,2,0,0,0,2,0,,,,,0.0,0.0,0
55.941234,-4.406595,49.90,0.00,0.00,45.48,50.00,50.00,0.00,45.48,12195,2021-05-02 11:28:10.660,2021-05-02 12:28:10.660,17,0,0,15.597,55.940862,-4.406294,0.00,0.00,0.00,-2.60,-3.20,-34.30,0,1,0,68,100,-7088,2357,15597,3026.50,3,P-GPS,1,1,0,0,0,0,0,1619954890660,3923,3903,3903,3879,0,0,27,,,,,,,0,0,0,26.00,-32.00,-343.00,-691.00,0.00,-456.00,6,499.00,0.00,454.76,0.00,0.00,0.00,0,,,100,100,0,2,0,0,0,2,0,,,,,0.0,0.0,0
55.941234,-4.406595,49.90,0.00,0.00,45.48,50.00,50.00,0.00,45.48,12291,2021-05-02 11:28:10.756,2021-05-02 12:28:10.756,17,0,0,15.597,55.940862,-4.406294,0.00,0.00,0.00,-2.60,-3.20,-34.30,0,1,0,68,100,-7088,2357,15597,3026.50,3,P-GPS,1,1,0,0,0,0,0,1619954890756,3923,3903,3903,3879,0,0,27,,,,,,,0,0,0,26.00,-32.00,-343.00,-691.00,0.00,-456.00,6,499.00,0.00,454.79,0.00,0.00,0.00,0,,,100,100,0,2,0,0,0,2,0,,,,,0.0,0.0,0
55.941234,-4.406595,49.90,0.00,0.00,45.47,50.00,50.00,0.00,45.48,12400,2021-05-02 11:28:10.865,2021-05-02 12:28:10.865,17,0,0,15.597,55.940862,-4.406294,0.00,0.00,0.00,-2.60,-3.20,-34.40,0,1,0,68,100,-7088,2357,15597,3026.50,3,P-GPS,1,1,0,0,0,0,0,1619954890865,3923,3903,3903,3879,0,0,27,,,,,,,0,0,0,26.00,-32.00,-344.00,-691.00,0.00,-456.00,6,499.00,0.00,454.74,0.00,0.00,0.00,0,,,100,100,0,2,0,0,0,2,0,,,,,0.0,0.0,0
55.941234,-4.406595,49.90,0.00,0.00,45.48,50.00,50.00,0.00,45.48,12503,2021-05-02 11:28:10.968,2021-05-02 12:28:10.968,17,0,0,15.597,55.940862,-4.406294,0.00,0.00,0.00,-2.70,-3.30,-34.30,0,1,0,68,100,-7088,2357,15597,3026.50,3,P-GPS,1,1,0,0,0,0,0,1619954890968,3923,3903,3903,3879,0,0,27,,,,,,,0,0,0,27.00,-33.00,-343.00,-692.00,0.00,-456.00,6,499.00,0.00,454.76,0.00,0.00,0.00,0,,,100,100,0,2,0,0,0,2,0,,,,,0.0,0.0,0
55.941234,-4.406595,49.90,0.00,0.00,45.48,50.00,50.00,0.00,45.48,12613,2021-05-02 11:28:11.078,2021-05-02 12:28:11.078,17,0,0,15.597,55.940862,-4.406294,0.00,0.00,0.00,-2.70,-3.20,-34.30,0,1,0,68,100,-7088,2357,15597,3026.50,3,P-GPS,1,1,0,0,0,0,0,1619954891078,3923,3903,3903,3879,0,0,27,,,,,,,0,0,0,27.00,-32.00,-343.00,-692.00,0.00,-456.00,6,499.00,0.00,454.82,0.00,0.00,0.00,0,,,100,100,0,2,0,0,0,2,0,,,,,0.0,0.0,0
55.941234,-4.406595,49.90,0.00,0.00,45.49,50.00,50.00,0.00,45.49,12797,2021-05-02 11:28:11.262,2021-05-02 12:28:11.262,17,0,0,15.597,55.940862,-4.406294,0.00,0.00,0.00,-2.70,-3.10,-34.30,0,1,0,68,100,-7088,2357,15597,3026.50,3,P-GPS,1,1,0,0,0,0,0,1619954891262,3923,3903,3903,3879,0,0,27,,,,,,,0,0,0,27.00,-31.00,-343.00,-691.00,0.00,-456.00,6,499.00,0.00,454.87,0.00,0.00,0.00,0,,,100,100,0,2,0,0,0,2,0,,,,,0.0,0.0,0
55.941234,-4.406595,49.90,0.00,0.00,45.49,50.00,50.00,0.00,45.49,12898,2021-05-02 11:28:11.363,2021-05-02 12:28:11.363,17,0,0,15.597,55.940862,-4.406294,0.00,0.00,0.00,-2.60,-3.10,-34.40,0,1,0,68,100,-7088,2357,15597,3026.50,3,P-GPS,1,1,0,0,0,0,0,1619954891363,3923,3903,3903,3879,0,0,27,,,,,,,0,0,0,26.00,-31.00,-344.00,-691.00,0.00,-456.00,6,499.00,0.00,454.89,0.00,0.00,0.00,0,,,100,100,0,2,0,0,0,2,0,,,,,0.0,0.0,0
55.941234,-4.406595,49.90,0.00,0.00,45.48,50.00,50.00,0.00,45.49,12998,2021-05-02 11:28:11.463,2021-05-02 12:28:11.463,17,0,0,15.597,55.940862,-4.406294,0.00,0.00,0.00,-2.60,-3.00,-34.30,0,1,0,68,100,-7088,2357,15597,3026.50,3,P-GPS,1,1,0,0,0,0,0,1619954891463,3923,3903,3903,3879,0,0,27,,,,,,,0,0,0,26.00,-30.00,-343.00,-692.00,0.00,-456.00,6,499.00,0.00,454.80,0.00,0.00,0.00,0,,,100,100,0,2,0,0,0,2,0,,,,,0.0,0.0,0
55.941234,-4.406595,49.90,0.00,0.00,45.48,50.00,50.00,0.00,45.49,13099,2021-05-02 11:28:11.564,2021-05-02 12:28:11.564,17,0,0,15.597,55.940862,-4.406294,0.00,0.00,0.00,-2.60,-3.00,-34.30,0,1,0,68,100,-7088,2357,15597,3026.50,3,P-GPS,1,1,0,0,0,0,0,1619954891564,3923,3903,3903,3879,0,0,27,,,,,,,0,0,0,26.00,-30.00,-343.00,-692.00,0.00,-456.00,6,499.00,0.00,454.81,0.00,0.00,0.00,0,,,100,100,0,2,0,0,0,2,0,,,,,0.0,0.0,0
55.941234,-4.406595,49.90,0.00,0.00,45.49,50.00,50.00,0.00,45.49,13204,2021-05-02 11:28:11.669,2021-05-02 12:28:11.669,17,0,0,15.595,55.940862,-4.406294,0.00,0.00,0.00,-2.80,-2.90,-34.30,0,1,0,68,100,-7021,2355,15595,3026.50,3,P-GPS,1,1,0,0,0,0,0,1619954891669,3923,3903,3903,3879,0,0,27,,,,,,,0,0,0,28.00,-29.00,-343.00,-692.00,0.00,-456.00,6,499.00,0.00,454.89,0.00,0.00,0.00,0,,,100,100,0,2,0,0,0,2,0,,,,,0.0,0.0,0
55.941234,-4.406595,49.90,0.00,0.00,45.49,50.00,50.00,0.00,45.49,13304,2021-05-02 11:28:11.769,2021-05-02 12:28:11.769,17,0,0,15.595,55.940862,-4.406294,0.00,0.00,0.00,-2.70,-2.90,-34.30,0,1,0,68,100,-7021,2355,15595,3026.50,3,P-GPS,1,1,0,0,0,0,0,1619954891769,3923,3903,3903,3879,0,0,27,,,,,,,0,0,0,27.00,-29.00,-343.00,-692.00,0.00,-456.00,6,499.00,0.00,454.91,0.00,0.00,0.00,0,,,100,100,0,2,0,0,0,2,0,,,,,0.0,0.0,0
55.941234,-4.406595,49.90,0.00,0.00,45.48,50.00,50.00,0.00,45.49,13415,2021-05-02 11:28:11.880,2021-05-02 12:28:11.880,17,0,0,15.595,55.940862,-4.406294,0.00,0.00,0.00,-2.90,-2.90,-34.30,0,1,0,68,100,-7021,2355,15595,3026.50,3,P-GPS,1,1,0,0,0,0,0,1619954891880,3923,3903,3903,3879,0,0,27,,,,,,,0,0,0,29.00,-29.00,-343.00,-692.00,0.00,-456.00,6,499.00,0.00,454.82,0.00,0.00,0.00,0,,,100,100,0,2,0,0,0,2,0,,,,,0.0,0.0,0
55.941234,-4.406595,49.90,0.00,0.00,45.48,50.00,50.00,0.00,45.49,13512,2021-05-02 11:28:11.978,2021-05-02 12:28:11.977,17,0,0,15.595,55.940862,-4.406294,0.00,0.00,0.00,-2.90,-2.90,-34.30,0,1,0,68,100,-7021,2355,15595,3026.50,3,P-GPS,1,1,0,0,0,0,0,1619954891977,3923,3903,3903,3879,0,0,27,,,,,,,0,0,0,29.00,-29.00,-343.00,-692.00,0.00,-456.00,6,499.00,0.00,454.83,0.00,0.00,0.00,0,,,100,100,0,2,0,0,0,2,0,,,,,0.0,0.0,0
55.941234,-4.406594,49.90,0.00,0.00,45.47,50.00,50.00,0.00,45.49,13705,2021-05-02 11:28:12.171,2021-05-02 12:28:12.170,17,0,0,15.595,55.940862,-4.406294,0.00,0.00,0.00,-2.80,-2.90,-34.30,0,1,0,68,100,-7021,2355,15595,3026.50,3,P-GPS,1,1,0,0,0,0,0,1619954892170,3923,3903,3903,3879,0,0,27,,,,,,,0,0,0,28.00,-29.00,-343.00,-692.00,0.00,-456.00,6,499.00,0.00,454.73,0.00,0.00,0.00,0,,,100,100,0,2,0,0,0,2,0,,,,,0.0,0.0,0
55.941234,-4.406594,49.90,0.00,0.00,45.49,50.00,50.00,0.00,45.49,13799,2021-05-02 11:28:12.264,2021-05-02 12:28:12.264,17,0,0,15.595,55.940862,-4.406294,0.00,0.00,0.00,-2.80,-2.90,-34.30,0,1,0,68,100,-7021,2355,15595,3026.50,3,P-GPS,1,1,0,0,0,0,0,1619954892264,3923,3903,3903,3879,0,0,27,,,,,,,0,0,0,28.00,-29.00,-343.00,-692.00,0.00,-456.00,6,499.00,0.00,454.85,0.00,0.00,0.00,0,,,100,100,0,2,0,0,0,2,0,,,,,0.0,0.0,0
55.941234,-4.406594,49.90,0.00,0.00,45.49,50.00,50.00,0.00,45.49,13888,2021-05-02 11:28:12.353,2021-05-02 12:28:12.353,17,0,0,15.595,55.940862,-4.406294,0.00,0.00,0.00,-2.80,-2.90,-34.30,0,1,0,68,100,-7021,2355,15595,3026.50,3,P-GPS,1,1,0,0,0,0,0,1619954892353,3923,3903,3903,3879,0,0,27,,,,,,,0,0,0,28.00,-29.00,-343.00,-692.00,0.00,-456.00,6,499.00,0.00,454.86,0.00,0.00,0.00,0,,,100,100,0,2,0,0,0,2,0,,,,,0.0,0.0,0
55.941234,-4.406594,49.90,0.00,0.00,45.48,50.00,50.00,0.00,45.49,13999,2021-05-02 11:28:12.464,2021-05-02 12:28:12.464,17,0,0,15.595,55.940862,-4.406294,0.00,0.00,0.00,-2.80,-2.90,-34.30,0,1,0,68,100,-7021,2355,15595,3026.50,3,P-GPS,1,1,0,0,0,0,0,1619954892464,3923,3903,3903,3879,0,0,27,,,,,,,0,0,0,28.00,-29.00,-343.00,-691.00,0.00,-456.00,6,499.00,0.00,454.82,0.00,0.00,0.00,0,,,100,100,0,2,0,0,0,2,0,,,,,0.0,0.0,0
55.941234,-4.406594,49.90,0.00,0.00,45.48,50.00,50.00,0.00,45.49,14115,2021-05-02 11:28:12.581,2021-05-02 12:28:12.580,17,0,0,15.590,55.940862,-4.406294,0.00,0.00,0.00,-2.90,-2.90,-34.30,0,1,0,68,100,-7084,2353,15590,3026.50,3,P-GPS,1,1,0,0,0,0,0,1619954892580,3923,3903,3903,3879,0,0,27,,,,,,,0,0,0,29.00,-29.00,-343.00,-692.00,0.00,-456.00,6,499.00,0.00,454.82,0.00,0.00,0.00,0,,,100,100,0,2,0,0,0,2,0,,,,,0.0,0.0,0
55.941234,-4.406594,49.90,0.00,0.00,45.48,50.00,50.00,0.00,45.49,14236,2021-05-02 11:28:12.701,2021-05-02 12:28:12.701,17,0,0,15.590,55.940862,-4.406294,0.00,0.00,0.00,-2.80,-2.90,-34.30,0,1,0,68,100,-7084,2353,15590,3026.50,3,P-GPS,1,1,0,0,0,0,0,1619954892701,3923,3903,3903,3879,0,0,27,,,,,,,0,0,0,28.00,-29.00,-343.00,-692.00,0.00,-456.00,6,499.00,0.00,454.77,0.00,0.00,0.00,0,,,100,100,0,2,0,0,0,2,0,,,,,0.0,0.0,0
55.941234,-4.406594,49.90,0.00,0.00,45.47,50.00,50.00,0.00,45.49,14405,2021-05-02 11:28:12.870,2021-05-02 12:28:12.870,17,0,0,15.590,55.940862,-4.406294,0.00,0.00,0.00,-2.90,-2.70,-34.30,0,1,0,68,100,-7084,2353,15590,3026.50,3,P-GPS,1,1,0,0,0,0,0,1619954892870,3923,3903,3903,3879,0,0,27,,,,,,,0,0,0,29.00,-27.00,-343.00,-692.00,0.00,-456.00,6,499.00,0.00,454.69,0.00,0.00,0.00,0,,,100,100,0,2,0,0,0,2,0,,,,,0.0,0.0,0
55.941234,-4.406594,49.90,0.00,0.00,45.47,50.00,50.00,0.00,45.49,14496,2021-05-02 11:28:12.961,2021-05-02 12:28:12.961,17,0,0,15.590,55.940862,-4.406294,0.00,0.00,0.00,-2.80,-2.70,-34.20,0,1,0,68,100,-7084,2353,15590,3026.50,3,P-GPS,1,1,0,0,0,0,0,1619954892961,3923,3903,3903,3879,0,0,27,,,,,,,0,0,0,28.00,-27.00,-342.00,-692.00,0.00,-456.00,6,499.00,0.00,454.69,0.00,0.00,0.00,0,,,100,100,0,2,0,0,0,2,0,,,,,0.0,0.0,0
55.941235,-4.406594,49.90,0.00,0.00,45.48,50.00,50.00,0.00,45.49,14608,2021-05-02 11:28:13.073,2021-05-02 12:28:13.073,17,0,0,15.590,55.940862,-4.406294,0.00,0.00,0.00,-2.70,-2.90,-34.20,0,1,0,68,100,-7084,2353,15590,3026.50,3,P-GPS,1,1,0,0,0,0,0,1619954893073,3923,3903,3903,3879,0,0,27,,,,,,,0,0,0,27.00,-29.00,-342.00,-692.00,0.00,-456.00,6,499.00,0.00,454.79,0.00,0.00,0.00,0,,,100,100,0,2,0,0,0,2,0,,,,,0.0,0.0,0
55.941235,-4.406594,49.90,0.00,0.00,45.49,50.00,50.00,0.00,45.49,14794,2021-05-02 11:28:13.259,2021-05-02 12:28:13.259,17,0,0,15.590,55.940862,-4.406294,0.00,0.00,0.00,-2.70,-3.10,-34.30,0,1,0,68,100,-7084,2353,15590,3026.50,3,P-GPS,1,1,0,0,0,0,0,1619954893259,3923,3903,3903,3879,0,0,27,,,,,,,0,0,0,27.00,-31.00,-343.00,-691.00,0.00,-456.00,6,499.00,0.00,454.92,0.00,0.00,0.00,0,,,100,100,0,2,0,0,0,2,0,,,,,0.0,0.0,0
55.941235,-4.406594,49.90,0.00,0.00,45.49,50.00,50.00,0.00,45.49,14893,2021-05-02 11:28:13.358,2021-05-02 12:28:13.358,17,0,0,15.590,55.940862,-4.406294,0.00,0.00,0.00,-2.60,-3.10,-34.30,0,1,0,68,100,-7084,2353,15590,3026.50,3,P-GPS,1,1,0,0,0,0,0,1619954893358,3923,3903,3903,3879,0,0,27,,,,,,,0,0,0,26.00,-31.00,-343.00,-692.00,0.00,-456.00,6,499.00,0.00,454.94,0.00,0.00,0.00,0,,,100,100,0,2,0,0,0,2,0,,,,,0.0,0.0,0
55.941235,-4.406593,49.90,0.00,0.00,45.48,50.00,50.00,0.00,45.49,15016,2021-05-02 11:28:13.481,2021-05-02 12:28:13.481,17,0,0,15.590,55.940862,-4.406294,0.00,0.00,0.00,-2.60,-3.10,-34.30,0,1,0,68,100,-7084,2353,15590,3026.50,3,P-GPS,1,1,0,0,0,0,0,1619954893481,3923,3903,3903,3879,0,0,27,,,,,,,0,0,0,26.00,-31.00,-343.00,-691.00,0.00,-456.00,6,499.00,0.00,454.84,0.00,0.00,0.00,0,,,100,100,0,2,0,0,0,2,0,,,,,0.0,0.0,0
55.941235,-4.406593,49.90,0.00,0.00,45.49,50.00,50.00,0.00,45.49,15113,2021-05-02 11:28:13.579,2021-05-02 12:28:13.578,17,0,0,15.590,55.940862,-4.406294,0.00,0.00,0.00,-2.50,-2.90,-34.20,0,1,0,68,100,-7084,2353,15590,3026.50,3,P-GPS,1,1,0,0,0,0,0,1619954893578,3923,3903,3903,3879,0,0,27,,,,,,,0,0,0,25.00,-29.00,-342.00,-691.00,0.00,-456.00,6,499.00,0.00,454.85,0.00,0.00,0.00,0,,,100,100,0,2,0,0,0,2,0,,,,,0.0,0.0,0
55.941235,-4.406593,49.90,0.00,0.00,45.49,50.00,50.00,0.00,45.49,15313,2021-05-02 11:28:13.778,2021-05-02 12:28:13.778,17,0,0,15.588,55.940862,-4.406294,0.00,0.00,0.00,-2.30,-2.90,-34.30,0,1,0,68,100,-7076,2351,15588,3026.50,3,P-GPS,1,1,0,0,0,0,0,1619954893778,3923,3903,3903,3879,0,0,27,,,,,,,0,0,0,23.00,-29.00,-343.00,-691.00,0.00,-456.00,6,499.00,0.00,454.93,0.00,0.00,0.00,0,,,100,100,0,2,0,0,0,2,0,,,,,0.0,0.0,0
55.941235,-4.406593,49.90,0.00,0.00,45.49,50.00,50.00,0.00,45.49,15503,2021-05-02 11:28:13.968,2021-05-02 12:28:13.968,17,0,0,15.588,55.940862,-4.406294,0.00,0.00,0.00,-2.30,-2.90,-34.30,0,1,0,68,100,-7076,2351,15588,3026.50,3,P-GPS,1,1,0,0,0,0,0,1619954893968,3923,3903,3903,3879,0,0,27,,,,,,,0,0,0,23.00,-29.00,-343.00,-691.00,0.00,-456.00,6,499.00,0.00,454.91,0.00,0.00,0.00,0,,,100,100,0,2,0,0,0,2,0,,,,,0.0,0.0,0
55.941235,-4.406593,49.90,0.00,0.00,45.50,50.00,50.00,0.00,45.50,15616,2021-05-02 11:28:14.081,2021-05-02 12:28:14.081,17,0,0,15.588,55.940862,-4.406294,0.00,0.00,0.00,-2.20,-2.90,-34.30,0,1,0,68,100,-7076,2351,15588,3026.50,3,P-GPS,1,1,0,0,0,0,0,1619954894081,3923,3903,3903,3879,0,0,27,,,,,,,0,0,0,22.00,-29.00,-343.00,-691.00,0.00,-456.00,6,499.00,0.00,455.00,0.00,0.00,0.00,0,,,100,100,0,2,0,0,0,2,0,,,,,0.0,0.0,0
55.941235,-4.406593,49.90,0.00,0.00,45.50,50.00,50.00,0.00,45.50,15715,2021-05-02 11:28:14.180,2021-05-02 12:28:14.180,17,0,0,15.588,55.940862,-4.406294,0.00,0.00,0.00,-2.20,-2.90,-34.30,0,1,0,68,100,-7076,2351,15588,3026.50,3,P-GPS,1,1,0,0,0,0,0,1619954894180,3923,3903,3903,3879,0,0,27,,,,,,,0,0,0,22.00,-29.00,-343.00,-692.00,0.00,-456.00,6,499.00,0.00,455.02,0.00,0.00,0.00,0,,,100,100,0,2,0,0,0,2,0,,,,,0.0,0.0,0
55.941235,-4.406593,49.90,0.00,0.00,45.51,50.00,50.00,0.00,45.51,15814,2021-05-02 11:28:14.279,2021-05-02 12:28:14.279,17,0,0,15.588,55.940862,-4.406294,0.00,0.00,0.00,-2.40,-3.00,-34.30,0,1,0,68,100,-7076,2351,15588,3026.50,3,P-GPS,1,1,0,0,0,0,0,1619954894279,3923,3903,3903,3879,0,0,27,,,,,,,0,0,0,24.00,-30.00,-343.00,-692.00,0.00,-456.00,6,499.00,0.00,455.09,0.00,0.00,0.00,0,,,100,100,0,2,0,0,0,2,0,,,,,0.0,0.0,0
55.941235,-4.406593,49.90,0.00,0.00,45.51,50.00,50.00,0.00,45.51,15914,2021-05-02 11:28:14.379,2021-05-02 12:28:14.379,17,0,0,15.588,55.940862,-4.406294,0.00,0.00,0.00,-2.50,-3.00,-34.20,0,1,0,68,100,-7076,2351,15588,3026.50,3,P-GPS,1,1,0,0,0,0,0,1619954894379,3923,3903,3903,3879,0,0,27,,,,,,,0,0,0,25.00,-30.00,-342.00,-692.00,0.00,-456.00,6,499.00,0.00,455.10,0.00,0.00,0.00,0,,,100,100,0,2,0,0,0,2,0,,,,,0.0,0.0,0
