latitude,longitude,altitude(m),ultrasonicHeight(m),speed(mps),distance(m),max_altitude(m),max_ascent(m),max_speed(mps),max_distance(m),time(millisecond),datetime(utc),datetime(local),satellites,pressure(Pa),temperature(F),voltage(v),home_latitude,home_longitude,velocityX(mps),velocityY(mps),velocityZ(mps),pitch(deg),roll(deg),yaw(deg),powerlevel,isflying,istakingphoto,remainPowerPercent,remainLifePercent,currentCurrent,currentElectricity,currentVoltage,batteryTemperature,dischargeCount,flightmode,isMotorsOn,isTakingVideo,Rc_elevator,Rc_aileron,Rc_throttle,Rc_rudder,Rc_gyro,timestamp,Battery_Cell1,Battery_Cell2,Battery_Cell3,Battery_Cell4,Battery_Cell5,Battery_Cell6,Dronetype,AppVersion,Planename,FlyControllerSerialNumber,RemoteSerialNumber,BatterySerialNumber,CENTER_BATTERY.productDate,CENTER_BATTERY.serialNo,CENTER_BATTERY.fullCapacity,CENTER_BATTERY.productDateRaw,pitchRaw,rollRaw,yawRaw,gimbalPitchRaw,gimbalRollRaw,gimbalYawRaw,flyState,altitudeRaw,speedRaw,distanceRaw,velocityXRaw,velocityYRaw,velocityZRaw,data_reuse,App_Tip,App_Warning,downlinkSignalQuality,uplinkSignalQuality,transmissionChannel,rcModeSwitch,rcHome,rcPause,rcTransform,rcJoystickMode,appMode,FlyControllerSerialNumber_legacy,RemoteSerialNumber_legacy,BatterySerialNumber_legacy,Battery2SerialNumber,frontAvoidDist,backAvoidDist,rightAvoidDist,leftAvoidDist,upAvoidDist,downAvoidDist,isBrakingToAvoid
55.954655,-4.401828,98.10,0.00,0.00,51.32,98.10,98.10,0.00,51.32,0,2022-09-19 10:41:41.690,2022-09-19 11:41:41.689,19,0,0,0.000,55.954469,-4.402580,0.00,0.00,0.00,2.80,-1.10,100.70,0,1,0,0,0,0,0,0,2731.50,0,P-GPS,1,0,0,0,0,0,0,1663584101689,0,0,0,0,0,0,27,Litchi_4.24.1-g,,,,null,,0,0,0,-28.00,-11.00,1007.00,-900.00,0.00,919.00,6,981.00,0.00,513.19,0.00,0.00,0.00,0,,,80,100,0,2,0,0,0,2,0,,,,null,0.0,0.0,0.0,0.0,0.0,0.0,0
55.954655,-4.401828,98.10,0.00,0.00,51.32,98.10,98.10,0.00,51.32,102,2022-09-19 10:41:41.792,2022-09-19 11:41:41.791,19,0,0,14.687,55.954469,-4.402580,0.00,0.00,0.00,2.90,-1.10,100.70,0,1,0,31,0,-7783,1005,14687,2731.50,0,P-GPS,1,0,0,0,0,0,0,1663584101791,0,0,0,0,0,0,27,Litchi_4.24.1-g,,,,null,,0,0,0,-29.00,-11.00,1007.00,-900.00,0.00,919.00,6,981.00,0.00,513.20,0.00,0.00,0.00,0,,,80,100,0,2,0,0,0,2,0,,,,null,0.0,0.0,0.0,0.0,0.0,0.0,0
55.954655,-4.401828,98.10,0.00,0.00,51.31,98.10,98.10,0.00,51.32,200,2022-09-19 10:41:41.889,2022-09-19 11:41:41.889,19,0,0,14.687,55.954469,-4.402580,0.00,0.00,0.00,2.90,-1.10,100.60,0,1,0,31,0,-7783,1005,14687,2731.50,0,P-GPS,1,0,0,0,0,0,0,1663584101889,0,0,0,0,0,0,27,Litchi_4.24.1-g,,,,null,,0,0,0,-29.00,-11.00,1006.00,-899.00,0.00,919.00,6,981.00,0.00,513.11,0.00,0.00,0.00,0,,,80,100,0,2,0,0,0,2,0,,,,null,0.0,0.0,0.0,0.0,0.0,0.0,0
55.954655,-4.401828,98.10,0.00,0.00,51.31,98.10,98.10,0.00,51.32,301,2022-09-19 10:41:41.991,2022-09-19 11:41:41.990,19,0,0,14.687,55.954469,-4.402580,0.00,0.00,0.00,2.90,-1.00,100.70,0,1,0,31,0,-7783,1005,14687,2731.50,0,P-GPS,1,0,0,0,0,0,0,1663584101990,0,0,0,0,0,0,27,Litchi_4.24.1-g,CJTMAVIC,,0VECFAK0072T52,0P2AFAL5340E87,,0,0,0,-29.00,-10.00,1007.00,-900.00,0.00,919.00,6,981.00,0.00,513.12,0.00,0.00,0.00,0,,,80,100,0,2,0,0,0,2,0,,,,null,0.0,0.0,0.0,0.0,0.0,0.0,0
55.954655,-4.401828,98.10,0.00,0.00,51.31,98.10,98.10,0.00,51.32,396,2022-09-19 10:41:42.086,2022-09-19 11:41:42.085,19,0,0,14.687,55.954469,-4.402580,0.00,0.00,0.00,2.90,-1.00,100.70,0,1,0,31,0,-7783,1005,14687,2731.50,0,P-GPS,1,0,0,0,0,0,0,1663584102085,0,0,0,0,0,0,27,Litchi_4.24.1-g,CJTMAVIC,163DFAS001K45C,0VECFAK0072T52,0P2AFAL5340E87,,0,0,0,-29.00,-10.00,1007.00,-900.00,0.00,919.00,6,981.00,0.00,513.11,0.00,0.00,0.00,0,,,80,100,0,2,0,0,0,2,0,,,,null,0.0,0.0,0.0,0.0,0.0,0.0,0
55.954655,-4.401828,98.10,0.00,0.00,51.31,98.10,98.10,0.00,51.32,496,2022-09-19 10:41:42.186,2022-09-19 11:41:42.185,19,0,0,14.687,55.954469,-4.402580,0.00,0.00,0.00,2.90,-1.10,100.70,0,1,0,31,0,-7783,1005,14687,2731.50,0,P-GPS,1,0,0,0,0,0,0,1663584102185,0,0,0,0,0,0,27,,,,,,,0,0,0,-29.00,-11.00,1007.00,-900.00,0.00,919.00,6,981.00,0.00,513.11,0.00,0.00,0.00,0,,,80,100,0,2,0,0,0,2,0,,,,,0.0,0.0,0.0,0.0,0.0,0.0,0
55.954655,-4.401828,98.10,0.00,0.00,51.30,98.10,98.10,0.00,51.32,599,2022-09-19 10:41:42.288,2022-09-19 11:41:42.288,19,0,0,14.687,55.954469,-4.402580,0.00,0.00,0.00,2.90,-1.30,100.70,0,1,0,31,0,-7783,1005,14687,2731.50,0,P-GPS,1,0,0,0,0,0,0,1663584102288,0,0,0,0,0,0,27,,,,,,,0,0,0,-29.00,-13.00,1007.00,-900.00,0.00,919.00,6,981.00,0.00,513.01,0.00,0.00,0.00,0,,,80,100,0,2,0,0,0,2,0,,,,,0.0,0.0,0.0,0.0,0.0,0.0,0
55.954655,-4.401828,98.10,0.00,0.00,51.30,98.10,98.10,0.00,51.32,694,2022-09-19 10:41:42.384,2022-09-19 11:41:42.384,19,0,0,14.687,55.954469,-4.402580,0.00,0.00,0.00,2.90,-1.30,100.70,0,1,0,31,0,-7783,1005,14687,2731.50,0,P-GPS,1,0,0,0,0,0,0,1663584102383,0,0,0,0,0,0,27,,,,,,,0,0,0,-29.00,-13.00,1007.00,-899.00,0.00,919.00,6,981.00,0.00,513.00,0.00,0.00,0.00,0,,,80,100,0,2,0,0,0,2,0,,,,,0.0,0.0,0.0,0.0,0.0,0.0,0
55.954655,-4.401828,98.10,0.00,0.00,51.30,98.10,98.10,0.00,51.32,796,2022-09-19 10:41:42.485,2022-09-19 11:41:42.485,19,0,0,14.687,55.954469,-4.402580,0.00,0.00,0.00,2.90,-1.30,100.70,0,1,0,31,0,-7783,1005,14687,2731.50,0,P-GPS,1,0,0,0,0,0,0,1663584102485,0,0,0,0,0,0,27,,,,,,,0,0,0,-29.00,-13.00,1007.00,-899.00,0.00,919.00,6,981.00,0.00,513.02,0.00,0.00,0.00,0,,,80,100,0,2,0,0,0,2,0,,,,,0.0,0.0,0.0,0.0,0.0,0.0,0
55.954655,-4.401828,98.10,0.00,0.00,51.30,98.10,98.10,0.00,51.32,901,2022-09-19 10:41:42.591,2022-09-19 11:41:42.590,19,0,0,14.687,55.954469,-4.402580,0.00,0.00,0.00,2.90,-1.40,100.70,0,1,0,31,0,-7783,1005,14687,2731.50,0,P-GPS,1,0,0,0,0,0,0,1663584102590,0,0,0,0,0,0,27,,,,,,,0,0,0,-29.00,-14.00,1007.00,-900.00,0.00,919.00,6,981.00,0.00,513.01,0.00,0.00,0.00,0,,,80,100,0,2,0,0,0,2,0,,,,,0.0,0.0,0.0,0.0,0.0,0.0,0
55.954655,-4.401828,98.10,0.00,0.00,51.30,98.10,98.10,0.00,51.32,1002,2022-09-19 10:41:42.691,2022-09-19 11:41:42.691,19,0,0,14.687,55.954469,-4.402580,0.00,0.00,0.00,3.00,-1.40,100.70,0,1,0,31,0,-7783,1005,14687,2731.50,0,P-GPS,1,0,0,0,0,0,0,1663584102691,0,0,0,0,0,0,27,,,,,,,0,0,0,-30.00,-14.00,1007.00,-899.00,0.00,919.00,6,981.00,0.00,512.95,0.00,0.00,0.00,0,,,80,100,0,2,0,0,0,2,0,,,,,0.0,0.0,0.0,0.0,0.0,0.0,0
55.954655,-4.401828,98.10,0.00,0.00,51.29,98.10,98.10,0.00,51.32,1103,2022-09-19 10:41:42.793,2022-09-19 11:41:42.792,19,0,0,14.687,55.954469,-4.402580,0.00,0.00,0.00,3.10,-1.50,100.70,0,1,0,31,100,-7806,1003,14687,3116.50,0,P-GPS,1,0,0,0,0,0,0,1663584102792,0,0,0,0,0,0,27,,,,,,,0,0,0,-31.00,-15.00,1007.00,-899.00,0.00,919.00,6,981.00,0.00,512.95,0.00,0.00,0.00,0,,,80,100,0,2,0,0,0,2,0,,,,,0.0,0.0,0.0,0.0,0.0,0.0,0
55.954654,-4.401828,98.10,0.00,0.00,51.29,98.10,98.10,0.00,51.32,1210,2022-09-19 10:41:42.899,2022-09-19 11:41:42.899,19,0,0,14.687,55.954469,-4.402580,0.00,0.00,0.00,3.10,-1.50,100.70,0,1,0,31,100,-7806,1003,14687,3116.50,0,P-GPS,1,0,0,0,0,0,0,1663584102899,0,0,0,0,0,0,27,,,,,,,0,0,0,-31.00,-15.00,1007.00,-900.00,0.00,919.00,6,981.00,0.00,512.90,0.00,0.00,0.00,0,,,80,100,0,2,0,0,0,2,0,,,,,0.0,0.0,0.0,0.0,0.0,0.0,0
55.954654,-4.401828,98.20,0.00,0.00,51.29,98.20,98.20,0.00,51.32,1301,2022-09-19 10:41:42.991,2022-09-19 11:41:42.990,19,0,0,14.687,55.954469,-4.402580,0.00,0.00,0.00,3.10,-1.40,100.70,0,1,0,31,100,-7806,1003,14687,3116.50,0,P-GPS,1,0,0,0,0,0,0,1663584102990,0,0,0,0,0,0,27,,,,,,,0,0,0,-31.00,-14.00,1007.00,-900.00,0.00,919.00,6,982.00,0.00,512.90,0.00,0.00,0.00,0,,,80,100,0,2,0,0,0,2,0,,,,,0.0,0.0,0.0,0.0,0.0,0.0,0
55.954654,-4.401828,98.20,0.00,0.00,51.29,98.20,98.20,0.00,51.32,1395,2022-09-19 10:41:43.085,2022-09-19 11:41:43.085,19,0,0,14.687,55.954469,-4.402580,0.00,0.00,0.00,3.10,-1.40,100.70,0,1,0,31,100,-7806,1003,14687,3116.50,0,P-GPS,1,0,0,0,0,0,0,1663584103084,0,0,0,0,0,0,27,,,,,,,0,0,0,-31.00,-14.00,1007.00,-899.00,0.00,919.00,6,982.00,0.00,512.91,0.00,0.00,0.00,0,,,80,100,0,2,0,0,0,2,0,,,,,0.0,0.0,0.0,0.0,0.0,0.0,0
55.954654,-4.401828,98.10,0.00,0.00,51.29,98.20,98.20,0.00,51.32,1500,2022-09-19 10:41:43.190,2022-09-19 11:41:43.189,19,0,0,14.687,55.954469,-4.402580,0.00,0.00,0.00,3.10,-1.40,100.70,0,1,0,31,100,-7806,1003,14687,3116.50,0,P-GPS,1,0,0,0,0,0,0,1663584103189,0,0,0,0,0,0,27,,,,,,,0,0,0,-31.00,-14.00,1007.00,-899.00,0.00,919.00,6,981.00,0.00,512.91,0.00,0.00,0.00,0,,,80,100,0,2,0,0,0,2,0,,,,,0.0,0.0,0.0,0.0,0.0,0.0,0
55.954654,-4.401828,98.10,0.00,0.00,51.29,98.20,98.20,0.00,51.32,1616,2022-09-19 10:41:43.305,2022-09-19 11:41:43.305,19,0,0,14.687,55.954469,-4.402580,0.00,0.00,0.00,3.10,-1.40,100.70,0,1,0,31,100,-7806,1003,14687,3116.50,0,P-GPS,1,0,0,0,0,0,0,1663584103305,0,0,0,0,0,0,27,,,,,,,0,0,0,-31.00,-14.00,1007.00,-899.00,0.00,919.00,6,981.00,0.00,512.92,0.00,0.00,0.00,0,,,80,100,0,2,0,0,0,2,0,,,,,0.0,0.0,0.0,0.0,0.0,0.0,0
55.954654,-4.401828,98.20,0.00,0.00,51.29,98.20,98.20,0.00,51.32,1704,2022-09-19 10:41:43.395,2022-09-19 11:41:43.393,19,0,0,14.687,55.954469,-4.402580,0.00,0.00,0.00,3.10,-1.40,100.70,0,1,0,31,100,-7806,1003,14687,3116.50,0,P-GPS,1,0,0,0,0,0,0,1663584103393,0,0,0,0,0,0,27,,,,,,,0,0,0,-31.00,-14.00,1007.00,-899.00,0.00,919.00,6,982.00,0.00,512.91,0.00,0.00,0.00,0,,,80,100,0,2,0,0,0,2,0,,,,,0.0,0.0,0.0,0.0,0.0,0.0,0
55.954654,-4.401828,98.20,0.00,0.00,51.29,98.20,98.20,0.00,51.32,1797,2022-09-19 10:41:43.486,2022-09-19 11:41:43.486,19,0,0,14.687,55.954469,-4.402580,0.00,0.00,0.00,3.10,-1.40,100.70,0,1,0,31,100,-7806,1003,14687,3116.50,0,P-GPS,1,0,0,0,0,0,0,1663584103486,0,0,0,0,0,0,27,,,,,,,0,0,0,-31.00,-14.00,1007.00,-899.00,0.00,919.00,6,982.00,0.00,512.92,0.00,0.00,0.00,0,,,80,100,0,2,0,0,0,2,0,,,,,0.0,0.0,0.0,0.0,0.0,0.0,0
55.954654,-4.401828,98.20,0.00,0.00,51.29,98.20,98.20,0.00,51.32,1897,2022-09-19 10:41:43.586,2022-09-19 11:41:43.586,19,0,0,14.687,55.954469,-4.402580,0.00,0.00,0.00,3.10,-1.50,100.70,0,1,0,31,100,-7806,1003,14687,3116.50,0,P-GPS,1,0,0,0,0,0,0,1663584103586,0,0,0,0,0,0,27,,,,,,,0,0,0,-31.00,-15.00,1007.00,-900.00,0.00,919.00,6,982.00,0.00,512.91,0.00,0.00,0.00,0,,,80,100,0,2,0,0,0,2,0,,,,,0.0,0.0,0.0,0.0,0.0,0.0,0
55.954654,-4.401829,98.20,0.00,0.00,51.28,98.20,98.20,0.00,51.32,1997,2022-09-19 10:41:43.688,2022-09-19 11:41:43.687,19,0,0,14.687,55.954469,-4.402580,0.00,0.00,0.00,3.10,-1.60,100.70,0,1,0,31,100,-7806,1003,14687,3116.50,0,P-GPS,1,0,0,0,0,0,0,1663584103686,0,0,0,0,0,0,27,,,,,,,0,0,0,-31.00,-16.00,1007.00,-900.00,0.00,919.00,6,982.00,0.00,512.83,0.00,0.00,0.00,0,,,80,100,0,2,0,0,0,2,0,,,,,0.0,0.0,0.0,0.0,0.0,0.0,0
55.954654,-4.401829,98.20,0.00,0.00,51.28,98.20,98.20,0.00,51.32,2098,2022-09-19 10:41:43.788,2022-09-19 11:41:43.788,19,0,0,14.684,55.954469,-4.402580,0.00,0.00,0.00,3.00,-1.60,100.70,0,1,0,31,100,-7797,1000,14684,3116.50,11,P-GPS,1,0,0,0,0,0,0,1663584103787,0,0,0,0,0,0,27,,,,,,,0,0,0,-30.00,-16.00,1007.00,-900.00,0.00,919.00,6,982.00,0.00,512.81,0.00,0.00,0.00,0,,,80,100,0,2,0,0,0,2,0,,,,,0.0,0.0,0.0,0.0,0.0,0.0,0
55.954654,-4.401828,98.10,0.00,0.00,51.29,98.20,98.20,0.00,51.32,2208,2022-09-19 10:41:43.897,2022-09-19 11:41:43.897,19,0,0,14.684,55.954469,-4.402580,0.00,0.00,0.00,3.00,-1.60,100.70,0,1,0,31,100,-7797,1000,14684,3116.50,11,P-GPS,1,0,0,0,0,0,0,1663584103897,0,0,0,0,0,0,27,,,,,,,0,0,0,-30.00,-16.00,1007.00,-900.00,0.00,919.00,6,981.00,0.00,512.92,0.00,0.00,0.00,0,,,80,100,0,2,0,0,0,2,0,,,,,0.0,0.0,0.0,0.0,0.0,0.0,0
55.954654,-4.401828,98.20,0.00,0.00,51.29,98.20,98.20,0.00,51.32,2302,2022-09-19 10:41:43.991,2022-09-19 11:41:43.991,19,0,0,14.684,55.954469,-4.402580,0.00,0.00,0.00,3.00,-1.50,100.70,0,1,0,31,100,-7797,1000,14684,3116.50,11,P-GPS,1,0,0,0,0,0,0,1663584103991,0,0,0,0,0,0,27,,,,,,,0,0,0,-30.00,-15.00,1007.00,-899.00,0.00,919.00,6,982.00,0.00,512.92,0.00,0.00,0.00,0,,,80,100,0,2,0,0,0,2,0,,,,,0.0,0.0,0.0,0.0,0.0,0.0,0
55.954654,-4.401828,98.20,0.00,0.00,51.29,98.20,98.20,0.00,51.32,2398,2022-09-19 10:41:44.087,2022-09-19 11:41:44.087,19,0,0,14.684,55.954469,-4.402580,0.00,0.00,0.00,3.00,-1.50,100.70,0,1,0,31,100,-7797,1000,14684,3116.50,11,P-GPS,1,0,0,0,0,0,0,1663584104087,0,0,0,0,0,0,27,,,,,,,0,0,0,-30.00,-15.00,1007.00,-899.00,0.00,919.00,6,982.00,0.00,512.94,0.00,0.00,0.00,0,,,80,100,0,2,0,0,0,2,0,,,,,0.0,0.0,0.0,0.0,0.0,0.0,0
55.954654,-4.401828,98.20,0.00,0.00,51.29,98.20,98.20,0.00,51.32,2502,2022-09-19 10:41:44.191,2022-09-19 11:41:44.191,19,0,0,14.684,55.954469,-4.402580,0.00,0.00,0.00,3.10,-1.50,100.70,0,1,0,31,100,-7797,1000,14684,3116.50,11,P-GPS,1,0,0,0,0,0,0,1663584104191,0,0,0,0,0,0,27,,,,,,,0,0,0,-31.00,-15.00,1007.00,-899.00,0.00,919.00,6,982.00,0.00,512.94,0.00,0.00,0.00,0,,,80,100,0,2,0,0,0,2,0,,,,,0.0,0.0,0.0,0.0,0.0,0.0,0
55.954654,-4.401828,98.20,0.00,0.00,51.30,98.20,98.20,0.00,51.32,2605,2022-09-19 10:41:44.295,2022-09-19 11:41:44.294,19,0,0,14.684,55.954469,-4.402580,0.00,0.00,0.00,3.00,-1.60,100.70,0,1,0,31,100,-7797,1000,14684,3116.50,11,P-GPS,1,0,0,0,0,0,0,1663584104294,0,0,0,0,0,0,27,,,,,,,0,0,0,-30.00,-16.00,1007.00,-900.00,0.00,919.00,6,982.00,0.00,512.95,0.00,0.00,0.00,0,,,80,100,0,2,0,0,0,2,0,,,,,0.0,0.0,0.0,0.0,0.0,0.0,0
55.954655,-4.401828,98.10,0.00,0.00,51.30,98.20,98.20,0.00,51.32,2711,2022-09-19 10:41:44.401,2022-09-19 11:41:44.400,19,0,0,14.684,55.954469,-4.402580,0.00,0.00,0.00,3.00,-1.50,100.70,0,1,0,31,100,-7797,1000,14684,3116.50,11,P-GPS,1,0,0,0,0,0,0,1663584104400,0,0,0,0,0,0,27,,,,,,,0,0,0,-30.00,-15.00,1007.00,-899.00,0.00,919.00,6,981.00,0.00,512.96,0.00,0.00,0.00,0,,,80,100,0,2,0,0,0,2,0,,,,,0.0,0.0,0.0,0.0,0.0,0.0,0
55.954654,-4.401829,98.10,0.00,0.00,51.29,98.20,98.20,0.00,51.32,2799,2022-09-19 10:41:44.489,2022-09-19 11:41:44.488,19,0,0,14.684,55.954469,-4.402580,0.00,0.00,0.00,2.90,-1.50,100.60,0,1,0,31,100,-7797,1000,14684,3116.50,11,P-GPS,1,0,0,0,0,0,0,1663584104488,0,0,0,0,0,0,27,,,,,,,0,0,0,-29.00,-15.00,1006.00,-900.00,0.00,919.00,6,981.00,0.00,512.87,0.00,0.00,0.00,0,,,80,100,0,2,0,0,0,2,0,,,,,0.0,0.0,0.0,0.0,0.0,0.0,0
55.954655,-4.401829,98.10,0.00,0.00,51.29,98.20,98.20,0.00,51.32,2898,2022-09-19 10:41:44.588,2022-09-19 11:41:44.587,19,0,0,14.684,55.954469,-4.402580,0.00,0.00,0.00,3.00,-1.50,100.60,0,1,0,31,100,-7797,1000,14684,3116.50,11,P-GPS,1,0,0,0,0,0,0,1663584104587,0,0,0,0,0,0,27,,,,,,,0,0,0,-30.00,-15.00,1006.00,-899.00,0.00,919.00,6,981.00,0.00,512.87,0.00,0.00,0.00,0,,,80,100,0,2,0,0,0,2,0,,,,,0.0,0.0,0.0,0.0,0.0,0.0,0
55.954654,-4.401829,98.10,0.00,0.00,51.29,98.20,98.20,0.00,51.32,3007,2022-09-19 10:41:44.697,2022-09-19 11:41:44.696,19,0,0,14.684,55.954469,-4.402580,0.00,0.00,0.00,3.00,-1.40,100.70,0,1,0,31,100,-7797,1000,14684,3116.50,11,P-GPS,1,0,0,0,0,0,0,1663584104696,0,0,0,0,0,0,27,,,,,,,0,0,0,-30.00,-14.00,1007.00,-899.00,0.00,919.00,6,981.00,0.00,512.88,0.00,0.00,0.00,0,,,80,100,0,2,0,0,0,2,2,,,,,0.0,0.0,0.0,0.0,0.0,0.0,0
55.954655,-4.401829,98.10,0.00,0.00,51.29,98.20,98.20,0.00,51.32,3101,2022-09-19 10:41:44.790,2022-09-19 11:41:44.790,19,0,0,14.684,55.954469,-4.402580,0.00,0.00,0.00,2.90,-1.50,100.70,0,1,0,31,100,-7797,1000,14684,3116.50,11,P-GPS,1,0,0,0,0,0,0,1663584104790,0,0,0,0,0,0,27,,,,,,,0,0,0,-29.00,-15.00,1007.00,-900.00,0.00,919.00,6,981.00,0.00,512.88,0.00,0.00,0.00,0,,,80,100,0,2,0,0,0,2,2,,,,,0.0,0.0,0.0,0.0,0.0,0.0,0
55.954654,-4.401829,98.10,0.00,0.00,51.29,98.20,98.20,0.00,51.32,3196,2022-09-19 10:41:44.886,2022-09-19 11:41:44.885,19,0,0,14.684,55.954469,-4.402580,0.00,0.00,0.00,2.90,-1.70,100.70,0,1,0,31,100,-7797,1000,14684,3116.50,11,P-GPS,1,0,0,0,0,0,0,1663584104885,0,0,0,0,0,0,27,,,,,,,0,0,0,-29.00,-17.00,1007.00,-899.00,0.00,919.00,6,981.00,0.00,512.89,0.00,0.00,0.00,0,,,80,100,0,2,0,0,0,2,2,,,,,0.0,0.0,0.0,0.0,0.0,0.0,0
55.954654,-4.401829,98.10,0.00,0.00,51.29,98.20,98.20,0.00,51.32,3297,2022-09-19 10:41:44.987,2022-09-19 11:41:44.986,19,0,0,14.684,55.954469,-4.402580,0.00,0.00,0.00,2.90,-1.60,100.70,0,1,0,31,100,-7797,1000,14684,3116.50,11,P-GPS,1,0,0,0,0,0,0,1663584104986,0,0,0,0,0,0,27,,,,,,,0,0,0,-29.00,-16.00,1007.00,-899.00,0.00,919.00,6,981.00,0.00,512.89,0.00,0.00,0.00,0,,,80,100,0,2,0,0,0,2,2,,,,,0.0,0.0,0.0,0.0,0.0,0.0,0
55.954654,-4.401829,98.10,0.00,0.00,51.29,98.20,98.20,0.00,51.32,3397,2022-09-19 10:41:45.087,2022-09-19 11:41:45.086,19,0,0,14.684,55.954469,-4.402580,0.00,0.00,0.00,2.90,-1.50,100.70,0,1,0,31,100,-7797,1000,14684,3116.50,11,P-GPS,1,0,0,0,0,0,0,1663584105086,0,0,0,0,0,0,27,,,,,,,0,0,0,-29.00,-15.00,1007.00,-900.00,0.00,919.00,6,981.00,0.00,512.89,0.00,0.00,0.00,0,,,80,100,0,2,0,0,0,2,2,,,,,0.0,0.0,0.0,0.0,0.0,0.0,0
55.954655,-4.401829,98.10,0.00,0.00,51.29,98.20,98.20,0.00,51.32,3503,2022-09-19 10:41:45.192,2022-09-19 11:41:45.192,19,0,0,14.684,55.954469,-4.402580,0.00,0.00,0.00,2.80,-1.50,100.70,0,1,0,31,100,-7797,1000,14684,3116.50,11,P-GPS,1,0,0,0,0,0,0,1663584105192,0,0,0,0,0,0,27,,,,,,,0,0,0,-28.00,-15.00,1007.00,-900.00,0.00,919.00,6,981.00,0.00,512.90,0.00,0.00,0.00,0,,,80,100,0,2,0,0,0,2,2,,,,,0.0,0.0,0.0,0.0,0.0,0.0,0
55.954655,-4.401829,98.10,0.00,0.00,51.30,98.20,98.20,0.00,51.32,3598,2022-09-19 10:41:45.287,2022-09-19 11:41:45.287,19,0,0,14.684,55.954469,-4.402580,0.00,0.00,0.00,2.80,-1.40,100.70,0,1,0,31,100,-7797,1000,14684,3116.50,11,P-GPS,1,0,0,0,0,0,0,1663584105287,0,0,0,0,0,0,27,,,,,,,0,0,0,-28.00,-14.00,1007.00,-900.00,0.00,919.00,6,981.00,0.00,512.98,0.00,0.00,0.00,0,,,80,100,0,2,0,0,0,2,2,,,,,0.0,0.0,0.0,0.0,0.0,0.0,0
55.954655,-4.401829,98.10,0.00,0.00,51.30,98.20,98.20,0.00,51.32,3699,2022-09-19 10:41:45.388,2022-09-19 11:41:45.388,19,0,0,14.684,55.954469,-4.402580,0.00,0.00,0.00,2.80,-1.30,100.60,0,1,0,31,100,-7797,1000,14684,3116.50,11,P-GPS,1,0,0,0,0,0,0,1663584105388,0,0,0,0,0,0,27,,,,,,,0,0,0,-28.00,-13.00,1006.00,-899.00,0.00,919.00,6,981.00,0.00,512.99,0.00,0.00,0.00,0,,,80,100,0,2,0,0,0,2,2,,,,,0.0,0.0,0.0,0.0,0.0,0.0,0
55.954655,-4.401829,98.10,0.00,0.00,51.30,98.20,98.20,0.00,51.32,3798,2022-09-19 10:41:45.488,2022-09-19 11:41:45.487,19,0,0,14.684,55.954469,-4.402580,0.00,0.00,0.00,2.80,-1.40,100.70,0,1,0,31,100,-7797,1000,14684,3116.50,11,P-GPS,1,0,0,0,0,0,0,1663584105487,0,0,0,0,0,0,27,,,,,,,0,0,0,-28.00,-14.00,1007.00,-900.00,0.00,919.00,6,981.00,0.00,512.98,0.00,0.00,0.00,0,,,80,100,0,2,0,0,0,2,2,,,,,0.0,0.0,0.0,0.0,0.0,0.0,0
55.954655,-4.401828,98.10,0.00,0.00,51.30,98.20,98.20,0.00,51.32,3895,2022-09-19 10:41:45.584,2022-09-19 11:41:45.584,19,0,0,14.684,55.954469,-4.402580,0.00,0.00,0.00,2.80,-1.40,100.70,0,1,0,31,100,-7797,1000,14684,3116.50,11,P-GPS,1,0,0,0,0,0,0,1663584105584,0,0,0,0,0,0,27,,,,,,,0,0,0,-28.00,-14.00,1007.00,-899.00,0.00,919.00,6,981.00,0.00,513.00,0.00,0.00,0.00,0,,,80,100,0,2,0,0,0,2,2,,,,,0.0,0.0,0.0,0.0,0.0,0.0,0
55.954655,-4.401829,98.10,0.00,0.00,51.29,98.20,98.20,0.00,51.32,3997,2022-09-19 10:41:45.686,2022-09-19 11:41:45.686,19,0,0,14.684,55.954469,-4.402580,0.00,0.00,0.00,2.80,-1.40,100.60,0,1,0,31,100,-7797,1000,14684,3116.50,11,P-GPS,1,0,0,0,0,0,0,1663584105686,0,0,0,0,0,0,27,,,,,,,0,0,0,-28.00,-14.00,1006.00,-900.00,0.00,919.00,6,981.00,0.00,512.88,0.00,0.00,0.00,0,,,80,100,0,2,0,0,0,2,2,,,,,0.0,0.0,0.0,0.0,0.0,0.0,0
55.954655,-4.401829,98.10,0.00,0.00,51.29,98.20,98.20,0.00,51.32,4097,2022-09-19 10:41:45.786,2022-09-19 11:41:45.786,19,0,0,14.681,55.954469,-4.402580,0.00,0.00,0.00,2.80,-1.50,100.70,0,1,0,30,100,-7797,1000,14681,3115.50,11,P-GPS,1,0,0,0,0,0,0,1663584105786,0,0,0,0,0,0,27,,,,,,,0,0,0,-28.00,-15.00,1007.00,-899.00,0.00,919.00,6,981.00,0.00,512.89,0.00,0.00,0.00,0,,,80,100,0,2,0,0,0,2,2,,,,,0.0,0.0,0.0,0.0,0.0,0.0,0
55.954655,-4.401829,98.10,0.00,0.00,51.29,98.20,98.20,0.00,51.32,4199,2022-09-19 10:41:45.889,2022-09-19 11:41:45.889,19,0,0,14.681,55.954469,-4.402580,0.00,0.00,0.00,2.80,-1.60,100.70,0,1,0,30,100,-7797,1000,14681,3115.50,11,P-GPS,1,0,0,0,0,0,0,1663584105888,0,0,0,0,0,0,27,,,,,,,0,0,0,-28.00,-16.00,1007.00,-899.00,0.00,919.00,6,981.00,0.00,512.87,0.00,0.00,0.00,0,,,80,100,0,2,0,0,0,2,2,,,,,0.0,0.0,0.0,0.0,0.0,0.0,0
55.954655,-4.401829,98.10,0.00,0.00,51.29,98.20,98.20,0.00,51.32,4301,2022-09-19 10:41:45.991,2022-09-19 11:41:45.990,19,0,0,14.681,55.954469,-4.402580,0.00,0.00,0.00,2.90,-1.70,100.70,0,1,0,30,100,-7797,1000,14681,3115.50,11,P-GPS,1,0,0,0,0,0,0,1663584105990,0,0,0,0,0,0,27,,,,,,,0,0,0,-29.00,-17.00,1007.00,-899.00,0.00,919.00,6,981.00,0.00,512.87,0.00,0.00,0.00,0,,,80,100,0,2,0,0,0,2,2,,,,,0.0,0.0,0.0,0.0,0.0,0.0,0
55.954655,-4.401829,98.10,0.00,0.00,51.28,98.20,98.20,0.00,51.32,4399,2022-09-19 10:41:46.088,2022-09-19 11:41:46.088,19,0,0,14.681,55.954469,-4.402580,0.00,0.00,0.00,2.90,-1.80,100.70,0,1,0,30,100,-7797,1000,14681,3115.50,11,P-GPS,1,0,0,0,0,0,0,1663584106088,0,0,0,0,0,0,27,,,,,,,0,0,0,-29.00,-18.00,1007.00,-900.00,0.00,919.00,6,981.00,0.00,512.78,0.00,0.00,0.00,0,,,80,100,0,2,0,0,0,2,2,,,,,0.0,0.0,0.0,0.0,0.0,0.0,0
55.954655,-4.401829,98.10,0.00,0.00,51.28,98.20,98.20,0.00,51.32,4497,2022-09-19 10:41:46.187,2022-09-19 11:41:46.186,19,0,0,14.681,55.954469,-4.402580,0.00,0.00,0.00,2.90,-1.80,100.70,0,1,0,30,100,-7797,1000,14681,3115.50,11,P-GPS,1,0,0,0,0,0,0,1663584106186,0,0,0,0,0,0,27,,,,,,,0,0,0,-29.00,-18.00,1007.00,-899.00,0.00,919.00,6,981.00,0.00,512.77,0.00,0.00,0.00,0,,,80,100,0,2,0,0,0,2,2,,,,,0.0,0.0,0.0,0.0,0.0,0.0,0
55.954655,-4.401829,98.10,0.00,0.00,51.28,98.20,98.20,0.00,51.32,4607,2022-09-19 10:41:46.296,2022-09-19 11:41:46.296,19,0,0,14.681,55.954469,-4.402580,0.00,0.00,0.00,2.90,-1.80,100.70,0,1,0,30,100,-7797,1000,14681,3115.50,11,P-GPS,1,0,0,0,0,0,0,1663584106296,0,0,0,0,0,0,27,,,,,,,0,0,0,-29.00,-18.00,1007.00,-900.00,0.00,919.00,6,981.00,0.00,512.79,0.00,0.00,0.00,0,,,80,100,0,2,0,0,0,2,2,,,,,0.0,0.0,0.0,0.0,0.0,0.0,0
55.954655,-4.401829,98.10,0.00,0.00,51.28,98.20,98.20,0.00,51.32,4702,2022-09-19 10:41:46.391,2022-09-19 11:41:46.391,19,0,0,14.681,55.954469,-4.402580,0.00,0.00,0.00,3.00,-1.80,100.70,0,1,0,30,100,-7797,1000,14681,3115.50,11,P-GPS,1,0,0,0,0,0,0,1663584106391,0,0,0,0,0,0,27,,,,,,,0,0,0,-30.00,-18.00,1007.00,-899.00,0.00,919.00,6,981.00,0.00,512.79,0.00,0.00,0.00,0,,,80,100,0,2,0,0,0,2,2,,,,,0.0,0.0,0.0,0.0,0.0,0.0,0
55.954654,-4.401829,98.10,0.00,0.00,51.27,98.20,98.20,0.00,51.32,4813,2022-09-19 10:41:46.502,2022-09-19 11:41:46.502,19,0,0,14.681,55.954469,-4.402580,0.00,0.00,0.00,3.00,-1.80,100.70,0,1,0,30,100,-7797,1000,14681,3115.50,11,P-GPS,1,0,0,0,0,0,0,1663584106502,0,0,0,0,0,0,27,,,,,,,0,0,0,-30.00,-18.00,1007.00,-900.00,0.00,919.00,6,981.00,0.00,512.65,0.00,0.00,0.00,0,,,80,100,0,2,0,0,0,2,2,,,,,0.0,0.0,0.0,0.0,0.0,0.0,0
55.954654,-4.401829,98.10,0.00,0.00,51.26,98.20,98.20,0.00,51.32,4945,2022-09-19 10:41:46.635,2022-09-19 11:41:46.634,19,0,0,14.681,55.954469,-4.402580,0.00,0.00,0.00,3.00,-1.90,100.70,0,1,0,30,100,-7797,1000,14681,3115.50,11,P-GPS,1,0,0,0,0,0,0,1663584106634,3681,3682,3668,3650,0,0,27,,,,,,,0,0,0,-30.00,-19.00,1007.00,-899.00,0.00,919.00,6,981.00,0.00,512.64,0.00,0.00,0.00,0,,,80,100,0,2,0,0,0,2,2,,,,,0.0,0.0,0.0,0.0,0.0,0.0,0
55.954654,-4.401829,98.10,0.00,0.00,51.27,98.20,98.20,0.00,51.32,5102,2022-09-19 10:41:46.792,2022-09-19 11:41:46.791,19,0,0,14.681,55.954469,-4.402580,0.00,0.00,0.00,3.00,-1.70,100.70,0,1,0,30,100,-7834,996,14681,3116.50,11,P-GPS,1,0,0,0,0,0,0,1663584106791,3681,3682,3668,3650,0,0,27,,,,,,,0,0,0,-30.00,-17.00,1007.00,-899.00,0.00,919.00,6,981.00,0.00,512.67,0.00,0.00,0.00,0,,,80,100,0,2,0,0,0,2,2,,,,,0.0,0.0,0.0,0.0,0.0,0.0,0
55.954654,-4.401829,98.10,0.00,0.00,51.27,98.20,98.20,0.00,51.32,5221,2022-09-19 10:41:46.912,2022-09-19 11:41:46.910,19,0,0,14.681,55.954469,-4.402580,0.00,0.00,0.00,3.00,-1.70,100.70,0,1,0,30,100,-7834,996,14681,3116.50,11,P-GPS,1,0,0,0,0,0,0,1663584106910,3681,3682,3668,3650,0,0,27,,,,,,,0,0,0,-30.00,-17.00,1007.00,-899.00,0.00,919.00,6,981.00,0.00,512.70,0.00,0.00,0.00,0,,,80,100,0,2,0,0,0,2,2,,,,,0.0,0.0,0.0,0.0,0.0,0.0,0
55.954654,-4.401829,98.10,0.00,0.00,51.26,98.20,98.20,0.00,51.32,5403,2022-09-19 10:41:47.093,2022-09-19 11:41:47.092,19,0,0,14.681,55.954469,-4.402580,0.00,0.00,0.00,3.00,-1.70,100.70,0,1,0,30,100,-7834,996,14681,3116.50,11,P-GPS,1,0,0,0,0,0,0,1663584107092,3681,3682,3668,3650,0,0,27,,,,,,,0,0,0,-30.00,-17.00,1007.00,-900.00,0.00,919.00,6,981.00,0.00,512.65,0.00,0.00,0.00,0,,,80,100,0,2,0,0,0,2,2,,,,,0.0,0.0,0.0,0.0,0.0,0.0,0
55.954654,-4.401829,98.10,0.00,0.00,51.26,98.20,98.20,0.00,51.32,5504,2022-09-19 10:41:47.194,2022-09-19 11:41:47.193,19,0,0,14.681,55.954469,-4.402580,0.00,0.00,0.00,3.00,-1.70,100.70,0,1,0,30,100,-7834,996,14681,3116.50,11,P-GPS,1,0,0,0,0,0,0,1663584107193,3681,3682,3668,3650,0,0,27,,,,,,,0,0,0,-30.00,-17.00,1007.00,-899.00,0.00,919.00,6,981.00,0.00,512.64,0.00,0.00,0.00,0,,,80,100,0,2,0,0,0,2,2,,,,,0.0,0.0,0.0,0.0,0.0,0.0,0
55.954654,-4.401829,98.10,0.00,0.00,51.26,98.20,98.20,0.00,51.32,5617,2022-09-19 10:41:47.307,2022-09-19 11:41:47.306,19,0,0,14.681,55.954469,-4.402580,0.00,0.00,0.00,3.00,-1.60,100.70,0,1,0,30,100,-7834,996,14681,3116.50,11,P-GPS,1,0,0,0,0,0,0,1663584107306,3681,3682,3668,3650,0,0,27,,,,,,,0,0,0,-30.00,-16.00,1007.00,-899.00,0.00,919.00,6,981.00,0.00,512.63,0.00,0.00,0.00,0,,,80,100,0,2,0,0,0,2,2,,,,,0.0,0.0,0.0,0.0,0.0,0.0,0
55.954654,-4.401829,98.10,0.00,0.00,51.27,98.20,98.20,0.00,51.32,5790,2022-09-19 10:41:47.480,2022-09-19 11:41:47.479,19,0,0,14.681,55.954469,-4.402580,0.00,0.00,0.00,2.90,-1.50,100.70,0,1,0,30,100,-7834,996,14681,3116.50,11,P-GPS,1,0,0,0,0,0,0,1663584107479,3681,3682,3668,3650,0,0,27,,,,,,,0,0,0,-29.00,-15.00,1007.00,-900.00,0.00,919.00,6,981.00,0.00,512.73,0.00,0.00,0.00,0,,,80,100,0,2,0,0,0,2,2,,,,,0.0,0.0,0.0,0.0,0.0,0.0,0
55.954654,-4.401829,98.10,0.00,0.00,51.27,98.20,98.20,0.00,51.32,5894,2022-09-19 10:41:47.584,2022-09-19 11:41:47.583,19,0,0,14.681,55.954469,-4.402580,0.00,0.00,0.00,2.90,-1.60,100.70,0,1,0,30,100,-7834,996,14681,3116.50,11,P-GPS,1,0,0,0,0,0,0,1663584107583,3681,3682,3668,3650,0,0,27,,,,,,,0,0,0,-29.00,-16.00,1007.00,-899.00,0.00,919.00,6,981.00,0.00,512.73,0.00,0.00,0.00,0,,,80,100,0,2,0,0,0,2,2,,,,,0.0,0.0,0.0,0.0,0.0,0.0,0
55.954654,-4.401829,98.10,0.00,0.00,51.27,98.20,98.20,0.00,51.32,5995,2022-09-19 10:41:47.684,2022-09-19 11:41:47.684,19,0,0,14.681,55.954469,-4.402580,0.00,0.00,0.00,2.90,-1.70,100.70,0,1,0,30,100,-7834,996,14681,3116.50,11,P-GPS,1,0,0,0,0,0,0,1663584107684,3681,3682,3668,3650,0,0,27,,,,,,,0,0,0,-29.00,-17.00,1007.00,-899.00,0.00,919.00,6,981.00,0.00,512.72,0.00,0.00,0.00,0,,,80,100,0,2,0,0,0,2,2,,,,,0.0,0.0,0.0,0.0,0.0,0.0,0
55.954654,-4.401829,98.10,0.00,0.00,51.27,98.20,98.20,0.00,51.32,6101,2022-09-19 10:41:47.791,2022-09-19 11:41:47.790,19,0,0,14.680,55.954469,-4.402580,0.00,0.00,0.00,3.40,-1.10,100.80,0,1,0,30,100,-7816,994,14680,3116.50,11,Joystick,1,0,0,0,0,0,0,1663584107790,3681,3682,3668,3650,0,0,27,,,,,,,0,0,0,-34.00,-11.00,1008.00,-899.00,0.00,919.00,17,981.00,0.00,512.72,0.00,0.00,0.00,0,,,80,100,0,2,0,0,0,2,2,,,,,0.0,0.0,0.0,0.0,0.0,0.0,0
55.954654,-4.401829,98.10,0.00,0.00,51.28,98.20,98.20,0.00,51.32,6199,2022-09-19 10:41:47.889,2022-09-19 11:41:47.888,19,0,0,14.680,55.954469,-4.402580,0.00,0.00,0.00,3.50,-0.90,100.70,0,1,0,30,100,-7816,994,14680,3116.50,11,Joystick,1,0,0,0,0,0,0,1663584107888,3681,3682,3668,3650,0,0,27,,,,,,,0,0,0,-35.00,-9.00,1007.00,-900.00,0.00,919.00,17,981.00,0.00,512.80,0.00,0.00,0.00,0,,,80,100,0,2,0,0,0,2,2,,,,,0.0,0.0,0.0,0.0,0.0,0.0,0
55.954654,-4.401829,98.10,0.00,0.00,51.28,98.20,98.20,0.00,51.32,6294,2022-09-19 10:41:47.984,2022-09-19 11:41:47.983,19,0,0,14.680,55.954469,-4.402580,0.00,0.00,0.00,3.50,-0.90,100.70,0,1,0,30,100,-7816,994,14680,3116.50,11,Joystick,1,0,0,0,0,0,0,1663584107983,3681,3682,3668,3650,0,0,27,,,,,,,0,0,0,-35.00,-9.00,1007.00,-900.00,0.00,919.00,17,981.00,0.00,512.80,0.00,0.00,0.00,0,,,80,100,0,2,0,0,0,2,2,,,,,0.0,0.0,0.0,0.0,0.0,0.0,0
55.954654,-4.401829,98.10,0.00,0.00,51.28,98.20,98.20,0.00,51.32,6396,2022-09-19 10:41:48.086,2022-09-19 11:41:48.085,19,0,0,14.680,55.954469,-4.402580,0.00,0.00,0.00,3.40,-1.10,100.70,0,1,0,30,100,-7816,994,14680,3116.50,11,Joystick,1,0,0,0,0,0,0,1663584108085,3681,3682,3668,3650,0,0,27,,,,,,,0,0,0,-34.00,-11.00,1007.00,-899.00,0.00,919.00,17,981.00,0.00,512.76,0.00,0.00,0.00,0,,,80,100,0,2,0,0,0,2,2,,,,,0.0,0.0,0.0,0.0,0.0,0.0,0
55.954654,-4.401829,98.10,0.00,0.00,51.27,98.20,98.20,0.00,51.32,6502,2022-09-19 10:41:48.193,2022-09-19 11:41:48.191,19,0,0,14.680,55.954469,-4.402580,0.00,0.00,0.00,3.20,-1.40,100.70,0,1,0,30,100,-7816,994,14680,3116.50,11,Joystick,1,0,0,0,0,0,0,1663584108191,3681,3682,3668,3650,0,0,27,,,,,,,0,0,0,-32.00,-14.00,1007.00,-900.00,0.00,919.00,17,981.00,0.00,512.73,0.00,0.00,0.00,0,,,80,100,0,2,0,0,0,2,2,,,,,0.0,0.0,0.0,0.0,0.0,0.0,0
55.954654,-4.401829,98.10,0.00,0.00,51.27,98.20,98.20,0.00,51.32,6604,2022-09-19 10:41:48.293,2022-09-19 11:41:48.293,19,0,0,14.680,55.954469,-4.402580,0.00,0.00,0.00,3.20,-1.50,100.70,0,1,0,30,100,-7816,994,14680,3116.50,11,Joystick,1,0,0,0,0,0,0,1663584108293,3681,3682,3668,3650,0,0,27,,,,,,,0,0,0,-32.00,-15.00,1007.00,-899.00,0.00,919.00,17,981.00,0.00,512.68,0.00,0.00,0.00,0,,,80,100,0,2,0,0,0,2,2,,,,,0.0,0.0,0.0,0.0,0.0,0.0,0
55.954654,-4.401829,98.10,0.00,0.00,51.26,98.20,98.20,0.00,51.32,6700,2022-09-19 10:41:48.390,2022-09-19 11:41:48.389,19,0,0,14.680,55.954469,-4.402580,0.00,0.00,0.00,3.10,-1.70,100.70,0,1,0,30,100,-7816,994,14680,3116.50,11,Joystick,1,0,0,0,0,0,0,1663584108389,3681,3682,3668,3650,0,0,27,,,,,,,0,0,0,-31.00,-17.00,1007.00,-900.00,0.00,919.00,17,981.00,0.00,512.64,0.00,0.00,0.00,0,,,80,100,0,2,0,0,0,2,2,,,,,0.0,0.0,0.0,0.0,0.0,0.0,0
55.954654,-4.401829,98.10,0.00,0.00,51.25,98.20,98.20,0.00,51.32,6816,2022-09-19 10:41:48.507,2022-09-19 11:41:48.506,19,0,0,14.680,55.954469,-4.402580,0.00,0.00,0.00,3.00,-1.80,100.70,0,1,0,30,100,-7816,994,14680,3116.50,11,Joystick,1,0,0,0,0,0,0,1663584108505,3681,3682,3668,3650,0,0,27,,,,,,,0,0,0,-30.00,-18.00,1007.00,-900.00,0.00,919.00,17,981.00,0.00,512.51,0.00,0.00,0.00,0,,,80,100,0,2,0,0,0,2,2,,,,,0.0,0.0,0.0,0.0,0.0,0.0,0
55.954654,-4.401829,98.10,0.00,0.00,51.25,98.20,98.20,0.00,51.32,6940,2022-09-19 10:41:48.631,2022-09-19 11:41:48.629,19,0,0,14.680,55.954469,-4.402580,0.00,0.00,0.00,3.00,-1.90,100.70,0,1,0,30,100,-7816,994,14680,3116.50,11,Joystick,1,0,0,0,0,0,0,1663584108629,3681,3682,3668,3650,0,0,27,,,,,,,0,0,0,-30.00,-19.00,1007.00,-900.00,0.00,919.00,17,981.00,0.00,512.47,0.00,0.00,0.00,0,,,80,100,0,2,0,0,0,2,2,,,,,0.0,0.0,0.0,0.0,0.0,0.0,0
55.954654,-4.401829,98.10,0.00,0.00,51.25,98.20,98.20,0.00,51.32,7103,2022-09-19 10:41:48.792,2022-09-19 11:41:48.792,19,0,0,14.678,55.954469,-4.402580,0.00,0.00,0.00,3.00,-1.80,100.70,0,1,0,30,100,-7786,992,14678,3116.50,11,Joystick,1,0,0,0,0,0,0,1663584108792,3681,3682,3668,3650,0,0,27,,,,,,,0,0,0,-30.00,-18.00,1007.00,-899.00,0.00,919.00,17,981.00,0.00,512.54,0.00,0.00,0.00,0,,,80,100,0,2,0,0,0,2,2,,,,,0.0,0.0,0.0,0.0,0.0,0.0,0
55.954654,-4.401829,98.10,0.00,0.00,51.25,98.20,98.20,0.00,51.32,7209,2022-09-19 10:41:48.899,2022-09-19 11:41:48.898,19,0,0,14.678,55.954469,-4.402580,0.00,0.00,0.00,2.90,-1.80,100.70,0,1,0,30,100,-7786,992,14678,3116.50,11,Joystick,1,0,0,0,0,0,0,1663584108898,3681,3682,3668,3650,0,0,27,,,,,,,0,0,0,-29.00,-18.00,1007.00,-899.00,0.00,919.00,17,981.00,0.00,512.47,0.00,0.00,0.00,0,,,80,100,0,2,0,0,0,2,2,,,,,0.0,0.0,0.0,0.0,0.0,0.0,0
55.954654,-4.401829,98.10,0.00,0.00,51.25,98.20,98.20,0.00,51.32,7305,2022-09-19 10:41:48.994,2022-09-19 11:41:48.994,19,0,0,14.678,55.954469,-4.402580,0.00,0.00,0.00,3.00,-1.90,100.70,0,1,0,30,100,-7786,992,14678,3116.50,11,Joystick,1,0,0,0,0,0,0,1663584108994,3681,3682,3668,3650,0,0,27,,,,,,,0,0,0,-30.00,-19.00,1007.00,-900.00,0.00,919.00,17,981.00,0.00,512.45,0.00,0.00,0.00,0,,,80,100,0,2,0,0,0,2,2,,,,,0.0,0.0,0.0,0.0,0.0,0.0,0
55.954654,-4.401829,98.10,0.00,0.00,51.24,98.20,98.20,0.00,51.32,7409,2022-09-19 10:41:49.098,2022-09-19 11:41:49.098,19,0,0,14.678,55.954469,-4.402580,0.00,0.00,0.00,3.00,-1.90,100.70,0,1,0,30,100,-7786,992,14678,3116.50,11,Joystick,1,0,0,0,0,0,0,1663584109098,3681,3682,3668,3650,0,0,27,,,,,,,0,0,0,-30.00,-19.00,1007.00,-900.00,0.00,919.00,17,981.00,0.00,512.45,0.00,0.00,0.00,0,,,80,100,0,2,0,0,0,2,2,,,,,0.0,0.0,0.0,0.0,0.0,0.0,0
55.954654,-4.401829,98.10,0.00,0.00,51.24,98.20,98.20,0.00,51.32,7500,2022-09-19 10:41:49.193,2022-09-19 11:41:49.189,19,0,0,14.678,55.954469,-4.402580,0.00,0.00,0.00,3.00,-1.80,100.70,0,1,0,30,100,-7786,992,14678,3116.50,11,Joystick,1,0,0,0,0,0,0,1663584109189,3681,3682,3668,3650,0,0,27,,,,,,,0,0,0,-30.00,-18.00,1007.00,-899.00,0.00,919.00,17,981.00,0.00,512.44,0.00,0.00,0.00,0,,,80,100,0,2,0,0,0,2,2,,,,,0.0,0.0,0.0,0.0,0.0,0.0,0
55.954654,-4.401829,98.10,0.00,0.00,51.24,98.20,98.20,0.00,51.32,7613,2022-09-19 10:41:49.302,2022-09-19 11:41:49.302,19,0,0,14.678,55.954469,-4.402580,0.00,0.00,0.00,3.00,-1.80,100.70,0,1,0,30,100,-7786,992,14678,3116.50,11,Joystick,1,0,0,0,0,0,0,1663584109302,3681,3682,3668,3650,0,0,27,,,,,,,0,0,0,-30.00,-18.00,1007.00,-900.00,0.00,919.00,17,981.00,0.00,512.44,0.00,0.00,0.00,0,,,80,100,0,2,0,0,0,2,2,,,,,0.0,0.0,0.0,0.0,0.0,0.0,0
55.954654,-4.401829,98.10,0.00,0.00,51.25,98.20,98.20,0.00,51.32,7815,2022-09-19 10:41:49.505,2022-09-19 11:41:49.504,19,0,0,14.678,55.954469,-4.402580,0.00,0.00,0.00,3.00,-1.80,100.80,0,1,0,30,100,-7786,992,14678,3116.50,11,Joystick,1,0,0,0,0,0,0,1663584109504,3681,3682,3668,3650,0,0,27,,,,,,,0,0,0,-30.00,-18.00,1008.00,-900.00,0.00,919.00,17,981.00,0.00,512.48,0.00,0.00,0.00,0,,,80,100,0,2,0,0,0,2,2,,,,,0.0,0.0,0.0,0.0,0.0,0.0,0
55.954654,-4.401829,98.10,0.00,0.00,51.25,98.20,98.20,0.00,51.32,7937,2022-09-19 10:41:49.627,2022-09-19 11:41:49.626,19,0,0,14.678,55.954469,-4.402580,0.00,0.00,0.00,3.00,-1.90,100.80,0,1,0,30,100,-7786,992,14678,3116.50,11,Joystick,1,0,0,0,0,0,0,1663584109626,3681,3682,3668,3650,0,0,27,,,,,,,0,0,0,-30.00,-19.00,1008.00,-900.00,0.00,919.00,17,981.00,0.00,512.49,0.00,0.00,0.00,0,,,80,100,0,2,0,0,0,2,2,,,,,0.0,0.0,0.0,0.0,0.0,0.0,0
55.954654,-4.401829,98.10,0.00,0.00,51.26,98.20,98.20,0.00,51.32,8115,2022-09-19 10:41:49.804,2022-09-19 11:41:49.804,19,0,0,14.675,55.954469,-4.402580,0.00,0.00,0.00,3.00,-1.90,100.80,0,1,0,30,100,-7867,989,14675,3116.50,11,Joystick,1,0,0,0,0,0,0,1663584109804,3681,3682,3668,3650,0,0,27,,,,,,,0,0,0,-30.00,-19.00,1008.00,-899.00,0.00,919.00,17,981.00,0.00,512.61,0.00,0.00,0.00,0,,,80,100,0,2,0,0,0,2,2,,,,,0.0,0.0,0.0,0.0,0.0,0.0,0
55.954654,-4.401829,98.10,0.00,0.00,51.26,98.20,98.20,0.00,51.32,8302,2022-09-19 10:41:49.991,2022-09-19 11:41:49.991,19,0,0,14.675,55.954469,-4.402580,0.00,0.00,0.00,2.90,-1.90,100.80,0,1,0,30,100,-7867,989,14675,3116.50,11,Joystick,1,0,0,0,0,0,0,1663584109991,3681,3682,3668,3650,0,0,27,,,,,,,0,0,0,-29.00,-19.00,1008.00,-900.00,0.00,919.00,17,981.00,0.00,512.61,0.00,0.00,0.00,0,,,80,100,0,2,0,0,0,2,2,,,,,0.0,0.0,0.0,0.0,0.0,0.0,0
55.954654,-4.401829,98.10,0.00,0.00,51.27,98.20,98.20,0.00,51.32,8400,2022-09-19 10:41:50.090,2022-09-19 11:41:50.089,19,0,0,14.675,55.954469,-4.402580,0.00,0.00,0.00,2.90,-1.90,100.70,0,1,0,30,100,-7867,989,14675,3116.50,11,Joystick,1,0,0,0,0,0,0,1663584110089,3681,3682,3668,3650,0,0,27,,,,,,,0,0,0,-29.00,-19.00,1007.00,-900.00,0.00,919.00,17,981.00,0.00,512.67,0.00,0.00,0.00,0,,,80,100,0,2,0,0,0,2,2,,,,,0.0,0.0,0.0,0.0,0.0,0.0,0
55.954654,-4.401829,98.10,0.00,0.00,51.27,98.20,98.20,0.00,51.32,8519,2022-09-19 10:41:50.209,2022-09-19 11:41:50.208,19,0,0,14.675,55.954469,-4.402580,0.00,0.00,0.00,2.90,-1.90,100.70,0,1,0,30,100,-7867,989,14675,3116.50,11,Joystick,1,0,0,0,0,0,0,1663584110208,3681,3682,3668,3650,0,0,27,,,,,,,0,0,0,-29.00,-19.00,1007.00,-900.00,0.00,919.00,17,981.00,0.00,512.70,0.00,0.00,0.00,0,,,80,100,0,2,0,0,0,2,2,,,,,0.0,0.0,0.0,0.0,0.0,0.0,0
55.954654,-4.401829,98.10,0.00,0.00,51.27,98.20,98.20,0.00,51.32,8617,2022-09-19 10:41:50.307,2022-09-19 11:41:50.306,19,0,0,14.675,55.954469,-4.402580,0.00,0.00,0.00,2.80,-1.90,100.70,0,1,0,30,100,-7867,989,14675,3116.50,11,Joystick,1,0,0,0,0,0,0,1663584110306,3681,3682,3668,3650,0,0,27,,,,,,,0,0,0,-28.00,-19.00,1007.00,-900.00,0.00,919.00,17,981.00,0.00,512.67,0.00,0.00,0.00,0,,,80,100,0,2,0,0,0,2,2,,,,,0.0,0.0,0.0,0.0,0.0,0.0,0
55.954654,-4.401829,98.10,0.00,0.00,51.27,98.20,98.20,0.00,51.32,8799,2022-09-19 10:41:50.488,2022-09-19 11:41:50.488,19,0,0,14.675,55.954469,-4.402580,0.00,0.00,0.00,2.90,-1.80,100.70,0,1,0,30,100,-7867,989,14675,3116.50,11,Joystick,1,0,0,0,0,0,0,1663584110488,3681,3682,3668,3650,0,0,27,,,,,,,0,0,0,-29.00,-18.00,1007.00,-900.00,0.00,919.00,17,981.00,0.00,512.67,0.00,0.00,0.00,0,,,80,100,0,2,0,0,0,2,2,,,,,0.0,0.0,0.0,0.0,0.0,0.0,0
55.954654,-4.401829,98.10,0.00,0.00,51.27,98.20,98.20,0.00,51.32,8905,2022-09-19 10:41:50.595,2022-09-19 11:41:50.594,19,0,0,14.675,55.954469,-4.402580,0.00,0.00,0.00,3.00,-1.80,100.70,0,1,0,30,100,-7867,989,14675,3116.50,11,Joystick,1,0,0,0,0,0,0,1663584110594,3681,3682,3668,3650,0,0,27,,,,,,,0,0,0,-30.00,-18.00,1007.00,-899.00,0.00,919.00,17,981.00,0.00,512.70,0.00,0.00,0.00,0,,,80,100,0,2,0,0,0,2,2,,,,,0.0,0.0,0.0,0.0,0.0,0.0,0
55.954654,-4.401829,98.10,0.00,0.00,51.27,98.20,98.20,0.00,51.32,9009,2022-09-19 10:41:50.699,2022-09-19 11:41:50.698,19,0,0,14.675,55.954469,-4.402580,0.00,0.00,0.00,2.90,-1.90,100.70,0,1,0,30,100,-7867,989,14675,3116.50,11,Joystick,1,0,0,0,0,0,0,1663584110698,3681,3682,3668,3650,0,0,27,,,,,,,0,0,0,-29.00,-19.00,1007.00,-900.00,0.00,919.00,17,981.00,0.00,512.67,0.00,0.00,0.00,0,,,80,100,0,2,0,0,0,2,2,,,,,0.0,0.0,0.0,0.0,0.0,0.0,0
55.954654,-4.401829,98.10,0.00,0.00,51.27,98.20,98.20,0.00,51.32,9103,2022-09-19 10:41:50.793,2022-09-19 11:41:50.792,19,0,0,14.675,55.954469,-4.402580,0.00,0.00,0.00,3.00,-1.90,100.70,0,1,0,30,100,-7822,987,14675,3116.50,11,Joystick,1,0,0,0,0,0,0,1663584110792,3681,3682,3668,3650,0,0,27,,,,,,,0,0,0,-30.00,-19.00,1007.00,-899.00,0.00,919.00,17,981.00,0.00,512.69,0.00,0.00,0.00,0,,,80,100,0,2,0,0,0,2,2,,,,,0.0,0.0,0.0,0.0,0.0,0.0,0
55.954654,-4.401829,98.10,0.00,0.00,51.26,98.20,98.20,0.00,51.32,9202,2022-09-19 10:41:50.892,2022-09-19 11:41:50.891,19,0,0,14.675,55.954469,-4.402580,0.00,0.00,0.00,2.90,-2.00,100.70,0,1,0,30,100,-7822,987,14675,3116.50,11,Joystick,1,0,0,0,0,0,0,1663584110891,3681,3682,3668,3650,0,0,27,,,,,,,0,0,0,-29.00,-20.00,1007.00,-900.00,0.00,919.00,17,981.00,0.00,512.65,0.00,0.00,0.00,0,,,80,100,0,2,0,0,0,2,2,,,,,0.0,0.0,0.0,0.0,0.0,0.0,0
55.954654,-4.401829,98.10,0.00,0.00,51.27,98.20,98.20,0.00,51.32,9317,2022-09-19 10:41:51.007,2022-09-19 11:41:51.006,19,0,0,14.675,55.954469,-4.402580,0.00,0.00,0.00,2.90,-2.00,100.70,0,1,0,30,100,-7822,987,14675,3116.50,11,Joystick,1,0,0,0,0,0,0,1663584111006,3681,3682,3668,3650,0,0,27,,,,,,,0,0,0,-29.00,-20.00,1007.00,-900.00,0.00,919.00,17,981.00,0.00,512.67,0.00,0.00,0.00,0,,,80,100,0,2,0,0,0,2,2,,,,,0.0,0.0,0.0,0.0,0.0,0.0,0
55.954654,-4.401829,98.10,0.00,0.00,51.26,98.20,98.20,0.00,51.32,9500,2022-09-19 10:41:51.192,2022-09-19 11:41:51.189,19,0,0,14.675,55.954469,-4.402580,0.00,0.00,0.00,3.00,-1.80,100.70,0,1,0,30,100,-7822,987,14675,3116.50,11,Joystick,1,0,0,0,0,0,0,1663584111189,3681,3682,3668,3650,0,0,27,,,,,,,0,0,0,-30.00,-18.00,1007.00,-899.00,0.00,919.00,17,981.00,0.00,512.57,0.00,0.00,0.00,0,,,80,100,0,2,0,0,0,2,2,,,,,0.0,0.0,0.0,0.0,0.0,0.0,0
55.954654,-4.401829,98.10,0.00,0.00,51.26,98.20,98.20,0.00,51.32,9603,2022-09-19 10:41:51.293,2022-09-19 11:41:51.292,19,0,0,14.675,55.954469,-4.402580,0.00,0.00,0.00,3.00,-1.70,100.70,0,1,0,30,100,-7822,987,14675,3116.50,11,Joystick,1,0,0,0,0,0,0,1663584111292,3681,3682,3668,3650,0,0,27,,,,,,,0,0,0,-30.00,-17.00,1007.00,-899.00,0.00,919.00,17,981.00,0.00,512.65,0.00,0.00,0.00,0,,,80,100,0,2,0,0,0,2,2,,,,,0.0,0.0,0.0,0.0,0.0,0.0,0
55.954654,-4.401829,98.10,0.00,0.00,51.27,98.20,98.20,0.00,51.32,9703,2022-09-19 10:41:51.393,2022-09-19 11:41:51.392,19,0,0,14.675,55.954469,-4.402580,0.00,0.00,0.00,3.00,-1.70,100.70,0,1,0,30,100,-7822,987,14675,3116.50,11,Joystick,1,0,0,0,0,0,0,1663584111392,3681,3682,3668,3650,0,0,27,,,,,,,0,0,0,-30.00,-17.00,1007.00,-899.00,0.00,919.00,17,981.00,0.00,512.67,0.00,0.00,0.00,0,,,80,100,0,2,0,0,0,2,2,,,,,0.0,0.0,0.0,0.0,0.0,0.0,0
55.954654,-4.401829,98.10,0.00,0.00,51.25,98.20,98.20,0.00,51.32,9804,2022-09-19 10:41:51.493,2022-09-19 11:41:51.493,19,0,0,14.675,55.954469,-4.402580,0.00,0.00,0.00,3.00,-1.70,100.70,0,1,0,30,100,-7822,987,14675,3116.50,11,Joystick,1,0,0,0,0,0,0,1663584111493,3681,3682,3668,3650,0,0,27,,,,,,,0,0,0,-30.00,-17.00,1007.00,-900.00,0.00,919.00,17,981.00,0.00,512.55,0.00,0.00,0.00,0,,,80,100,0,2,0,0,0,2,2,,,,,0.0,0.0,0.0,0.0,0.0,0.0,0
55.954654,-4.401829,98.10,0.00,0.00,51.26,98.20,98.20,0.00,51.32,9899,2022-09-19 10:41:51.589,2022-09-19 11:41:51.588,19,0,0,14.675,55.954469,-4.402580,0.00,0.00,0.00,3.00,-1.70,100.70,0,1,0,30,100,-7822,987,14675,3116.50,11,Joystick,1,0,0,0,0,0,0,1663584111588,3681,3682,3668,3650,0,0,27,,,,,,,0,0,0,-30.00,-17.00,1007.00,-900.00,0.00,919.00,17,981.00,0.00,512.56,0.00,0.00,0.00,0,,,80,100,0,2,0,0,0,2,2,,,,,0.0,0.0,0.0,0.0,0.0,0.0,0
55.954654,-4.401829,98.10,0.00,0.00,51.26,98.20,98.20,0.00,51.32,10013,2022-09-19 10:41:51.703,2022-09-19 11:41:51.702,19,0,0,14.675,55.954469,-4.402580,0.00,0.00,0.00,3.00,-1.70,100.70,0,1,0,30,100,-7822,987,14675,3116.50,11,Joystick,1,0,0,0,0,0,0,1663584111702,3681,3682,3668,3650,0,0,27,,,,,,,0,0,0,-30.00,-17.00,1007.00,-900.00,0.00,919.00,17,981.00,0.00,512.63,0.00,0.00,0.00,0,,,80,100,0,2,0,0,0,2,2,,,,,0.0,0.0,0.0,0.0,0.0,0.0,0
55.954654,-4.401829,98.10,0.00,0.00,51.26,98.20,98.20,0.00,51.32,10103,2022-09-19 10:41:51.793,2022-09-19 11:41:51.792,19,0,0,14.675,55.954469,-4.402580,0.00,0.00,0.00,3.10,-1.70,100.70,0,1,0,30,100,-7787,985,14675,3116.50,11,Joystick,1,0,0,0,0,0,0,1663584111792,3681,3682,3668,3650,0,0,27,,,,,,,0,0,0,-31.00,-17.00,1007.00,-899.00,0.00,919.00,17,981.00,0.00,512.65,0.00,0.00,0.00,0,,,80,100,0,2,0,0,0,2,2,,,,,0.0,0.0,0.0,0.0,0.0,0.0,0
55.954654,-4.401829,98.10,0.00,0.00,51.27,98.20,98.20,0.00,51.32,10198,2022-09-19 10:41:51.888,2022-09-19 11:41:51.887,19,0,0,14.675,55.954469,-4.402580,0.00,0.00,0.00,3.00,-1.70,100.70,0,1,0,30,100,-7787,985,14675,3116.50,11,Joystick,1,0,0,0,0,0,0,1663584111887,3681,3682,3668,3650,0,0,27,,,,,,,0,0,0,-30.00,-17.00,1007.00,-899.00,0.00,919.00,17,981.00,0.00,512.70,0.00,0.00,0.00,0,,,80,100,0,2,0,0,0,2,2,,,,,0.0,0.0,0.0,0.0,0.0,0.0,0
55.954654,-4.401829,98.10,0.00,0.00,51.27,98.20,98.20,0.00,51.32,10306,2022-09-19 10:41:51.996,2022-09-19 11:41:51.995,19,0,0,14.675,55.954469,-4.402580,0.00,0.00,0.00,3.00,-1.80,100.70,0,1,0,30,100,-7787,985,14675,3116.50,11,Joystick,1,0,0,0,0,0,0,1663584111995,3681,3682,3668,3650,0,0,27,,,,,,,0,0,0,-30.00,-18.00,1007.00,-899.00,0.00,919.00,17,981.00,0.00,512.72,0.00,0.00,0.00,0,,,80,100,0,2,0,0,0,2,2,,,,,0.0,0.0,0.0,0.0,0.0,0.0,0
55.954654,-4.401829,98.10,0.00,0.00,51.27,98.20,98.20,0.00,51.32,10402,2022-09-19 10:41:52.091,2022-09-19 11:41:52.091,19,0,0,14.675,55.954469,-4.402580,0.00,0.00,0.00,3.10,-1.80,100.70,0,1,0,30,100,-7787,985,14675,3116.50,11,Joystick,1,0,0,0,0,0,0,1663584112091,3681,3682,3668,3650,0,0,27,,,,,,,0,0,0,-31.00,-18.00,1007.00,-899.00,0.00,919.00,17,981.00,0.00,512.68,0.00,0.00,0.00,0,,,80,100,0,2,0,0,0,2,2,,,,,0.0,0.0,0.0,0.0,0.0,0.0,0
55.954654,-4.401829,98.10,0.00,0.00,51.27,98.20,98.20,0.00,51.32,10499,2022-09-19 10:41:52.189,2022-09-19 11:41:52.188,19,0,0,14.675,55.954469,-4.402580,0.00,0.00,0.00,3.10,-1.80,100.70,0,1,0,30,100,-7787,985,14675,3116.50,11,Joystick,1,0,0,0,0,0,0,1663584112188,3681,3682,3668,3650,0,0,27,,,,,,,0,0,0,-31.00,-18.00,1007.00,-899.00,0.00,919.00,17,981.00,0.00,512.70,0.00,0.00,0.00,0,,,80,100,0,2,0,0,0,2,2,,,,,0.0,0.0,0.0,0.0,0.0,0.0,0
55.954654,-4.401829,98.10,0.00,0.00,51.28,98.20,98.20,0.00,51.32,10615,2022-09-19 10:41:52.305,2022-09-19 11:41:52.304,19,0,0,14.675,55.954469,-4.402580,0.00,0.00,0.00,3.10,-1.80,100.70,0,1,0,30,100,-7787,985,14675,3116.50,11,Joystick,1,0,0,0,0,0,0,1663584112304,3681,3682,3668,3650,0,0,27,,,,,,,0,0,0,-31.00,-18.00,1007.00,-899.00,0.00,919.00,17,981.00,0.00,512.82,0.00,0.00,0.00,0,,,80,100,0,2,0,0,0,2,2,,,,,0.0,0.0,0.0,0.0,0.0,0.0,0
55.954654,-4.401829,98.10,0.00,0.00,51.28,98.20,98.20,0.00,51.32,10700,2022-09-19 10:41:52.389,2022-09-19 11:41:52.389,19,0,0,14.675,55.954469,-4.402580,0.00,0.00,0.00,3.00,-1.70,100.70,0,1,0,30,100,-7787,985,14675,3116.50,11,Joystick,1,0,0,0,0,0,0,1663584112389,3681,3682,3668,3650,0,0,27,,,,,,,0,0,0,-30.00,-17.00,1007.00,-900.00,0.00,919.00,17,981.00,0.00,512.85,0.00,0.00,0.00,0,,,80,100,0,2,0,0,0,2,2,,,,,0.0,0.0,0.0,0.0,0.0,0.0,0
55.954654,-4.401829,98.10,0.00,0.00,51.28,98.20,98.20,0.00,51.32,10798,2022-09-19 10:41:52.487,2022-09-19 11:41:52.487,19,0,0,14.675,55.954469,-4.402580,0.00,0.00,0.00,3.00,-1.60,100.80,0,1,0,30,100,-7787,985,14675,3116.50,11,Joystick,1,0,0,0,0,0,0,1663584112487,3681,3682,3668,3650,0,0,27,,,,,,,0,0,0,-30.00,-16.00,1008.00,-899.00,0.00,919.00,17,981.00,0.00,512.80,0.00,0.00,0.00,0,,,80,100,0,2,0,0,0,2,2,,,,,0.0,0.0,0.0,0.0,0.0,0.0,0
55.954654,-4.401829,98.10,0.00,0.00,51.28,98.20,98.20,0.00,51.32,10904,2022-09-19 10:41:52.593,2022-09-19 11:41:52.593,19,0,0,14.675,55.954469,-4.402580,0.00,0.00,0.00,3.00,-1.60,100.80,0,1,0,30,100,-7787,985,14675,3116.50,11,Joystick,1,0,0,0,0,0,0,1663584112593,3681,3682,3668,3650,0,0,27,,,,,,,0,0,0,-30.00,-16.00,1008.00,-900.00,0.00,919.00,17,981.00,0.00,512.82,0.00,0.00,0.00,0,,,80,100,0,2,0,0,0,2,2,,,,,0.0,0.0,0.0,0.0,0.0,0.0,0
55.954654,-4.401829,98.10,0.00,0.00,51.28,98.20,98.20,0.00,51.32,11003,2022-09-19 10:41:52.693,2022-09-19 11:41:52.692,19,0,0,14.675,55.954469,-4.402580,0.00,0.00,0.00,2.90,-1.60,100.80,0,1,0,30,100,-7787,985,14675,3116.50,11,Joystick,1,0,0,0,0,0,0,1663584112692,3681,3682,3668,3650,0,0,27,,,,,,,0,0,0,-29.00,-16.00,1008.00,-899.00,0.00,919.00,17,981.00,0.00,512.78,0.00,0.00,0.00,0,,,80,100,0,2,0,0,0,2,2,,,,,0.0,0.0,0.0,0.0,0.0,0.0,0
55.954654,-4.401829,98.10,0.00,0.00,51.28,98.20,98.20,0.00,51.32,11102,2022-09-19 10:41:52.792,2022-09-19 11:41:52.791,19,0,0,14.675,55.954469,-4.402580,0.00,0.00,0.00,2.90,-1.70,100.70,0,1,0,30,100,-7827,983,14675,3116.50,11,Joystick,1,0,0,0,0,0,0,1663584112791,3681,3682,3668,3650,0,0,27,,,,,,,0,0,0,-29.00,-17.00,1007.00,-900.00,0.00,919.00,17,981.00,0.00,512.79,0.00,0.00,0.00,0,,,80,100,0,2,0,0,0,2,2,,,,,0.0,0.0,0.0,0.0,0.0,0.0,0
55.954654,-4.401828,98.10,0.00,0.00,51.28,98.20,98.20,0.00,51.32,11196,2022-09-19 10:41:52.886,2022-09-19 11:41:52.886,19,0,0,14.675,55.954469,-4.402580,0.00,0.00,0.00,2.90,-1.80,100.70,0,1,0,30,100,-7827,983,14675,3116.50,11,Joystick,1,0,0,0,0,0,0,1663584112885,3681,3682,3668,3650,0,0,27,,,,,,,0,0,0,-29.00,-18.00,1007.00,-900.00,0.00,919.00,17,981.00,0.00,512.85,0.00,0.00,0.00,0,,,80,100,0,2,0,0,0,2,2,,,,,0.0,0.0,0.0,0.0,0.0,0.0,0
55.954654,-4.401828,98.10,0.00,0.00,51.29,98.20,98.20,0.00,51.32,11303,2022-09-19 10:41:52.993,2022-09-19 11:41:52.992,19,0,0,14.675,55.954469,-4.402580,0.00,0.00,0.00,2.90,-1.70,100.70,0,1,0,30,100,-7827,983,14675,3116.50,11,Joystick,1,0,0,0,0,0,0,1663584112992,3681,3682,3668,3650,0,0,27,,,,,,,0,0,0,-29.00,-17.00,1007.00,-899.00,0.00,919.00,17,981.00,0.00,512.86,0.00,0.00,0.00,0,,,80,100,0,2,0,0,0,2,2,,,,,0.0,0.0,0.0,0.0,0.0,0.0,0
55.954654,-4.401828,98.10,0.00,0.00,51.28,98.20,98.20,0.00,51.32,11403,2022-09-19 10:41:53.092,2022-09-19 11:41:53.092,19,0,0,14.675,55.954469,-4.402580,0.00,0.00,0.00,2.90,-1.70,100.70,0,1,0,30,100,-7827,983,14675,3116.50,11,Joystick,1,0,0,0,0,0,0,1663584113092,3681,3682,3668,3650,0,0,27,,,,,,,0,0,0,-29.00,-17.00,1007.00,-899.00,0.00,919.00,17,981.00,0.00,512.83,0.00,0.00,0.00,0,,,80,100,0,2,0,0,0,2,2,,,,,0.0,0.0,0.0,0.0,0.0,0.0,0
55.954654,-4.401828,98.10,0.00,0.00,51.28,98.20,98.20,0.00,51.32,11499,2022-09-19 10:41:53.189,2022-09-19 11:41:53.189,19,0,0,14.675,55.954469,-4.402580,0.00,0.00,0.00,2.90,-1.70,100.70,0,1,0,30,100,-7827,983,14675,3116.50,11,Joystick,1,0,0,0,0,0,0,1663584113188,3681,3682,3668,3650,0,0,27,,,,,,,0,0,0,-29.00,-17.00,1007.00,-899.00,0.00,919.00,17,981.00,0.00,512.84,0.00,0.00,0.00,0,,,80,100,0,2,0,0,0,2,2,,,,,0.0,0.0,0.0,0.0,0.0,0.0,0
55.954654,-4.401829,98.10,0.00,0.00,51.27,98.20,98.20,0.00,51.32,11622,2022-09-19 10:41:53.311,2022-09-19 11:41:53.311,19,0,0,14.675,55.954469,-4.402580,0.00,0.00,0.00,2.90,-1.70,100.70,0,1,0,30,100,-7827,983,14675,3116.50,11,Joystick,1,0,0,0,0,0,0,1663584113311,3681,3682,3668,3650,0,0,27,,,,,,,0,0,0,-29.00,-17.00,1007.00,-900.00,0.00,919.00,17,981.00,0.00,512.73,0.00,0.00,0.00,0,,,80,100,0,2,0,0,0,2,2,,,,,0.0,0.0,0.0,0.0,0.0,0.0,0
55.954654,-4.401829,98.10,0.00,0.00,51.27,98.20,98.20,0.00,51.32,11807,2022-09-19 10:41:53.499,2022-09-19 11:41:53.496,19,0,0,14.675,55.954469,-4.402580,0.00,0.00,0.00,2.80,-1.60,100.70,0,1,0,30,100,-7827,983,14675,3116.50,11,Joystick,1,0,0,0,0,0,0,1663584113496,3681,3682,3668,3650,0,0,27,,,,,,,0,0,0,-28.00,-16.00,1007.00,-900.00,0.00,919.00,17,981.00,0.00,512.73,0.00,0.00,0.00,0,,,80,100,0,2,0,0,0,2,2,,,,,0.0,0.0,0.0,0.0,0.0,0.0,0
55.954654,-4.401829,98.10,0.00,0.00,51.27,98.20,98.20,0.00,51.32,11914,2022-09-19 10:41:53.603,2022-09-19 11:41:53.603,19,0,0,14.675,55.954469,-4.402580,0.00,0.00,0.00,2.80,-1.60,100.70,0,1,0,30,100,-7827,983,14675,3116.50,11,Joystick,1,0,0,0,0,0,0,1663584113603,3681,3682,3668,3650,0,0,27,,,,,,,0,0,0,-28.00,-16.00,1007.00,-900.00,0.00,919.00,17,981.00,0.00,512.73,0.00,0.00,0.00,0,,,80,100,0,2,0,0,0,2,2,,,,,0.0,0.0,0.0,0.0,0.0,0.0,0
55.954654,-4.401829,98.10,0.00,0.00,51.28,98.20,98.20,0.00,51.32,12019,2022-09-19 10:41:53.709,2022-09-19 11:41:53.708,19,0,0,14.675,55.954469,-4.402580,0.00,0.00,0.00,2.70,-1.60,100.70,0,1,0,30,100,-7827,983,14675,3116.50,11,Joystick,1,0,0,0,0,0,0,1663584113708,3681,3682,3668,3650,0,0,27,,,,,,,0,0,0,-27.00,-16.00,1007.00,-900.00,0.00,919.00,17,981.00,0.00,512.80,0.00,0.00,0.00,0,,,80,100,0,2,0,0,0,2,2,,,,,0.0,0.0,0.0,0.0,0.0,0.0,0
55.954654,-4.401829,98.10,0.00,0.00,51.28,98.20,98.20,0.00,51.32,12110,2022-09-19 10:41:53.801,2022-09-19 11:41:53.799,19,0,0,14.670,55.954469,-4.402580,0.00,0.00,0.00,2.80,-1.60,100.80,0,1,0,30,100,-7853,980,14670,3117.50,11,Joystick,1,0,0,0,0,0,0,1663584113799,3681,3682,3668,3650,0,0,27,,,,,,,0,0,0,-28.00,-16.00,1008.00,-900.00,0.00,919.00,17,981.00,0.00,512.81,0.00,0.00,0.00,0,,,80,100,0,2,0,0,0,2,2,,,,,0.0,0.0,0.0,0.0,0.0,0.0,0
55.954654,-4.401829,98.10,0.00,0.00,51.28,98.20,98.20,0.00,51.32,12197,2022-09-19 10:41:53.888,2022-09-19 11:41:53.887,19,0,0,14.670,55.954469,-4.402580,0.00,0.00,0.00,2.80,-1.60,100.80,0,1,0,30,100,-7853,980,14670,3117.50,11,Joystick,1,0,0,0,0,0,0,1663584113886,3681,3682,3668,3650,0,0,27,,,,,,,0,0,0,-28.00,-16.00,1008.00,-900.00,0.00,919.00,17,981.00,0.00,512.81,0.00,0.00,0.00,0,,,80,100,0,2,0,0,0,2,2,,,,,0.0,0.0,0.0,0.0,0.0,0.0,0
55.954654,-4.401829,98.10,0.00,0.00,51.28,98.20,98.20,0.00,51.32,12301,2022-09-19 10:41:53.990,2022-09-19 11:41:53.990,19,0,0,14.670,55.954469,-4.402580,0.00,0.00,0.00,2.80,-1.50,100.80,0,1,0,30,100,-7853,980,14670,3117.50,11,Joystick,1,0,0,0,0,0,0,1663584113990,3681,3682,3668,3650,0,0,27,,,,,,,0,0,0,-28.00,-15.00,1008.00,-900.00,0.00,919.00,17,981.00,0.00,512.82,0.00,0.00,0.00,0,,,80,100,0,2,0,0,0,2,2,,,,,0.0,0.0,0.0,0.0,0.0,0.0,0
55.954654,-4.401828,98.10,0.00,0.00,51.29,98.20,98.20,0.00,51.32,12418,2022-09-19 10:41:54.107,2022-09-19 11:41:54.107,19,0,0,14.670,55.954469,-4.402580,0.00,0.00,0.00,2.80,-1.40,100.80,0,1,0,30,100,-7853,980,14670,3117.50,11,Joystick,1,0,0,0,0,0,0,1663584114107,3681,3682,3668,3650,0,0,27,,,,,,,0,0,0,-28.00,-14.00,1008.00,-899.00,0.00,919.00,17,981.00,0.00,512.90,0.00,0.00,0.00,0,,,80,100,0,2,0,0,0,2,2,,,,,0.0,0.0,0.0,0.0,0.0,0.0,0
55.954655,-4.401828,98.10,0.00,0.00,51.30,98.20,98.20,0.00,51.32,12617,2022-09-19 10:41:54.306,2022-09-19 11:41:54.306,19,0,0,14.670,55.954469,-4.402580,0.00,0.00,0.00,2.80,-1.30,100.70,0,1,0,30,100,-7853,980,14670,3117.50,11,Joystick,1,0,0,0,0,0,0,1663584114306,3681,3682,3668,3650,0,0,27,,,,,,,0,0,0,-28.00,-13.00,1007.00,-899.00,0.00,919.00,17,981.00,0.00,512.97,0.00,0.00,0.00,0,,,80,100,0,2,0,0,0,2,2,,,,,0.0,0.0,0.0,0.0,0.0,0.0,0
55.954655,-4.401828,98.10,0.00,0.00,51.30,98.20,98.20,0.00,51.32,12711,2022-09-19 10:41:54.401,2022-09-19 11:41:54.400,19,0,0,14.670,55.954469,-4.402580,0.00,0.00,0.00,2.90,-1.20,100.70,0,1,0,30,100,-7853,980,14670,3117.50,11,Joystick,1,0,0,0,0,0,0,1663584114400,3681,3682,3668,3650,0,0,27,,,,,,,0,0,0,-29.00,-12.00,1007.00,-899.00,0.00,919.00,17,981.00,0.00,513.00,0.00,0.00,0.00,0,,,80,100,0,2,0,0,0,2,2,,,,,0.0,0.0,0.0,0.0,0.0,0.0,0
55.954655,-4.401828,98.10,0.00,0.00,51.30,98.20,98.20,0.00,51.32,12802,2022-09-19 10:41:54.492,2022-09-19 11:41:54.491,19,0,0,14.670,55.954469,-4.402580,0.00,0.00,0.00,2.80,-1.30,100.70,0,1,0,30,100,-7853,980,14670,3117.50,11,Joystick,1,0,0,0,0,0,0,1663584114491,3681,3682,3668,3650,0,0,27,,,,,,,0,0,0,-28.00,-13.00,1007.00,-900.00,0.00,919.00,17,981.00,0.00,513.02,0.00,0.00,0.00,0,,,80,100,0,2,0,0,0,2,2,,,,,0.0,0.0,0.0,0.0,0.0,0.0,0
55.954655,-4.401828,98.10,0.00,0.00,51.30,98.20,98.20,0.00,51.32,12905,2022-09-19 10:41:54.595,2022-09-19 11:41:54.594,19,0,0,14.670,55.954469,-4.402580,0.00,0.00,0.00,2.80,-1.40,100.70,0,1,0,30,100,-7853,980,14670,3117.50,11,Joystick,1,0,0,0,0,0,0,1663584114594,3681,3682,3668,3650,0,0,27,,,,,,,0,0,0,-28.00,-14.00,1007.00,-900.00,0.00,919.00,17,981.00,0.00,513.04,0.00,0.00,0.00,0,,,80,100,0,2,0,0,0,2,2,,,,,0.0,0.0,0.0,0.0,0.0,0.0,0
55.954655,-4.401828,98.10,0.00,0.00,51.30,98.20,98.20,0.00,51.32,13016,2022-09-19 10:41:54.705,2022-09-19 11:41:54.705,19,0,0,14.670,55.954469,-4.402580,0.00,0.00,0.00,2.80,-1.50,100.70,0,1,0,30,100,-7853,980,14670,3117.50,11,Joystick,1,0,0,0,0,0,0,1663584114705,3681,3682,3668,3650,0,0,27,,,,,,,0,0,0,-28.00,-15.00,1007.00,-900.00,0.00,919.00,17,981.00,0.00,512.98,0.00,0.00,0.00,0,,,80,100,0,2,0,0,0,2,2,,,,,0.0,0.0,0.0,0.0,0.0,0.0,0
55.954655,-4.401828,98.10,0.00,0.00,51.30,98.20,98.20,0.00,51.32,13114,2022-09-19 10:41:54.804,2022-09-19 11:41:54.803,19,0,0,14.666,55.954469,-4.402580,0.00,0.00,0.00,2.70,-1.60,100.70,0,1,0,30,100,-7908,978,14666,3117.50,11,Joystick,1,0,0,0,0,0,0,1663584114803,3681,3682,3668,3650,0,0,27,,,,,,,0,0,0,-27.00,-16.00,1007.00,-900.00,0.00,919.00,17,981.00,0.00,512.99,0.00,0.00,0.00,0,,,80,100,0,2,0,0,0,2,2,,,,,0.0,0.0,0.0,0.0,0.0,0.0,0
55.954655,-4.401828,98.10,0.00,0.00,51.30,98.20,98.20,0.00,51.32,13220,2022-09-19 10:41:54.909,2022-09-19 11:41:54.909,19,0,0,14.666,55.954469,-4.402580,0.00,0.00,0.00,2.70,-1.60,100.70,0,1,0,30,100,-7908,978,14666,3117.50,11,Joystick,1,0,0,0,0,0,0,1663584114909,3681,3682,3668,3650,0,0,27,,,,,,,0,0,0,-27.00,-16.00,1007.00,-900.00,0.00,919.00,17,981.00,0.00,513.04,0.00,0.00,0.00,0,,,80,100,0,2,0,0,0,2,2,,,,,0.0,0.0,0.0,0.0,0.0,0.0,0
55.954655,-4.401828,98.10,0.00,0.00,51.31,98.20,98.20,0.00,51.32,13311,2022-09-19 10:41:55.001,2022-09-19 11:41:55.000,19,0,0,14.666,55.954469,-4.402580,0.00,0.00,0.00,3.10,-1.50,100.70,0,1,0,30,100,-7908,978,14666,3117.50,11,Joystick,1,0,0,0,0,0,0,1663584115000,3681,3682,3668,3650,0,0,27,,,,,,,0,0,0,-31.00,-15.00,1007.00,-899.00,0.00,919.00,6,981.00,0.00,513.05,0.00,0.00,0.00,0,,,80,100,0,2,0,0,0,2,2,,,,,0.0,0.0,0.0,0.0,0.0,0.0,0
55.954655,-4.401828,98.10,0.00,0.00,51.31,98.20,98.20,0.00,51.32,13423,2022-09-19 10:41:55.113,2022-09-19 11:41:55.112,19,0,0,14.666,55.954469,-4.402580,0.00,0.00,0.00,3.00,-1.50,100.70,0,1,0,30,100,-7908,978,14666,3117.50,11,P-GPS,1,0,0,0,0,0,0,1663584115112,3681,3682,3668,3650,0,0,27,,,,,,,0,0,0,-30.00,-15.00,1007.00,-899.00,0.00,919.00,6,981.00,0.00,513.10,0.00,0.00,0.00,0,,,80,100,0,2,0,0,0,2,2,,,,,0.0,0.0,0.0,0.0,0.0,0.0,0
55.954655,-4.401828,98.10,0.00,0.00,51.31,98.20,98.20,0.00,51.32,13599,2022-09-19 10:41:55.288,2022-09-19 11:41:55.288,19,0,0,14.666,55.954469,-4.402580,0.00,0.00,0.00,2.90,-1.40,100.70,0,1,0,30,100,-7908,978,14666,3117.50,11,P-GPS,1,0,0,0,0,0,0,1663584115288,3681,3682,3668,3650,0,0,27,,,,,,,0,0,0,-29.00,-14.00,1007.00,-899.00,0.00,919.00,6,981.00,0.00,513.08,0.00,0.00,0.00,0,,,80,100,0,2,0,0,0,2,2,,,,,0.0,0.0,0.0,0.0,0.0,0.0,0
55.954655,-4.401828,98.10,0.00,0.00,51.31,98.20,98.20,0.00,51.32,13711,2022-09-19 10:41:55.400,2022-09-19 11:41:55.400,19,0,0,14.666,55.954469,-4.402580,0.00,0.00,0.00,2.90,-1.40,100.70,0,1,0,30,100,-7908,978,14666,3117.50,11,P-GPS,1,0,0,0,0,0,0,1663584115400,3681,3682,3668,3650,0,0,27,,,,,,,0,0,0,-29.00,-14.00,1007.00,-899.00,0.00,919.00,6,981.00,0.00,513.09,0.00,0.00,0.00,0,,,80,100,0,2,0,0,0,2,2,,,,,0.0,0.0,0.0,0.0,0.0,0.0,0
55.954655,-4.401828,98.10,0.00,0.00,51.31,98.20,98.20,0.00,51.32,13805,2022-09-19 10:41:55.495,2022-09-19 11:41:55.494,19,0,0,14.666,55.954469,-4.402580,0.00,0.00,0.00,2.80,-1.40,100.80,0,1,0,30,100,-7908,978,14666,3117.50,11,P-GPS,1,0,0,0,0,0,0,1663584115494,3681,3682,3668,3650,0,0,27,,,,,,,0,0,0,-28.00,-14.00,1008.00,-900.00,0.00,919.00,6,981.00,0.00,513.06,0.00,0.00,0.00,0,,,80,100,0,2,0,0,0,2,2,,,,,0.0,0.0,0.0,0.0,0.0,0.0,0
55.954655,-4.401828,98.10,0.00,0.00,51.31,98.20,98.20,0.00,51.32,13909,2022-09-19 10:41:55.599,2022-09-19 11:41:55.599,19,0,0,14.666,55.954469,-4.402580,0.00,0.00,0.00,2.80,-1.40,100.70,0,1,0,30,100,-7908,978,14666,3117.50,11,P-GPS,1,0,0,0,0,0,0,1663584115598,3681,3682,3668,3650,0,0,27,,,,,,,0,0,0,-28.00,-14.00,1007.00,-900.00,0.00,919.00,6,981.00,0.00,513.06,0.00,0.00,0.00,0,,,80,100,0,2,0,0,0,2,2,,,,,0.0,0.0,0.0,0.0,0.0,0.0,0
55.954655,-4.401828,98.10,0.00,0.00,51.31,98.20,98.20,0.00,51.32,13996,2022-09-19 10:41:55.686,2022-09-19 11:41:55.685,19,0,0,14.666,55.954469,-4.402580,0.00,0.00,0.00,2.80,-1.40,100.70,0,1,0,30,100,-7908,978,14666,3117.50,11,P-GPS,1,0,0,0,0,0,0,1663584115685,3681,3682,3668,3650,0,0,27,,,,,,,0,0,0,-28.00,-14.00,1007.00,-900.00,0.00,919.00,6,981.00,0.00,513.12,0.00,0.00,0.00,0,,,80,100,0,2,0,0,0,2,2,,,,,0.0,0.0,0.0,0.0,0.0,0.0,0
55.954655,-4.401828,98.10,0.00,0.00,51.31,98.20,98.20,0.00,51.32,14095,2022-09-19 10:41:55.784,2022-09-19 11:41:55.784,19,0,0,14.671,55.954469,-4.402580,0.00,0.00,0.00,2.70,-1.30,100.70,0,1,0,30,100,-7827,976,14671,3117.50,11,P-GPS,1,0,0,0,0,0,0,1663584115784,3681,3682,3668,3650,0,0,27,,,,,,,0,0,0,-27.00,-13.00,1007.00,-900.00,0.00,919.00,6,981.00,0.00,513.13,0.00,0.00,0.00,0,,,80,100,0,2,0,0,0,2,2,,,,,0.0,0.0,0.0,0.0,0.0,0.0,0
55.954655,-4.401828,98.10,0.00,0.00,51.31,98.20,98.20,0.00,51.32,14198,2022-09-19 10:41:55.887,2022-09-19 11:41:55.887,19,0,0,14.671,55.954469,-4.402580,0.00,0.00,0.00,2.70,-1.30,100.70,0,1,0,30,100,-7827,976,14671,3117.50,11,P-GPS,1,0,0,0,0,0,0,1663584115887,3681,3682,3668,3650,0,0,27,,,,,,,0,0,0,-27.00,-13.00,1007.00,-900.00,0.00,919.00,6,981.00,0.00,513.11,0.00,0.00,0.00,0,,,80,100,0,2,0,0,0,2,2,,,,,0.0,0.0,0.0,0.0,0.0,0.0,0
55.954655,-4.401828,98.10,0.00,0.00,51.31,98.20,98.20,0.00,51.32,14314,2022-09-19 10:41:56.004,2022-09-19 11:41:56.003,19,0,0,14.671,55.954469,-4.402580,0.00,0.00,0.00,2.70,-1.30,100.70,0,1,0,30,100,-7827,976,14671,3117.50,11,P-GPS,1,0,0,0,0,0,0,1663584116003,3681,3682,3668,3650,0,0,27,,,,,,,0,0,0,-27.00,-13.00,1007.00,-899.00,0.00,919.00,6,981.00,0.00,513.11,0.00,0.00,0.00,0,,,80,100,0,2,0,0,0,2,2,,,,,0.0,0.0,0.0,0.0,0.0,0.0,0
55.954655,-4.401829,98.10,0.00,0.00,51.30,98.20,98.20,0.00,51.32,14408,2022-09-19 10:41:56.098,2022-09-19 11:41:56.097,19,0,0,14.671,55.954469,-4.402580,0.00,0.00,0.00,2.60,-1.30,100.70,0,1,0,30,100,-7827,976,14671,3117.50,11,P-GPS,1,0,0,0,0,0,0,1663584116097,3681,3682,3668,3650,0,0,27,,,,,,,0,0,0,-26.00,-13.00,1007.00,-900.00,0.00,919.00,6,981.00,0.00,513.01,0.00,0.00,0.00,0,,,80,100,0,2,0,0,0,2,2,,,,,0.0,0.0,0.0,0.0,0.0,0.0,0
55.954655,-4.401829,98.10,0.00,0.00,51.30,98.20,98.20,0.00,51.32,14520,2022-09-19 10:41:56.209,2022-09-19 11:41:56.209,19,0,0,14.671,55.954469,-4.402580,0.00,0.00,0.00,2.60,-1.30,100.70,0,1,0,30,100,-7827,976,14671,3117.50,11,P-GPS,1,0,0,0,0,0,0,1663584116209,3681,3682,3668,3650,0,0,27,,,,,,,0,0,0,-26.00,-13.00,1007.00,-900.00,0.00,919.00,6,981.00,0.00,513.01,0.00,0.00,0.00,0,,,80,100,0,2,0,0,0,2,2,,,,,0.0,0.0,0.0,0.0,0.0,0.0,0
55.954655,-4.401829,98.10,0.00,0.00,51.29,98.20,98.20,0.00,51.32,14606,2022-09-19 10:41:56.296,2022-09-19 11:41:56.295,19,0,0,14.671,55.954469,-4.402580,0.00,0.00,0.00,2.50,-1.20,100.70,0,1,0,30,100,-7827,976,14671,3117.50,11,P-GPS,1,0,0,0,0,0,0,1663584116295,3681,3682,3668,3650,0,0,27,,,,,,,0,0,0,-25.00,-12.00,1007.00,-899.00,0.00,919.00,6,981.00,0.00,512.93,0.00,0.00,0.00,0,,,80,100,0,2,0,0,0,2,2,,,,,0.0,0.0,0.0,0.0,0.0,0.0,0
55.954655,-4.401829,98.10,0.00,0.00,51.29,98.20,98.20,0.00,51.32,14716,2022-09-19 10:41:56.406,2022-09-19 11:41:56.405,19,0,0,14.671,55.954469,-4.402580,0.00,0.00,0.00,2.50,-1.20,100.70,0,1,0,30,100,-7827,976,14671,3117.50,11,P-GPS,1,0,0,0,0,0,0,1663584116405,3681,3682,3668,3650,0,0,27,,,,,,,0,0,0,-25.00,-12.00,1007.00,-900.00,0.00,919.00,6,981.00,0.00,512.92,0.00,0.00,0.00,0,,,80,100,0,2,0,0,0,2,2,,,,,0.0,0.0,0.0,0.0,0.0,0.0,0
