latitude,longitude,altitude(m),ultrasonicHeight(m),speed(mps),distance(m),max_altitude(m),max_ascent(m),max_speed(mps),max_distance(m),time(millisecond),datetime(utc),datetime(local),satellites,pressure(Pa),temperature(F),voltage(v),home_latitude,home_longitude,velocityX(mps),velocityY(mps),velocityZ(mps),pitch(deg),roll(deg),yaw(deg),powerlevel,isflying,istakingphoto,remainPowerPercent,remainLifePercent,currentCurrent,currentElectricity,currentVoltage,batteryTemperature,dischargeCount,flightmode,isMotorsOn,isTakingVideo,Rc_elevator,Rc_aileron,Rc_throttle,Rc_rudder,Rc_gyro,timestamp,Battery_Cell1,Battery_Cell2,Battery_Cell3,Battery_Cell4,Battery_Cell5,Battery_Cell6,Dronetype,AppVersion,Planename,FlyControllerSerialNumber,RemoteSerialNumber,BatterySerialNumber,CENTER_BATTERY.productDate,CENTER_BATTERY.serialNo,CENTER_BATTERY.fullCapacity,CENTER_BATTERY.productDateRaw,pitchRaw,rollRaw,yawRaw,gimbalPitchRaw,gimbalRollRaw,gimbalYawRaw,flyState,altitudeRaw,speedRaw,distanceRaw,velocityXRaw,velocityYRaw,velocityZRaw,data_reuse,App_Tip,App_Warning,downlinkSignalQuality,uplinkSignalQuality,transmissionChannel,rcModeSwitch,rcHome,rcPause,rcTransform,rcJoystickMode,appMode,FlyControllerSerialNumber_legacy,RemoteSerialNumber_legacy,BatterySerialNumber_legacy,Battery2SerialNumber,frontAvoidDist,backAvoidDist,rightAvoidDist,leftAvoidDist,upAvoidDist,downAvoidDist,isBrakingToAvoid
55.935442,-4.406828,30.40,0.00,0.00,108.41,30.40,30.40,0.00,108.41,0,2022-04-18 10:15:47.872,2022-04-18 11:15:47.872,18,0,0,0.000,55.936292,-4.407674,0.00,0.00,0.00,1.90,-4.20,-13.90,0,1,0,0,0,0,0,0,2731.50,0,P-GPS,1,0,0,0,0,0,0,1650276947872,0,0,0,0,0,0,27,Litchi_4.22.2-g,,,,null,,0,0,0,-19.00,-42.00,-139.00,-814.00,0.00,-31.00,6,304.00,0.00,1084.11,0.00,0.00,0.00,0,,,100,100,0,2,0,0,0,2,0,,,,null,0.0,0.0,0.0,0.0,0.0,0.0,0
55.935442,-4.406827,30.40,0.00,0.00,108.41,30.40,30.40,0.00,108.41,109,2022-04-18 10:15:47.981,2022-04-18 11:15:47.981,18,0,0,14.643,55.936292,-4.407674,0.00,0.00,0.00,1.80,-4.40,-13.80,0,1,0,0,0,-7826,0,14643,3086.50,0,P-GPS,1,0,0,0,0,0,0,1650276947981,0,0,0,0,0,0,27,Litchi_4.22.2-g,,,,null,,0,0,0,-18.00,-44.00,-138.00,-814.00,0.00,-31.00,6,304.00,0.00,1084.07,0.00,0.00,0.00,0,,,100,100,0,2,0,0,0,2,0,,,,null,0.0,0.0,0.0,0.0,0.0,0.0,0
55.935442,-4.406827,30.40,0.00,0.00,108.41,30.40,30.40,0.00,108.41,200,2022-04-18 10:15:48.072,2022-04-18 11:15:48.072,18,0,0,14.643,55.936292,-4.407674,0.00,0.00,0.00,1.70,-4.50,-13.90,0,1,0,0,0,-7826,0,14643,3086.50,0,P-GPS,1,1,0,0,0,0,0,1650276948072,0,0,0,0,0,0,27,Litchi_4.22.2-g,,,,null,,0,0,0,-17.00,-45.00,-139.00,-814.00,0.00,-31.00,6,304.00,0.00,1084.07,0.00,0.00,0.00,0,,,100,100,0,2,0,0,0,2,0,,,,null,0.0,0.0,0.0,0.0,0.0,0.0,0
55.935442,-4.406827,30.40,0.00,0.00,108.40,30.40,30.40,0.00,108.41,310,2022-04-18 10:15:48.182,2022-04-18 11:15:48.182,18,0,0,14.643,55.936292,-4.407674,0.00,0.00,0.00,1.70,-4.80,-13.80,0,1,0,0,0,-7826,0,14643,3086.50,0,P-GPS,1,1,0,0,0,0,0,1650276948182,0,0,0,0,0,0,27,Litchi_4.22.2-g,CJTMAVIC,163DFAS001K45C,0VECFAK0072T52,0P2AFAL5340E87,,0,0,0,-17.00,-48.00,-138.00,-814.00,0.00,-31.00,6,304.00,0.00,1084.01,0.00,0.00,0.00,0,,,100,100,0,2,0,0,0,2,0,,,,null,0.0,0.0,0.0,0.0,0.0,0.0,0
55.935443,-4.406827,30.40,0.00,0.00,108.40,30.40,30.40,0.00,108.41,403,2022-04-18 10:15:48.276,2022-04-18 11:15:48.275,18,0,0,14.643,55.936292,-4.407674,0.00,0.00,0.00,1.40,-4.70,-13.80,0,1,0,0,0,-7826,0,14643,3086.50,0,P-GPS,1,1,0,0,0,0,0,1650276948275,0,0,0,0,0,0,27,,,,,,,0,0,0,-14.00,-47.00,-138.00,-814.00,0.00,-31.00,6,304.00,0.00,1084.00,0.00,0.00,0.00,0,,,100,100,0,2,0,0,0,2,0,,,,,0.0,0.0,0.0,0.0,0.0,0.0,0
55.935443,-4.406827,30.40,0.00,0.00,108.40,30.40,30.40,0.00,108.41,489,2022-04-18 10:15:48.362,2022-04-18 11:15:48.361,18,0,0,14.643,55.936292,-4.407674,0.00,0.00,0.00,1.30,-4.50,-13.80,0,1,0,0,0,-7826,0,14643,3086.50,0,P-GPS,1,1,0,0,0,0,0,1650276948361,0,0,0,0,0,0,27,,,,,,,0,0,0,-13.00,-45.00,-138.00,-814.00,0.00,-31.00,6,304.00,0.00,1083.98,0.00,0.00,0.00,0,,,100,100,0,2,0,0,0,2,0,,,,,0.0,0.0,0.0,0.0,0.0,0.0,0
55.935443,-4.406827,30.40,0.00,0.00,108.40,30.40,30.40,0.00,108.41,601,2022-04-18 10:15:48.474,2022-04-18 11:15:48.473,18,0,0,14.643,55.936292,-4.407674,0.00,0.00,0.00,1.50,-4.40,-13.80,0,1,0,0,0,-7826,0,14643,3086.50,0,P-GPS,1,1,0,0,0,0,0,1650276948473,0,0,0,0,0,0,27,,,,,,,0,0,0,-15.00,-44.00,-138.00,-814.00,0.00,-31.00,6,304.00,0.00,1083.96,0.00,0.00,0.00,0,,,100,100,0,2,0,0,0,2,0,,,,,0.0,0.0,0.0,0.0,0.0,0.0,0
55.935443,-4.406827,30.40,0.00,0.00,108.41,30.40,30.40,0.00,108.41,696,2022-04-18 10:15:48.568,2022-04-18 11:15:48.568,18,0,0,14.643,55.936292,-4.407674,0.00,0.00,0.00,1.60,-4.40,-13.80,0,1,0,0,0,-7826,0,14643,3086.50,0,P-GPS,1,1,0,0,0,0,0,1650276948568,0,0,0,0,0,0,27,,,,,,,0,0,0,-16.00,-44.00,-138.00,-814.00,0.00,-31.00,6,304.00,0.00,1084.09,0.00,0.00,0.00,0,,,100,100,0,2,0,0,0,2,0,,,,,0.0,0.0,0.0,0.0,0.0,0.0,0
55.935443,-4.406827,30.30,0.00,0.00,108.41,30.40,30.40,0.00,108.41,795,2022-04-18 10:15:48.668,2022-04-18 11:15:48.667,18,0,0,14.643,55.936292,-4.407674,0.00,0.00,0.00,1.80,-4.30,-13.70,0,1,0,0,0,-7826,0,14643,3086.50,0,P-GPS,1,1,0,0,0,0,0,1650276948667,0,0,0,0,0,0,27,,,,,,,0,0,0,-18.00,-43.00,-137.00,-814.00,0.00,-31.00,6,303.00,0.00,1084.06,0.00,0.00,0.00,0,,,100,100,0,2,0,0,0,2,0,,,,,0.0,0.0,0.0,0.0,0.0,0.0,0
55.935443,-4.406827,30.30,0.00,0.00,108.40,30.40,30.40,0.00,108.41,891,2022-04-18 10:15:48.763,2022-04-18 11:15:48.763,18,0,0,14.643,55.936292,-4.407674,0.00,0.00,0.00,2.20,-4.10,-13.80,0,1,0,0,0,-7826,0,14643,3086.50,0,P-GPS,1,1,0,0,0,0,0,1650276948763,0,0,0,0,0,0,27,,,,,,,0,0,0,-22.00,-41.00,-138.00,-814.00,0.00,-31.00,6,303.00,0.00,1084.04,0.00,0.00,0.00,0,,,100,100,0,2,0,0,0,2,0,,,,,0.0,0.0,0.0,0.0,0.0,0.0,0
55.935443,-4.406827,30.30,0.00,0.00,108.40,30.40,30.40,0.00,108.41,992,2022-04-18 10:15:48.864,2022-04-18 11:15:48.864,18,0,0,14.643,55.936292,-4.407674,0.00,0.00,0.00,2.70,-4.00,-13.80,0,1,0,0,0,-7826,0,14643,3086.50,0,P-GPS,1,1,0,0,0,0,0,1650276948864,0,0,0,0,0,0,27,,,,,,,0,0,0,-27.00,-40.00,-138.00,-814.00,0.00,-31.00,6,303.00,0.00,1083.98,0.00,0.00,0.00,0,,,100,100,0,2,0,0,0,2,0,,,,,0.0,0.0,0.0,0.0,0.0,0.0,0
55.935443,-4.406827,30.40,0.00,0.00,108.40,30.40,30.40,0.00,108.41,1094,2022-04-18 10:15:48.966,2022-04-18 11:15:48.966,18,0,0,14.648,55.936292,-4.407674,0.00,0.00,0.00,2.90,-4.00,-13.90,0,1,0,34,0,-7639,1136,14648,3086.50,6,P-GPS,1,1,0,0,0,0,0,1650276948966,0,0,0,0,0,0,27,,,,,,,0,0,0,-29.00,-40.00,-139.00,-814.00,0.00,-31.00,6,304.00,0.00,1084.00,0.00,0.00,0.00,0,,,100,100,0,2,0,0,0,2,0,,,,,0.0,0.0,0.0,0.0,0.0,0.0,0
55.935443,-4.406827,30.30,0.00,0.00,108.39,30.40,30.40,0.00,108.41,1205,2022-04-18 10:15:49.077,2022-04-18 11:15:49.077,18,0,0,14.648,55.936292,-4.407674,0.00,0.00,0.00,2.90,-4.10,-13.90,0,1,0,34,0,-7639,1136,14648,3086.50,6,P-GPS,1,1,0,0,0,0,0,1650276949077,0,0,0,0,0,0,27,,,,,,,0,0,0,-29.00,-41.00,-139.00,-814.00,0.00,-31.00,6,303.00,0.00,1083.93,0.00,0.00,0.00,0,,,100,100,0,2,0,0,0,2,0,,,,,0.0,0.0,0.0,0.0,0.0,0.0,0
55.935443,-4.406827,30.30,0.00,0.00,108.38,30.40,30.40,0.00,108.41,1299,2022-04-18 10:15:49.171,2022-04-18 11:15:49.171,18,0,0,14.648,55.936292,-4.407674,0.00,0.00,0.00,3.10,-4.00,-13.90,0,1,0,34,0,-7639,1136,14648,3086.50,6,P-GPS,1,1,0,0,0,0,0,1650276949171,0,0,0,0,0,0,27,,,,,,,0,0,0,-31.00,-40.00,-139.00,-814.00,0.00,-31.00,6,303.00,0.00,1083.83,0.00,0.00,0.00,0,,,100,100,0,2,0,0,0,2,0,,,,,0.0,0.0,0.0,0.0,0.0,0.0,0
55.935443,-4.406827,30.40,0.00,0.00,108.38,30.40,30.40,0.00,108.41,1395,2022-04-18 10:15:49.267,2022-04-18 11:15:49.267,18,0,0,14.648,55.936292,-4.407674,0.00,0.00,0.00,3.40,-4.10,-13.80,0,1,0,34,0,-7639,1136,14648,3086.50,6,P-GPS,1,1,0,0,0,0,0,1650276949267,0,0,0,0,0,0,27,,,,,,,0,0,0,-34.00,-41.00,-138.00,-814.00,0.00,-31.00,6,304.00,0.00,1083.77,0.00,0.00,0.00,0,,,100,100,0,2,0,0,0,2,0,,,,,0.0,0.0,0.0,0.0,0.0,0.0,0
55.935443,-4.406827,30.40,0.00,0.00,108.38,30.40,30.40,0.00,108.41,1498,2022-04-18 10:15:49.370,2022-04-18 11:15:49.370,18,0,0,14.648,55.936292,-4.407674,0.00,0.00,0.00,3.70,-4.50,-13.90,0,1,0,34,0,-7639,1136,14648,3086.50,6,P-GPS,1,1,0,0,0,0,0,1650276949370,0,0,0,0,0,0,27,,,,,,,0,0,0,-37.00,-45.00,-139.00,-814.00,0.00,-31.00,6,304.00,0.00,1083.76,0.00,0.00,0.00,0,,,100,100,0,2,0,0,0,2,0,,,,,0.0,0.0,0.0,0.0,0.0,0.0,0
55.935443,-4.406827,30.30,0.00,0.00,108.37,30.40,30.40,0.00,108.41,1603,2022-04-18 10:15:49.479,2022-04-18 11:15:49.475,18,0,0,14.648,55.936292,-4.407674,0.00,0.00,0.00,3.80,-4.50,-14.00,0,1,0,34,0,-7639,1136,14648,3086.50,6,P-GPS,1,1,0,0,0,0,0,1650276949475,0,0,0,0,0,0,27,,,,,,,0,0,0,-38.00,-45.00,-140.00,-814.00,0.00,-31.00,6,303.00,0.00,1083.71,0.00,0.00,0.00,0,,,100,100,0,2,0,0,0,2,0,,,,,0.0,0.0,0.0,0.0,0.0,0.0,0
55.935443,-4.406827,30.30,0.00,0.00,108.37,30.40,30.40,0.00,108.41,1698,2022-04-18 10:15:49.571,2022-04-18 11:15:49.570,18,0,0,14.648,55.936292,-4.407674,0.00,0.00,0.00,3.60,-4.70,-14.00,0,1,0,34,0,-7639,1136,14648,3086.50,6,P-GPS,1,1,0,0,0,0,0,1650276949570,0,0,0,0,0,0,27,,,,,,,0,0,0,-36.00,-47.00,-140.00,-814.00,0.00,-31.00,6,303.00,0.00,1083.74,0.00,0.00,0.00,0,,,100,100,0,2,0,0,0,2,0,,,,,0.0,0.0,0.0,0.0,0.0,0.0,0
55.935443,-4.406827,30.40,0.00,0.00,108.38,30.40,30.40,0.00,108.41,1800,2022-04-18 10:15:49.673,2022-04-18 11:15:49.672,18,0,0,14.648,55.936292,-4.407674,0.00,0.00,0.00,3.30,-4.80,-14.00,0,1,0,34,0,-7639,1136,14648,3086.50,6,P-GPS,1,1,0,0,0,0,0,1650276949672,0,0,0,0,0,0,27,,,,,,,0,0,0,-33.00,-48.00,-140.00,-814.00,0.00,-31.00,6,304.00,0.00,1083.76,0.00,0.00,0.00,0,,,100,100,0,2,0,0,0,2,0,,,,,0.0,0.0,0.0,0.0,0.0,0.0,0
55.935443,-4.406827,30.40,0.00,0.00,108.38,30.40,30.40,0.00,108.41,1896,2022-04-18 10:15:49.768,2022-04-18 11:15:49.768,18,0,0,14.648,55.936292,-4.407674,0.00,0.00,0.00,2.80,-5.10,-14.00,0,1,0,34,0,-7639,1136,14648,3086.50,6,P-GPS,1,1,0,0,0,0,0,1650276949768,0,0,0,0,0,0,27,,,,,,,0,0,0,-28.00,-51.00,-140.00,-814.00,0.00,-31.00,6,304.00,0.00,1083.79,0.00,0.00,0.00,0,,,100,100,0,2,0,0,0,2,0,,,,,0.0,0.0,0.0,0.0,0.0,0.0,0
55.935443,-4.406826,30.40,0.00,0.00,108.38,30.40,30.40,0.00,108.41,2001,2022-04-18 10:15:49.874,2022-04-18 11:15:49.873,18,0,0,14.648,55.936292,-4.407674,0.00,0.00,0.00,2.50,-5.60,-13.90,0,1,0,34,0,-7639,1136,14648,3086.50,6,P-GPS,1,1,0,0,0,0,0,1650276949873,0,0,0,0,0,0,27,,,,,,,0,0,0,-25.00,-56.00,-139.00,-814.00,0.00,-31.00,6,304.00,0.00,1083.83,0.00,0.00,0.00,0,,,100,100,0,2,0,0,0,2,0,,,,,0.0,0.0,0.0,0.0,0.0,0.0,0
55.935443,-4.406827,30.30,0.00,0.00,108.38,30.40,30.40,0.00,108.41,2101,2022-04-18 10:15:49.973,2022-04-18 11:15:49.973,18,0,0,14.660,55.936292,-4.407674,0.00,0.00,0.00,2.90,-5.70,-14.00,0,1,0,34,100,-7458,1136,14660,3086.50,6,P-GPS,1,1,0,0,0,0,0,1650276949973,0,0,0,0,0,0,27,,,,,,,0,0,0,-29.00,-57.00,-140.00,-814.00,0.00,-31.00,6,303.00,0.00,1083.77,0.00,0.00,0.00,0,,,100,100,0,2,0,0,0,2,0,,,,,0.0,0.0,0.0,0.0,0.0,0.0,0
55.935443,-4.406826,30.40,0.00,0.00,108.38,30.40,30.40,0.00,108.41,2199,2022-04-18 10:15:50.071,2022-04-18 11:15:50.071,18,0,0,14.660,55.936292,-4.407674,0.00,0.00,0.00,2.50,-5.70,-14.00,0,1,0,34,100,-7458,1136,14660,3086.50,6,P-GPS,1,1,0,0,0,0,0,1650276950071,0,0,0,0,0,0,27,,,,,,,0,0,0,-25.00,-57.00,-140.00,-814.00,0.00,-31.00,6,304.00,0.00,1083.81,0.00,0.00,0.00,0,,,100,100,0,2,0,0,0,2,0,,,,,0.0,0.0,0.0,0.0,0.0,0.0,0
55.935443,-4.406826,30.40,0.00,0.00,108.39,30.40,30.40,0.00,108.41,2294,2022-04-18 10:15:50.167,2022-04-18 11:15:50.166,18,0,0,14.660,55.936292,-4.407674,0.00,0.00,0.00,2.10,-6.00,-14.00,0,1,0,34,100,-7458,1136,14660,3086.50,6,P-GPS,1,1,0,0,0,0,0,1650276950166,0,0,0,0,0,0,27,,,,,,,0,0,0,-21.00,-60.00,-140.00,-814.00,0.00,-31.00,6,304.00,0.00,1083.91,0.00,0.00,0.00,0,,,100,100,0,2,0,0,0,2,0,,,,,0.0,0.0,0.0,0.0,0.0,0.0,0
55.935443,-4.406826,30.40,0.00,0.00,108.40,30.40,30.40,0.00,108.41,2396,2022-04-18 10:15:50.269,2022-04-18 11:15:50.268,18,0,0,14.660,55.936292,-4.407674,0.00,0.00,0.00,1.80,-6.10,-14.00,0,1,0,34,100,-7458,1136,14660,3086.50,6,P-GPS,1,1,0,0,0,0,0,1650276950268,0,0,0,0,0,0,27,,,,,,,0,0,0,-18.00,-61.00,-140.00,-814.00,0.00,-31.00,6,304.00,0.00,1083.97,0.00,0.00,0.00,0,,,100,100,0,2,0,0,0,2,0,,,,,0.0,0.0,0.0,0.0,0.0,0.0,0
55.935443,-4.406826,30.30,0.00,0.00,108.40,30.40,30.40,0.00,108.41,2502,2022-04-18 10:15:50.375,2022-04-18 11:15:50.374,17,0,0,14.660,55.936292,-4.407674,0.00,0.00,0.00,2.20,-5.80,-14.10,0,1,0,34,100,-7458,1136,14660,3086.50,6,P-GPS,1,1,0,0,0,0,0,1650276950374,0,0,0,0,0,0,27,,,,,,,0,0,0,-22.00,-58.00,-141.00,-814.00,0.00,-31.00,6,303.00,0.00,1083.99,0.00,0.00,0.00,0,,,100,100,0,2,0,0,0,2,0,,,,,0.0,0.0,0.0,0.0,0.0,0.0,0
55.935443,-4.406826,30.40,0.00,0.00,108.40,30.40,30.40,0.00,108.41,2591,2022-04-18 10:15:50.465,2022-04-18 11:15:50.463,17,0,0,14.660,55.936292,-4.407674,0.00,0.00,0.00,2.40,-5.70,-14.10,0,1,0,34,100,-7458,1136,14660,3086.50,6,P-GPS,1,1,0,0,0,0,0,1650276950463,0,0,0,0,0,0,27,,,,,,,0,0,0,-24.00,-57.00,-141.00,-814.00,0.00,-31.00,6,304.00,0.00,1084.02,0.00,0.00,0.00,0,,,100,100,0,2,0,0,0,2,0,,,,,0.0,0.0,0.0,0.0,0.0,0.0,0
55.935443,-4.406826,30.40,0.00,0.00,108.40,30.40,30.40,0.00,108.41,2694,2022-04-18 10:15:50.567,2022-04-18 11:15:50.566,17,0,0,14.660,55.936292,-4.407674,0.00,0.00,0.00,1.50,-5.60,-13.90,0,1,0,34,100,-7458,1136,14660,3086.50,6,P-GPS,1,1,0,0,0,0,0,1650276950566,0,0,0,0,0,0,27,,,,,,,0,0,0,-15.00,-56.00,-139.00,-814.00,0.00,-31.00,6,304.00,0.00,1084.00,0.00,0.00,0.00,0,,,100,100,0,2,0,0,0,2,0,,,,,0.0,0.0,0.0,0.0,0.0,0.0,0
55.935443,-4.406826,30.40,0.00,0.00,108.40,30.40,30.40,0.00,108.41,2800,2022-04-18 10:15:50.672,2022-04-18 11:15:50.672,17,0,0,14.660,55.936292,-4.407674,0.00,0.00,0.00,1.10,-5.60,-13.70,0,1,0,34,100,-7458,1136,14660,3086.50,6,P-GPS,1,1,0,0,0,0,0,1650276950672,0,0,0,0,0,0,27,,,,,,,0,0,0,-11.00,-56.00,-137.00,-814.00,0.00,-31.00,6,304.00,0.00,1084.02,0.00,0.00,0.00,0,,,100,100,0,2,0,0,0,2,0,,,,,0.0,0.0,0.0,0.0,0.0,0.0,0
55.935443,-4.406826,30.40,0.00,0.00,108.41,30.40,30.40,0.00,108.41,2893,2022-04-18 10:15:50.766,2022-04-18 11:15:50.765,17,0,0,14.660,55.936292,-4.407674,0.00,0.00,0.00,1.20,-5.40,-13.70,0,1,0,34,100,-7458,1136,14660,3086.50,6,P-GPS,1,1,0,0,0,0,0,1650276950765,0,0,0,0,0,0,27,,,,,,,0,0,0,-12.00,-54.00,-137.00,-814.00,0.00,-31.00,6,304.00,0.00,1084.14,0.00,0.00,0.00,0,,,100,100,0,2,0,0,0,2,0,,,,,0.0,0.0,0.0,0.0,0.0,0.0,0
55.935443,-4.406826,30.40,0.00,0.00,108.41,30.40,30.40,0.00,108.41,3001,2022-04-18 10:15:50.874,2022-04-18 11:15:50.873,17,0,0,14.660,55.936292,-4.407674,0.00,0.00,0.00,1.80,-5.10,-13.70,0,1,0,34,100,-7458,1136,14660,3086.50,6,P-GPS,1,1,0,0,0,0,0,1650276950873,0,0,0,0,0,0,27,,,,,,,0,0,0,-18.00,-51.00,-137.00,-814.00,0.00,-31.00,6,304.00,0.00,1084.12,0.00,0.00,0.00,0,,,100,100,0,2,0,0,0,2,0,,,,,0.0,0.0,0.0,0.0,0.0,0.0,0
55.935443,-4.406826,30.40,0.00,0.00,108.40,30.40,30.40,0.00,108.41,3099,2022-04-18 10:15:50.971,2022-04-18 11:15:50.971,17,0,0,14.648,55.936292,-4.407674,0.00,0.00,0.00,2.30,-4.90,-13.80,0,1,0,34,100,-7656,1132,14648,3086.50,6,P-GPS,1,1,0,0,0,0,0,1650276950971,0,0,0,0,0,0,27,,,,,,,0,0,0,-23.00,-49.00,-138.00,-814.00,0.00,-31.00,6,304.00,0.00,1084.00,0.00,0.00,0.00,0,,,100,100,0,2,0,0,0,2,0,,,,,0.0,0.0,0.0,0.0,0.0,0.0,0
55.935443,-4.406826,30.40,0.00,0.00,108.40,30.40,30.40,0.00,108.41,3192,2022-04-18 10:15:51.064,2022-04-18 11:15:51.064,17,0,0,14.648,55.936292,-4.407674,0.00,0.00,0.00,2.50,-5.00,-13.80,0,1,0,34,100,-7656,1132,14648,3086.50,6,P-GPS,1,1,0,0,0,0,0,1650276951064,0,0,0,0,0,0,27,,,,,,,0,0,0,-25.00,-50.00,-138.00,-814.00,0.00,-31.00,6,304.00,0.00,1083.96,0.00,0.00,0.00,0,,,100,100,0,2,0,0,0,2,0,,,,,0.0,0.0,0.0,0.0,0.0,0.0,0
55.935443,-4.406826,30.40,0.00,0.00,108.41,30.40,30.40,0.00,108.41,3292,2022-04-18 10:15:51.164,2022-04-18 11:15:51.164,17,0,0,14.648,55.936292,-4.407674,0.00,0.00,0.00,2.60,-4.90,-13.70,0,1,0,34,100,-7656,1132,14648,3086.50,6,P-GPS,1,1,0,0,0,0,0,1650276951164,0,0,0,0,0,0,27,,,,,,,0,0,0,-26.00,-49.00,-137.00,-814.00,0.00,-31.00,6,304.00,0.00,1084.11,0.00,0.00,0.00,0,,,100,100,0,2,0,0,0,2,0,,,,,0.0,0.0,0.0,0.0,0.0,0.0,0
55.935443,-4.406826,30.40,0.00,0.00,108.41,30.40,30.40,0.00,108.41,3396,2022-04-18 10:15:51.268,2022-04-18 11:15:51.268,17,0,0,14.648,55.936292,-4.407674,0.00,0.00,0.00,2.90,-4.70,-13.80,0,1,0,34,100,-7656,1132,14648,3086.50,6,P-GPS,1,1,0,0,0,0,0,1650276951268,0,0,0,0,0,0,27,,,,,,,0,0,0,-29.00,-47.00,-138.00,-814.00,0.00,-31.00,6,304.00,0.00,1084.09,0.00,0.00,0.00,0,,,100,100,0,2,0,0,0,2,0,,,,,0.0,0.0,0.0,0.0,0.0,0.0,0
55.935443,-4.406826,30.40,0.00,0.10,108.39,30.40,30.40,0.10,108.41,3496,2022-04-18 10:15:51.368,2022-04-18 11:15:51.368,17,0,0,14.648,55.936292,-4.407674,0.00,0.00,0.10,3.30,-4.40,-14.00,0,1,0,34,100,-7656,1132,14648,3086.50,6,P-GPS,1,1,0,0,0,0,0,1650276951368,0,0,0,0,0,0,27,,,,,,,0,0,0,-33.00,-44.00,-140.00,-814.00,0.00,-31.00,6,304.00,1.00,1083.94,0.00,0.00,1.00,0,,,100,100,0,2,0,0,0,2,0,,,,,0.0,0.0,0.0,0.0,0.0,0.0,0
55.935443,-4.406826,30.40,0.00,0.00,108.39,30.40,30.40,0.10,108.41,3599,2022-04-18 10:15:51.472,2022-04-18 11:15:51.471,17,0,0,14.648,55.936292,-4.407674,0.00,0.00,0.00,3.20,-4.40,-14.00,0,1,0,34,100,-7656,1132,14648,3086.50,6,P-GPS,1,1,0,0,0,0,0,1650276951471,0,0,0,0,0,0,27,,,,,,,0,0,0,-32.00,-44.00,-140.00,-814.00,0.00,-31.00,6,304.00,0.00,1083.91,0.00,0.00,0.00,0,,,100,100,0,2,0,0,0,2,0,,,,,0.0,0.0,0.0,0.0,0.0,0.0,0
55.935443,-4.406826,30.40,0.00,0.00,108.40,30.40,30.40,0.10,108.41,3696,2022-04-18 10:15:51.569,2022-04-18 11:15:51.569,17,0,0,14.648,55.936292,-4.407674,0.00,0.00,0.00,2.90,-4.60,-14.00,0,1,0,34,100,-7656,1132,14648,3086.50,6,P-GPS,1,1,0,0,0,0,0,1650276951568,0,0,0,0,0,0,27,,,,,,,0,0,0,-29.00,-46.00,-140.00,-814.00,0.00,-31.00,6,304.00,0.00,1083.95,0.00,0.00,0.00,0,,,100,100,0,2,0,0,0,2,0,,,,,0.0,0.0,0.0,0.0,0.0,0.0,0
55.935443,-4.406826,30.40,0.00,0.00,108.40,30.40,30.40,0.10,108.41,3796,2022-04-18 10:15:51.668,2022-04-18 11:15:51.668,17,0,0,14.648,55.936292,-4.407674,0.00,0.00,0.00,2.80,-5.10,-14.00,0,1,0,34,100,-7656,1132,14648,3086.50,6,P-GPS,1,1,0,0,0,0,0,1650276951668,0,0,0,0,0,0,27,,,,,,,0,0,0,-28.00,-51.00,-140.00,-814.00,0.00,-31.00,6,304.00,0.00,1083.96,0.00,0.00,0.00,0,,,100,100,0,2,0,0,0,2,0,,,,,0.0,0.0,0.0,0.0,0.0,0.0,0
55.935443,-4.406826,30.40,0.00,0.00,108.38,30.40,30.40,0.10,108.41,3893,2022-04-18 10:15:51.765,2022-04-18 11:15:51.765,17,0,0,14.648,55.936292,-4.407674,0.00,0.00,0.00,2.70,-5.20,-14.00,0,1,0,34,100,-7656,1132,14648,3086.50,6,P-GPS,1,1,0,0,0,0,0,1650276951765,0,0,0,0,0,0,27,,,,,,,0,0,0,-27.00,-52.00,-140.00,-814.00,0.00,-31.00,6,304.00,0.00,1083.81,0.00,0.00,0.00,0,,,100,100,0,2,0,0,0,2,0,,,,,0.0,0.0,0.0,0.0,0.0,0.0,0
55.935443,-4.406826,30.40,0.00,0.00,108.38,30.40,30.40,0.10,108.41,3997,2022-04-18 10:15:51.870,2022-04-18 11:15:51.869,17,0,0,14.648,55.936292,-4.407674,0.00,0.00,0.00,2.60,-5.20,-14.00,0,1,0,34,100,-7656,1132,14648,3086.50,6,P-GPS,1,1,0,0,0,0,0,1650276951869,0,0,0,0,0,0,27,,,,,,,0,0,0,-26.00,-52.00,-140.00,-814.00,0.00,-31.00,6,304.00,0.00,1083.82,0.00,0.00,0.00,0,,,100,100,0,2,0,0,0,2,0,,,,,0.0,0.0,0.0,0.0,0.0,0.0,0
55.935443,-4.406826,30.40,0.00,0.00,108.39,30.40,30.40,0.10,108.41,4093,2022-04-18 10:15:51.966,2022-04-18 11:15:51.966,17,0,0,14.661,55.936292,-4.407674,0.00,0.00,0.00,2.70,-5.20,-14.10,0,1,0,33,100,-7624,1130,14661,3086.50,6,P-GPS,1,1,0,0,0,0,0,1650276951965,0,0,0,0,0,0,27,,,,,,,0,0,0,-27.00,-52.00,-141.00,-814.00,0.00,-31.00,6,304.00,0.00,1083.90,0.00,0.00,0.00,0,,,100,100,0,2,0,0,0,2,0,,,,,0.0,0.0,0.0,0.0,0.0,0.0,0
55.935443,-4.406826,30.40,0.00,0.00,108.39,30.40,30.40,0.10,108.41,4194,2022-04-18 10:15:52.066,2022-04-18 11:15:52.066,17,0,0,14.661,55.936292,-4.407674,0.00,0.00,0.00,2.20,-5.20,-14.00,0,1,0,33,100,-7624,1130,14661,3086.50,6,P-GPS,1,1,0,0,0,0,0,1650276952066,0,0,0,0,0,0,27,,,,,,,0,0,0,-22.00,-52.00,-140.00,-814.00,0.00,-31.00,6,304.00,0.00,1083.95,0.00,0.00,0.00,0,,,100,100,0,2,0,0,0,2,0,,,,,0.0,0.0,0.0,0.0,0.0,0.0,0
55.935443,-4.406826,30.40,0.00,0.00,108.40,30.40,30.40,0.10,108.41,4291,2022-04-18 10:15:52.163,2022-04-18 11:15:52.163,17,0,0,14.661,55.936292,-4.407674,0.00,0.00,0.00,1.40,-5.40,-13.90,0,1,0,33,100,-7624,1130,14661,3086.50,6,P-GPS,1,1,0,0,0,0,0,1650276952163,0,0,0,0,0,0,27,,,,,,,0,0,0,-14.00,-54.00,-139.00,-814.00,0.00,-31.00,6,304.00,0.00,1084.00,0.00,0.00,0.00,0,,,100,100,0,2,0,0,0,2,0,,,,,0.0,0.0,0.0,0.0,0.0,0.0,0
55.935443,-4.406826,30.40,0.00,0.00,108.40,30.40,30.40,0.10,108.41,4393,2022-04-18 10:15:52.266,2022-04-18 11:15:52.265,17,0,0,14.661,55.936292,-4.407674,0.00,0.00,0.00,1.20,-5.70,-13.80,0,1,0,33,100,-7624,1130,14661,3086.50,6,P-GPS,1,1,0,0,0,0,0,1650276952265,0,0,0,0,0,0,27,,,,,,,0,0,0,-12.00,-57.00,-138.00,-814.00,0.00,-31.00,6,304.00,0.00,1084.05,0.00,0.00,0.00,0,,,100,100,0,2,0,0,0,2,0,,,,,0.0,0.0,0.0,0.0,0.0,0.0,0
55.935443,-4.406826,30.40,0.00,0.00,108.40,30.40,30.40,0.10,108.41,4494,2022-04-18 10:15:52.366,2022-04-18 11:15:52.366,17,0,0,14.661,55.936292,-4.407674,0.00,0.00,0.00,1.40,-6.20,-13.90,0,1,0,33,100,-7624,1130,14661,3086.50,6,P-GPS,1,1,0,0,0,0,0,1650276952366,0,0,0,0,0,0,27,,,,,,,0,0,0,-14.00,-62.00,-139.00,-814.00,0.00,-31.00,6,304.00,0.00,1084.03,0.00,0.00,0.00,0,,,100,100,0,2,0,0,0,2,0,,,,,0.0,0.0,0.0,0.0,0.0,0.0,0
55.935443,-4.406826,30.40,0.00,0.00,108.41,30.40,30.40,0.10,108.41,4595,2022-04-18 10:15:52.467,2022-04-18 11:15:52.467,17,0,0,14.661,55.936292,-4.407674,0.00,0.00,0.00,1.30,-6.50,-13.90,0,1,0,33,100,-7624,1130,14661,3086.50,6,P-GPS,1,1,0,0,0,0,0,1650276952467,0,0,0,0,0,0,27,,,,,,,0,0,0,-13.00,-65.00,-139.00,-814.00,0.00,-31.00,6,304.00,0.00,1084.08,0.00,0.00,0.00,0,,,100,100,0,2,0,0,0,2,0,,,,,0.0,0.0,0.0,0.0,0.0,0.0,0
55.935443,-4.406826,30.40,0.00,0.00,108.41,30.40,30.40,0.10,108.41,4697,2022-04-18 10:15:52.569,2022-04-18 11:15:52.569,17,0,0,14.661,55.936292,-4.407674,0.00,0.00,0.00,1.80,-7.20,-14.00,0,1,0,33,100,-7624,1130,14661,3086.50,6,P-GPS,1,1,0,0,0,0,0,1650276952569,3673,3672,3663,3648,0,0,27,,,,,,,0,0,0,-18.00,-72.00,-140.00,-814.00,0.00,-31.00,6,304.00,0.00,1084.09,0.00,0.00,0.00,0,,,100,100,0,2,0,0,0,2,0,,,,,0.0,0.0,0.0,0.0,0.0,0.0,0
55.935443,-4.406825,30.50,0.00,0.00,108.42,30.50,30.50,0.10,108.42,4798,2022-04-18 10:15:52.671,2022-04-18 11:15:52.670,17,0,0,14.661,55.936292,-4.407674,0.00,0.00,0.00,1.60,-7.50,-14.10,0,1,0,33,100,-7624,1130,14661,3086.50,6,P-GPS,1,1,0,0,0,0,0,1650276952670,3673,3672,3663,3648,0,0,27,,,,,,,0,0,0,-16.00,-75.00,-141.00,-814.00,0.00,-31.00,6,305.00,0.00,1084.16,0.00,0.00,0.00,0,,,100,100,0,2,0,0,0,2,0,,,,,0.0,0.0,0.0,0.0,0.0,0.0,0
55.935443,-4.406825,30.50,0.00,0.10,108.44,30.50,30.50,0.10,108.44,4892,2022-04-18 10:15:52.764,2022-04-18 11:15:52.764,17,0,0,14.661,55.936292,-4.407674,0.00,0.00,0.10,1.00,-7.20,-14.10,0,1,0,33,100,-7624,1130,14661,3086.50,6,P-GPS,1,1,0,0,0,0,0,1650276952764,3673,3672,3663,3648,0,0,27,,,,,,,0,0,0,-10.00,-72.00,-141.00,-814.00,0.00,-31.00,6,305.00,1.00,1084.37,0.00,0.00,1.00,0,,,100,100,0,2,0,0,0,2,0,,,,,0.0,0.0,0.0,0.0,0.0,0.0,0
55.935443,-4.406825,30.50,0.00,0.10,108.45,30.50,30.50,0.10,108.45,4992,2022-04-18 10:15:52.864,2022-04-18 11:15:52.864,17,0,0,14.661,55.936292,-4.407674,0.00,0.00,0.10,0.70,-7.10,-14.10,0,1,0,33,100,-7624,1130,14661,3086.50,6,P-GPS,1,1,0,0,0,0,0,1650276952864,3673,3672,3663,3648,0,0,27,,,,,,,0,0,0,-7.00,-71.00,-141.00,-814.00,0.00,-31.00,6,305.00,1.00,1084.46,0.00,0.00,1.00,0,,,100,100,0,2,0,0,0,2,0,,,,,0.0,0.0,0.0,0.0,0.0,0.0,0
55.935443,-4.406825,30.40,0.00,0.10,108.45,30.50,30.50,0.10,108.45,5091,2022-04-18 10:15:52.964,2022-04-18 11:15:52.963,17,0,0,14.655,55.936292,-4.407674,0.00,0.00,0.10,0.40,-6.80,-14.00,0,1,0,33,100,-7654,1128,14655,3086.50,6,P-GPS,1,1,0,0,0,0,0,1650276952963,3673,3672,3663,3648,0,0,27,,,,,,,0,0,0,-4.00,-68.00,-140.00,-814.00,0.00,-31.00,6,304.00,1.00,1084.46,0.00,0.00,1.00,0,,,100,100,0,2,0,0,0,2,0,,,,,0.0,0.0,0.0,0.0,0.0,0.0,0
55.935443,-4.406825,30.40,0.00,0.10,108.45,30.50,30.50,0.10,108.45,5196,2022-04-18 10:15:53.069,2022-04-18 11:15:53.068,17,0,0,14.655,55.936292,-4.407674,0.00,0.00,0.10,0.00,-6.60,-14.00,0,1,0,33,100,-7654,1128,14655,3086.50,6,P-GPS,1,1,0,0,0,0,0,1650276953068,3673,3672,3663,3648,0,0,27,,,,,,,0,0,0,-0.00,-66.00,-140.00,-814.00,0.00,-31.00,6,304.00,1.00,1084.53,0.00,0.00,1.00,0,,,100,100,0,2,0,0,0,2,0,,,,,0.0,0.0,0.0,0.0,0.0,0.0,0
55.935443,-4.406825,30.50,0.00,0.00,108.46,30.50,30.50,0.10,108.46,5291,2022-04-18 10:15:53.164,2022-04-18 11:15:53.163,18,0,0,14.655,55.936292,-4.407674,0.00,0.00,0.00,0.20,-6.30,-13.90,0,1,0,33,100,-7654,1128,14655,3086.50,6,P-GPS,1,1,0,0,0,0,0,1650276953163,3673,3672,3663,3648,0,0,27,,,,,,,0,0,0,-2.00,-63.00,-139.00,-814.00,0.00,-31.00,6,305.00,0.00,1084.61,0.00,0.00,0.00,0,,,100,100,0,2,0,0,0,2,0,,,,,0.0,0.0,0.0,0.0,0.0,0.0,0
55.935443,-4.406825,30.40,0.00,0.00,108.46,30.50,30.50,0.10,108.46,5400,2022-04-18 10:15:53.273,2022-04-18 11:15:53.272,18,0,0,14.655,55.936292,-4.407674,0.00,0.00,0.00,0.50,-6.10,-14.00,0,1,0,33,100,-7654,1128,14655,3086.50,6,P-GPS,1,1,0,0,0,0,0,1650276953272,3673,3672,3663,3648,0,0,27,,,,,,,0,0,0,-5.00,-61.00,-140.00,-814.00,0.00,-31.00,6,304.00,0.00,1084.64,0.00,0.00,0.00,0,,,100,100,0,2,0,0,0,2,0,,,,,0.0,0.0,0.0,0.0,0.0,0.0,0
55.935443,-4.406825,30.40,0.00,0.00,108.46,30.50,30.50,0.10,108.46,5508,2022-04-18 10:15:53.380,2022-04-18 11:15:53.380,18,0,0,14.655,55.936292,-4.407674,0.00,0.00,0.00,0.50,-6.20,-13.90,0,1,0,33,100,-7654,1128,14655,3086.50,6,P-GPS,1,1,0,0,0,0,0,1650276953380,3673,3672,3663,3648,0,0,27,,,,,,,0,0,0,-5.00,-62.00,-139.00,-814.00,0.00,-31.00,6,304.00,0.00,1084.59,0.00,0.00,0.00,0,,,100,100,0,2,0,0,0,2,0,,,,,0.0,0.0,0.0,0.0,0.0,0.0,0
55.935443,-4.406825,30.40,0.00,0.00,108.46,30.50,30.50,0.10,108.46,5592,2022-04-18 10:15:53.465,2022-04-18 11:15:53.464,18,0,0,14.655,55.936292,-4.407674,0.00,0.00,0.00,0.70,-6.50,-13.80,0,1,0,33,100,-7654,1128,14655,3086.50,6,P-GPS,1,1,0,0,0,0,0,1650276953464,3673,3672,3663,3648,0,0,27,,,,,,,0,0,0,-7.00,-65.00,-138.00,-814.00,0.00,-31.00,6,304.00,0.00,1084.59,0.00,0.00,0.00,0,,,100,100,0,2,0,0,0,2,0,,,,,0.0,0.0,0.0,0.0,0.0,0.0,0
55.935443,-4.406825,30.40,0.00,0.00,108.46,30.50,30.50,0.10,108.46,5691,2022-04-18 10:15:53.564,2022-04-18 11:15:53.563,18,0,0,14.655,55.936292,-4.407674,0.00,0.00,0.00,1.10,-6.70,-13.90,0,1,0,33,100,-7654,1128,14655,3086.50,6,P-GPS,1,1,0,0,0,0,0,1650276953563,3673,3672,3663,3648,0,0,27,,,,,,,0,0,0,-11.00,-67.00,-139.00,-814.00,0.00,-31.00,6,304.00,0.00,1084.63,0.00,0.00,0.00,0,,,100,100,0,2,0,0,0,2,0,,,,,0.0,0.0,0.0,0.0,0.0,0.0,0
55.935443,-4.406825,30.40,0.00,0.00,108.46,30.50,30.50,0.10,108.46,5795,2022-04-18 10:15:53.668,2022-04-18 11:15:53.667,18,0,0,14.655,55.936292,-4.407674,0.00,0.00,0.00,1.20,-6.40,-13.90,0,1,0,33,100,-7654,1128,14655,3086.50,6,P-GPS,1,1,0,0,0,0,0,1650276953667,3673,3672,3663,3648,0,0,27,,,,,,,0,0,0,-12.00,-64.00,-139.00,-814.00,0.00,-31.00,6,304.00,0.00,1084.62,0.00,0.00,0.00,0,,,100,100,0,2,0,0,0,2,0,,,,,0.0,0.0,0.0,0.0,0.0,0.0,0
55.935442,-4.406825,30.40,0.00,0.00,108.46,30.50,30.50,0.10,108.46,5895,2022-04-18 10:15:53.768,2022-04-18 11:15:53.767,18,0,0,14.655,55.936292,-4.407674,0.00,0.00,0.00,1.00,-6.00,-13.90,0,1,0,33,100,-7654,1128,14655,3086.50,6,P-GPS,1,1,0,0,0,0,0,1650276953767,3673,3672,3663,3648,0,0,27,,,,,,,0,0,0,-10.00,-60.00,-139.00,-814.00,0.00,-31.00,6,304.00,0.00,1084.64,0.00,0.00,0.00,0,,,100,100,0,2,0,0,0,2,0,,,,,0.0,0.0,0.0,0.0,0.0,0.0,0
55.935442,-4.406825,30.40,0.00,0.10,108.46,30.50,30.50,0.10,108.46,6007,2022-04-18 10:15:53.880,2022-04-18 11:15:53.879,18,0,0,14.655,55.936292,-4.407674,0.00,0.00,0.10,1.00,-5.90,-14.00,0,1,0,33,100,-7654,1128,14655,3086.50,6,P-GPS,1,1,0,0,0,0,0,1650276953879,3673,3672,3663,3648,0,0,27,,,,,,,0,0,0,-10.00,-59.00,-140.00,-814.00,0.00,-31.00,6,304.00,1.00,1084.63,0.00,0.00,1.00,0,,,100,100,0,2,0,0,0,2,0,,,,,0.0,0.0,0.0,0.0,0.0,0.0,0
55.935442,-4.406826,30.40,0.00,0.00,108.46,30.50,30.50,0.10,108.46,6191,2022-04-18 10:15:54.064,2022-04-18 11:15:54.063,18,0,0,14.640,55.936292,-4.407674,0.00,0.00,0.00,0.60,-5.70,-13.90,0,1,0,33,100,-7828,1126,14640,3087.50,6,P-GPS,1,1,0,0,0,0,0,1650276954063,3673,3672,3663,3648,0,0,27,,,,,,,0,0,0,-6.00,-57.00,-139.00,-814.00,0.00,-31.00,6,304.00,0.00,1084.65,0.00,0.00,0.00,0,,,100,100,0,2,0,0,0,2,0,,,,,0.0,0.0,0.0,0.0,0.0,0.0,0
55.935442,-4.406826,30.40,0.00,0.00,108.46,30.50,30.50,0.10,108.46,6304,2022-04-18 10:15:54.176,2022-04-18 11:15:54.176,18,0,0,14.640,55.936292,-4.407674,0.00,0.00,0.00,0.40,-5.60,-13.90,0,1,0,33,100,-7828,1126,14640,3087.50,6,P-GPS,1,1,0,0,0,0,0,1650276954176,3673,3672,3663,3648,0,0,27,,,,,,,0,0,0,-4.00,-56.00,-139.00,-814.00,0.00,-31.00,6,304.00,0.00,1084.60,0.00,0.00,0.00,0,,,100,100,0,2,0,0,0,2,0,,,,,0.0,0.0,0.0,0.0,0.0,0.0,0
55.935442,-4.406826,30.40,0.00,0.00,108.46,30.50,30.50,0.10,108.46,6394,2022-04-18 10:15:54.266,2022-04-18 11:15:54.266,18,0,0,14.640,55.936292,-4.407674,0.00,0.00,0.00,0.10,-5.50,-13.90,0,1,0,33,100,-7828,1126,14640,3087.50,6,P-GPS,1,1,0,0,0,0,0,1650276954266,3673,3672,3663,3648,0,0,27,,,,,,,0,0,0,-1.00,-55.00,-139.00,-814.00,0.00,-31.00,6,304.00,0.00,1084.62,0.00,0.00,0.00,0,,,100,100,0,2,0,0,0,2,0,,,,,0.0,0.0,0.0,0.0,0.0,0.0,0
55.935442,-4.406826,30.40,0.00,0.00,108.46,30.50,30.50,0.10,108.46,6507,2022-04-18 10:15:54.381,2022-04-18 11:15:54.379,18,0,0,14.640,55.936292,-4.407674,0.00,0.00,0.00,-0.10,-5.50,-13.80,0,1,0,33,100,-7828,1126,14640,3087.50,6,P-GPS,1,1,0,0,0,0,0,1650276954379,3673,3672,3663,3648,0,0,27,,,,,,,0,0,0,1.00,-55.00,-138.00,-814.00,0.00,-31.00,6,304.00,0.00,1084.61,0.00,0.00,0.00,0,,,100,100,0,2,0,0,0,2,0,,,,,0.0,0.0,0.0,0.0,0.0,0.0,0
55.935442,-4.406826,30.40,0.00,0.00,108.46,30.50,30.50,0.10,108.46,6601,2022-04-18 10:15:54.473,2022-04-18 11:15:54.473,18,0,0,14.640,55.936292,-4.407674,0.00,0.00,0.00,0.00,-5.40,-13.90,0,1,0,33,100,-7828,1126,14640,3087.50,6,P-GPS,1,1,0,0,0,0,0,1650276954473,3673,3672,3663,3648,0,0,27,,,,,,,0,0,0,-0.00,-54.00,-139.00,-814.00,0.00,-31.00,6,304.00,0.00,1084.62,0.00,0.00,0.00,0,,,100,100,0,2,0,0,0,2,0,,,,,0.0,0.0,0.0,0.0,0.0,0.0,0
55.935442,-4.406826,30.40,0.00,0.00,108.45,30.50,30.50,0.10,108.46,6694,2022-04-18 10:15:54.567,2022-04-18 11:15:54.566,18,0,0,14.640,55.936292,-4.407674,0.00,0.00,0.00,-0.10,-5.70,-13.90,0,1,0,33,100,-7828,1126,14640,3087.50,6,P-GPS,1,1,0,0,0,0,0,1650276954566,3673,3672,3663,3648,0,0,27,,,,,,,0,0,0,1.00,-57.00,-139.00,-814.00,0.00,-31.00,6,304.00,0.00,1084.52,0.00,0.00,0.00,0,,,100,100,0,2,0,0,0,2,0,,,,,0.0,0.0,0.0,0.0,0.0,0.0,0
55.935442,-4.406826,30.40,0.00,0.00,108.45,30.50,30.50,0.10,108.46,6796,2022-04-18 10:15:54.668,2022-04-18 11:15:54.668,18,0,0,14.640,55.936292,-4.407674,0.00,0.00,0.00,-0.40,-5.70,-13.80,0,1,0,33,100,-7828,1126,14640,3087.50,6,P-GPS,1,1,0,0,0,0,0,1650276954668,3673,3672,3663,3648,0,0,27,,,,,,,0,0,0,4.00,-57.00,-138.00,-814.00,0.00,-31.00,6,304.00,0.00,1084.53,0.00,0.00,0.00,0,,,100,100,0,2,0,0,0,2,0,,,,,0.0,0.0,0.0,0.0,0.0,0.0,0
55.935442,-4.406826,30.40,0.00,0.00,108.45,30.50,30.50,0.10,108.46,6894,2022-04-18 10:15:54.767,2022-04-18 11:15:54.766,18,0,0,14.640,55.936292,-4.407674,0.00,0.00,0.00,-0.50,-6.00,-13.80,0,1,0,33,100,-7828,1126,14640,3087.50,6,P-GPS,1,1,0,0,0,0,0,1650276954766,3673,3672,3663,3648,0,0,27,,,,,,,0,0,0,5.00,-60.00,-138.00,-814.00,0.00,-31.00,6,304.00,0.00,1084.54,0.00,0.00,0.00,0,,,100,100,0,2,0,0,0,2,0,,,,,0.0,0.0,0.0,0.0,0.0,0.0,0
55.935442,-4.406826,30.40,0.00,0.00,108.46,30.50,30.50,0.10,108.46,7001,2022-04-18 10:15:54.873,2022-04-18 11:15:54.873,18,0,0,14.640,55.936292,-4.407674,0.00,0.00,0.00,-0.90,-6.40,-13.60,0,1,0,33,100,-7828,1126,14640,3087.50,6,P-GPS,1,1,0,0,0,0,0,1650276954873,3673,3672,3663,3648,0,0,27,,,,,,,0,0,0,9.00,-64.00,-136.00,-814.00,0.00,-31.00,6,304.00,0.00,1084.56,0.00,0.00,0.00,0,,,100,100,0,2,0,0,0,2,0,,,,,0.0,0.0,0.0,0.0,0.0,0.0,0
55.935442,-4.406826,30.40,0.00,0.00,108.47,30.50,30.50,0.10,108.47,7090,2022-04-18 10:15:54.963,2022-04-18 11:15:54.962,18,0,0,14.636,55.936292,-4.407674,0.00,0.00,0.00,-0.90,-6.80,-13.80,0,1,0,33,100,-7884,1123,14636,3087.50,6,P-GPS,1,1,0,0,0,0,0,1650276954962,3673,3672,3663,3648,0,0,27,,,,,,,0,0,0,9.00,-68.00,-138.00,-814.00,0.00,-31.00,6,304.00,0.00,1084.67,0.00,0.00,0.00,0,,,100,100,0,2,0,0,0,2,0,,,,,0.0,0.0,0.0,0.0,0.0,0.0,0
55.935442,-4.406826,30.40,0.00,0.00,108.47,30.50,30.50,0.10,108.47,7191,2022-04-18 10:15:55.064,2022-04-18 11:15:55.063,18,0,0,14.636,55.936292,-4.407674,0.00,0.00,0.00,-0.60,-7.10,-13.60,0,1,0,33,100,-7884,1123,14636,3087.50,6,P-GPS,1,1,0,0,0,0,0,1650276955063,3673,3672,3663,3648,0,0,27,,,,,,,0,0,0,6.00,-71.00,-136.00,-814.00,0.00,-31.00,6,304.00,0.00,1084.67,0.00,0.00,0.00,0,,,100,100,0,2,0,0,0,2,0,,,,,0.0,0.0,0.0,0.0,0.0,0.0,0
55.935442,-4.406826,30.40,0.00,0.00,108.47,30.50,30.50,0.10,108.47,7291,2022-04-18 10:15:55.163,2022-04-18 11:15:55.163,18,0,0,14.636,55.936292,-4.407674,0.00,0.00,0.00,-0.60,-7.10,-13.70,0,1,0,33,100,-7884,1123,14636,3087.50,6,P-GPS,1,1,0,0,0,0,0,1650276955163,3673,3672,3663,3648,0,0,27,,,,,,,0,0,0,6.00,-71.00,-137.00,-814.00,0.00,-31.00,6,304.00,0.00,1084.68,0.00,0.00,0.00,0,,,100,100,0,2,0,0,0,2,0,,,,,0.0,0.0,0.0,0.0,0.0,0.0,0
55.935442,-4.406826,30.50,0.00,0.00,108.46,30.50,30.50,0.10,108.47,7398,2022-04-18 10:15:55.271,2022-04-18 11:15:55.270,18,0,0,14.636,55.936292,-4.407674,0.00,0.00,0.00,-0.40,-7.00,-13.80,0,1,0,33,100,-7884,1123,14636,3087.50,6,P-GPS,1,1,0,0,0,0,0,1650276955270,3673,3672,3663,3648,0,0,27,,,,,,,0,0,0,4.00,-70.00,-138.00,-814.00,0.00,-31.00,6,305.00,0.00,1084.64,0.00,0.00,0.00,0,,,100,100,0,2,0,0,0,2,0,,,,,0.0,0.0,0.0,0.0,0.0,0.0,0
55.935442,-4.406826,30.40,0.00,0.00,108.45,30.50,30.50,0.10,108.47,7505,2022-04-18 10:15:55.377,2022-04-18 11:15:55.377,18,0,0,14.636,55.936292,-4.407674,0.00,0.00,0.00,-0.20,-6.80,-13.80,0,1,0,33,100,-7884,1123,14636,3087.50,6,P-GPS,1,1,0,0,0,0,0,1650276955377,3673,3672,3663,3648,0,0,27,,,,,,,0,0,0,2.00,-68.00,-138.00,-814.00,0.00,-31.00,6,304.00,0.00,1084.52,0.00,0.00,0.00,0,,,100,100,0,2,0,0,0,2,0,,,,,0.0,0.0,0.0,0.0,0.0,0.0,0
55.935442,-4.406826,30.50,0.00,0.00,108.44,30.50,30.50,0.10,108.47,7597,2022-04-18 10:15:55.470,2022-04-18 11:15:55.469,18,0,0,14.636,55.936292,-4.407674,0.00,0.00,0.00,0.40,-7.10,-13.80,0,1,0,33,100,-7884,1123,14636,3087.50,6,P-GPS,1,1,0,0,0,0,0,1650276955469,3673,3672,3663,3648,0,0,27,,,,,,,0,0,0,-4.00,-71.00,-138.00,-814.00,0.00,-31.00,6,305.00,0.00,1084.44,0.00,0.00,0.00,0,,,100,100,0,2,0,0,0,2,0,,,,,0.0,0.0,0.0,0.0,0.0,0.0,0
55.935442,-4.406826,30.40,0.00,0.00,108.44,30.50,30.50,0.10,108.47,7692,2022-04-18 10:15:55.565,2022-04-18 11:15:55.564,18,0,0,14.636,55.936292,-4.407674,0.00,0.00,0.00,0.30,-7.10,-13.90,0,1,0,33,100,-7884,1123,14636,3087.50,6,P-GPS,1,1,0,0,0,0,0,1650276955564,3673,3672,3663,3648,0,0,27,,,,,,,0,0,0,-3.00,-71.00,-139.00,-814.00,0.00,-31.00,6,304.00,0.00,1084.41,0.00,0.00,0.00,0,,,100,100,0,2,0,0,0,2,0,,,,,0.0,0.0,0.0,0.0,0.0,0.0,0
55.935442,-4.406826,30.50,0.00,0.00,108.43,30.50,30.50,0.10,108.47,7794,2022-04-18 10:15:55.666,2022-04-18 11:15:55.666,18,0,0,14.636,55.936292,-4.407674,0.00,0.00,0.00,0.50,-7.20,-14.00,0,1,0,33,100,-7884,1123,14636,3087.50,6,P-GPS,1,1,0,0,0,0,0,1650276955666,3673,3672,3663,3648,0,0,27,,,,,,,0,0,0,-5.00,-72.00,-140.00,-814.00,0.00,-31.00,6,305.00,0.00,1084.32,0.00,0.00,0.00,0,,,100,100,0,2,0,0,0,2,0,,,,,0.0,0.0,0.0,0.0,0.0,0.0,0
55.935442,-4.406826,30.50,0.00,0.00,108.44,30.50,30.50,0.10,108.47,7892,2022-04-18 10:15:55.765,2022-04-18 11:15:55.764,18,0,0,14.636,55.936292,-4.407674,0.00,0.00,0.00,1.00,-7.30,-14.00,0,1,0,33,100,-7884,1123,14636,3087.50,6,P-GPS,1,1,0,0,0,0,0,1650276955764,3673,3672,3663,3648,0,0,27,,,,,,,0,0,0,-10.00,-73.00,-140.00,-814.00,0.00,-31.00,6,305.00,0.00,1084.39,0.00,0.00,0.00,0,,,100,100,0,2,0,0,0,2,0,,,,,0.0,0.0,0.0,0.0,0.0,0.0,0
55.935442,-4.406826,30.50,0.00,0.00,108.43,30.50,30.50,0.10,108.47,7998,2022-04-18 10:15:55.871,2022-04-18 11:15:55.870,18,0,0,14.636,55.936292,-4.407674,0.00,0.00,0.00,1.20,-7.80,-14.00,0,1,0,33,100,-7884,1123,14636,3087.50,6,P-GPS,1,1,0,0,0,0,0,1650276955870,3673,3672,3663,3648,0,0,27,,,,,,,0,0,0,-12.00,-78.00,-140.00,-814.00,0.00,-31.00,6,305.00,0.00,1084.31,0.00,0.00,0.00,0,,,100,100,0,2,0,0,0,2,0,,,,,0.0,0.0,0.0,0.0,0.0,0.0,0
55.935443,-4.406826,30.40,0.00,0.10,108.43,30.50,30.50,0.10,108.47,8092,2022-04-18 10:15:55.964,2022-04-18 11:15:55.964,18,0,0,14.638,55.936292,-4.407674,0.00,0.00,0.10,1.00,-8.50,-14.10,0,1,0,33,100,-7962,1121,14638,3087.50,6,P-GPS,1,1,0,0,0,0,0,1650276955964,3673,3672,3663,3648,0,0,27,,,,,,,0,0,0,-10.00,-85.00,-141.00,-813.00,0.00,-31.00,6,304.00,1.00,1084.31,0.00,0.00,1.00,0,,,100,100,0,2,0,0,0,2,0,,,,,0.0,0.0,0.0,0.0,0.0,0.0,0
55.935443,-4.406826,30.40,0.00,0.10,108.43,30.50,30.50,0.10,108.47,8198,2022-04-18 10:15:56.071,2022-04-18 11:15:56.070,18,0,0,14.638,55.936292,-4.407674,0.00,0.00,0.10,0.60,-8.50,-14.00,0,1,0,33,100,-7962,1121,14638,3087.50,6,P-GPS,1,1,0,0,0,0,0,1650276956070,3673,3672,3663,3648,0,0,27,,,,,,,0,0,0,-6.00,-85.00,-140.00,-812.00,0.00,-31.00,6,304.00,1.00,1084.28,0.00,0.00,1.00,0,,,100,100,0,2,0,0,0,2,0,,,,,0.0,0.0,0.0,0.0,0.0,0.0,0
55.935443,-4.406826,30.50,0.00,0.00,108.43,30.50,30.50,0.10,108.47,8294,2022-04-18 10:15:56.166,2022-04-18 11:15:56.166,18,0,0,14.638,55.936292,-4.407674,0.00,0.00,0.00,0.10,-8.50,-14.00,0,1,0,33,100,-7962,1121,14638,3087.50,6,P-GPS,1,1,0,0,0,0,0,1650276956166,3673,3672,3663,3648,0,0,27,,,,,,,0,0,0,-1.00,-85.00,-140.00,-812.00,0.00,-31.00,6,305.00,0.00,1084.32,0.00,0.00,0.00,0,,,100,100,0,2,0,0,0,2,0,,,,,0.0,0.0,0.0,0.0,0.0,0.0,0
55.935443,-4.406826,30.50,0.00,0.00,108.43,30.50,30.50,0.10,108.47,8398,2022-04-18 10:15:56.270,2022-04-18 11:15:56.270,18,0,0,14.638,55.936292,-4.407674,0.00,0.00,0.00,0.40,-8.30,-14.10,0,1,0,33,100,-7962,1121,14638,3087.50,6,P-GPS,1,1,0,0,0,0,0,1650276956270,3673,3672,3663,3648,0,0,27,,,,,,,0,0,0,-4.00,-83.00,-141.00,-812.00,0.00,-31.00,6,305.00,0.00,1084.29,0.00,0.00,0.00,0,,,100,100,0,2,0,0,0,2,0,,,,,0.0,0.0,0.0,0.0,0.0,0.0,0
55.935443,-4.406826,30.50,0.00,0.00,108.43,30.50,30.50,0.10,108.47,8495,2022-04-18 10:15:56.368,2022-04-18 11:15:56.367,18,0,0,14.638,55.936292,-4.407674,0.00,0.00,0.00,0.50,-8.60,-14.00,0,1,0,33,100,-7962,1121,14638,3087.50,6,P-GPS,1,1,0,0,0,0,0,1650276956367,3673,3672,3663,3648,0,0,27,,,,,,,0,0,0,-5.00,-86.00,-140.00,-812.00,0.00,-31.00,6,305.00,0.00,1084.27,0.00,0.00,0.00,0,,,100,100,0,2,0,0,0,2,0,,,,,0.0,0.0,0.0,0.0,0.0,0.0,0
55.935443,-4.406826,30.50,0.00,0.00,108.43,30.50,30.50,0.10,108.47,8594,2022-04-18 10:15:56.467,2022-04-18 11:15:56.467,18,0,0,14.638,55.936292,-4.407674,0.00,0.00,0.00,0.50,-8.70,-14.00,0,1,0,33,100,-7962,1121,14638,3087.50,6,P-GPS,1,1,0,0,0,0,0,1650276956466,3673,3672,3663,3648,0,0,27,,,,,,,0,0,0,-5.00,-87.00,-140.00,-812.00,0.00,-31.00,6,305.00,0.00,1084.25,0.00,0.00,0.00,0,,,100,100,0,2,0,0,0,2,0,,,,,0.0,0.0,0.0,0.0,0.0,0.0,0
55.935443,-4.406826,30.50,0.00,0.00,108.42,30.50,30.50,0.10,108.47,8693,2022-04-18 10:15:56.565,2022-04-18 11:15:56.565,18,0,0,14.638,55.936292,-4.407674,0.00,0.00,0.00,0.70,-8.80,-14.10,0,1,0,33,100,-7962,1121,14638,3087.50,6,P-GPS,1,1,0,0,0,0,0,1650276956565,3673,3672,3663,3648,0,0,27,,,,,,,0,0,0,-7.00,-88.00,-141.00,-812.00,0.00,-31.00,6,305.00,0.00,1084.24,0.00,0.00,0.00,0,,,100,100,0,2,0,0,0,2,0,,,,,0.0,0.0,0.0,0.0,0.0,0.0,0
55.935443,-4.406826,30.50,0.00,0.10,108.42,30.50,30.50,0.10,108.47,8796,2022-04-18 10:15:56.669,2022-04-18 11:15:56.668,18,0,0,14.638,55.936292,-4.407674,0.00,0.00,0.10,0.80,-8.80,-14.20,0,1,0,33,100,-7962,1121,14638,3087.50,6,P-GPS,1,1,0,0,0,0,0,1650276956668,3673,3672,3663,3648,0,0,27,,,,,,,0,0,0,-8.00,-88.00,-142.00,-812.00,0.00,-31.00,6,305.00,1.00,1084.22,0.00,0.00,1.00,0,,,100,100,0,2,0,0,0,2,0,,,,,0.0,0.0,0.0,0.0,0.0,0.0,0
55.935443,-4.406826,30.50,0.00,0.10,108.42,30.50,30.50,0.10,108.47,8894,2022-04-18 10:15:56.767,2022-04-18 11:15:56.766,18,0,0,14.638,55.936292,-4.407674,0.00,0.00,0.10,0.60,-8.60,-14.20,0,1,0,33,100,-7962,1121,14638,3087.50,6,P-GPS,1,1,0,0,0,0,0,1650276956766,3673,3672,3663,3648,0,0,27,,,,,,,0,0,0,-6.00,-86.00,-142.00,-812.00,0.00,-31.00,6,305.00,1.00,1084.17,0.00,0.00,1.00,0,,,100,100,0,2,0,0,0,2,0,,,,,0.0,0.0,0.0,0.0,0.0,0.0,0
55.935443,-4.406826,30.50,0.00,0.10,108.42,30.50,30.50,0.10,108.47,9008,2022-04-18 10:15:56.881,2022-04-18 11:15:56.880,18,0,0,14.638,55.936292,-4.407674,0.00,0.00,0.10,0.50,-8.50,-14.20,0,1,0,33,100,-7962,1121,14638,3087.50,6,P-GPS,1,1,0,0,0,0,0,1650276956880,3673,3672,3663,3648,0,0,27,,,,,,,0,0,0,-5.00,-85.00,-142.00,-812.00,0.00,-31.00,6,305.00,1.00,1084.15,0.00,0.00,1.00,0,,,100,100,0,2,0,0,0,2,0,,,,,0.0,0.0,0.0,0.0,0.0,0.0,0
55.935443,-4.406826,30.50,0.00,0.10,108.42,30.50,30.50,0.10,108.47,9200,2022-04-18 10:15:57.072,2022-04-18 11:15:57.072,18,0,0,14.635,55.936292,-4.407674,0.00,0.00,0.10,0.40,-8.50,-14.20,0,1,0,33,100,-7900,1119,14635,3087.50,6,P-GPS,1,1,0,0,0,0,0,1650276957072,3673,3672,3663,3648,0,0,27,,,,,,,0,0,0,-4.00,-85.00,-142.00,-812.00,0.00,-31.00,6,305.00,1.00,1084.21,0.00,0.00,1.00,0,,,100,100,0,2,0,0,0,2,0,,,,,0.0,0.0,0.0,0.0,0.0,0.0,0
55.935443,-4.406826,30.50,0.00,0.10,108.42,30.50,30.50,0.10,108.47,9293,2022-04-18 10:15:57.165,2022-04-18 11:15:57.165,18,0,0,14.635,55.936292,-4.407674,0.00,0.00,0.10,0.50,-8.60,-14.10,0,1,0,33,100,-7900,1119,14635,3087.50,6,P-GPS,1,1,0,0,0,0,0,1650276957165,3673,3672,3663,3648,0,0,27,,,,,,,0,0,0,-5.00,-86.00,-141.00,-812.00,0.00,-31.00,6,305.00,1.00,1084.15,0.00,0.00,1.00,0,,,100,100,0,2,0,0,0,2,0,,,,,0.0,0.0,0.0,0.0,0.0,0.0,0
55.935443,-4.406826,30.50,0.00,0.10,108.41,30.50,30.50,0.10,108.47,9402,2022-04-18 10:15:57.275,2022-04-18 11:15:57.274,18,0,0,14.635,55.936292,-4.407674,0.00,0.00,0.10,0.50,-8.50,-14.10,0,1,0,33,100,-7900,1119,14635,3087.50,6,P-GPS,1,1,0,0,0,0,0,1650276957274,3673,3672,3663,3648,0,0,27,,,,,,,0,0,0,-5.00,-85.00,-141.00,-812.00,0.00,-31.00,6,305.00,1.00,1084.14,0.00,0.00,1.00,0,,,100,100,0,2,0,0,0,2,0,,,,,0.0,0.0,0.0,0.0,0.0,0.0,0
55.935443,-4.406826,30.50,0.00,0.10,108.42,30.50,30.50,0.10,108.47,9491,2022-04-18 10:15:57.364,2022-04-18 11:15:57.363,18,0,0,14.635,55.936292,-4.407674,0.00,0.00,0.10,0.60,-8.30,-14.10,0,1,0,33,100,-7900,1119,14635,3087.50,6,P-GPS,1,1,0,0,0,0,0,1650276957363,3673,3672,3663,3648,0,0,27,,,,,,,0,0,0,-6.00,-83.00,-141.00,-812.00,0.00,-31.00,6,305.00,1.00,1084.17,0.00,0.00,1.00,0,,,100,100,0,2,0,0,0,2,0,,,,,0.0,0.0,0.0,0.0,0.0,0.0,0
55.935443,-4.406826,30.50,0.00,0.10,108.42,30.50,30.50,0.10,108.47,9589,2022-04-18 10:15:57.462,2022-04-18 11:15:57.461,18,0,0,14.635,55.936292,-4.407674,0.00,0.00,0.10,0.50,-8.20,-14.10,0,1,0,33,100,-7900,1119,14635,3087.50,6,P-GPS,1,1,0,0,0,0,0,1650276957461,3673,3672,3663,3648,0,0,27,,,,,,,0,0,0,-5.00,-82.00,-141.00,-812.00,0.00,-31.00,6,305.00,1.00,1084.17,0.00,0.00,1.00,0,,,100,100,0,2,0,0,0,2,0,,,,,0.0,0.0,0.0,0.0,0.0,0.0,0
55.935443,-4.406826,30.50,0.00,0.10,108.41,30.50,30.50,0.10,108.47,9696,2022-04-18 10:15:57.568,2022-04-18 11:15:57.568,18,0,0,14.635,55.936292,-4.407674,0.00,0.00,0.10,0.70,-7.90,-14.10,0,1,0,33,100,-7900,1119,14635,3087.50,6,P-GPS,1,1,0,0,0,0,0,1650276957568,3673,3672,3663,3648,0,0,27,,,,,,,0,0,0,-7.00,-79.00,-141.00,-812.00,0.00,-31.00,6,305.00,1.00,1084.14,0.00,0.00,1.00,0,,,100,100,0,2,0,0,0,2,0,,,,,0.0,0.0,0.0,0.0,0.0,0.0,0
55.935443,-4.406826,30.50,0.00,0.10,108.41,30.50,30.50,0.10,108.47,9793,2022-04-18 10:15:57.665,2022-04-18 11:15:57.665,18,0,0,14.635,55.936292,-4.407674,0.00,0.00,0.10,0.60,-7.70,-14.10,0,1,0,33,100,-7900,1119,14635,3087.50,6,P-GPS,1,1,0,0,0,0,0,1650276957665,3673,3672,3663,3648,0,0,27,,,,,,,0,0,0,-6.00,-77.00,-141.00,-812.00,0.00,-31.00,6,305.00,1.00,1084.13,0.00,0.00,1.00,0,,,100,100,0,2,0,0,0,2,0,,,,,0.0,0.0,0.0,0.0,0.0,0.0,0
55.935443,-4.406826,30.40,0.00,0.10,108.41,30.50,30.50,0.10,108.47,9893,2022-04-18 10:15:57.766,2022-04-18 11:15:57.765,18,0,0,14.635,55.936292,-4.407674,0.00,0.00,0.10,0.60,-7.50,-14.20,0,1,0,33,100,-7900,1119,14635,3087.50,6,P-GPS,1,1,0,0,0,0,0,1650276957765,3673,3672,3663,3648,0,0,27,,,,,,,0,0,0,-6.00,-75.00,-142.00,-812.00,0.00,-31.00,6,304.00,1.00,1084.11,0.00,0.00,1.00,0,,,100,100,0,2,0,0,0,2,0,,,,,0.0,0.0,0.0,0.0,0.0,0.0,0
55.935443,-4.406826,30.40,0.00,0.10,108.41,30.50,30.50,0.10,108.47,9996,2022-04-18 10:15:57.868,2022-04-18 11:15:57.868,18,0,0,14.635,55.936292,-4.407674,0.00,0.00,0.10,0.40,-7.30,-14.10,0,1,0,33,100,-7900,1119,14635,3087.50,6,P-GPS,1,1,0,0,0,0,0,1650276957868,3673,3672,3663,3648,0,0,27,,,,,,,0,0,0,-4.00,-73.00,-141.00,-812.00,0.00,-31.00,6,304.00,1.00,1084.10,0.00,0.00,1.00,0,,,100,100,0,2,0,0,0,2,0,,,,,0.0,0.0,0.0,0.0,0.0,0.0,0
55.935443,-4.406827,30.40,0.00,0.10,108.42,30.50,30.50,0.10,108.47,10094,2022-04-18 10:15:57.966,2022-04-18 11:15:57.966,18,0,0,14.613,55.936292,-4.407674,0.00,0.00,0.10,0.50,-7.20,-14.10,0,1,0,33,100,-8147,1117,14613,3087.50,6,P-GPS,1,1,0,0,0,0,0,1650276957966,3673,3672,3663,3648,0,0,27,,,,,,,0,0,0,-5.00,-72.00,-141.00,-812.00,0.00,-31.00,6,304.00,1.00,1084.18,0.00,0.00,1.00,0,,,100,100,0,2,0,0,0,2,0,,,,,0.0,0.0,0.0,0.0,0.0,0.0,0
55.935442,-4.406827,30.40,0.00,0.00,108.42,30.50,30.50,0.10,108.47,10200,2022-04-18 10:15:58.073,2022-04-18 11:15:58.073,18,0,0,14.613,55.936292,-4.407674,0.00,0.00,0.00,0.40,-7.10,-14.10,0,1,0,33,100,-8147,1117,14613,3087.50,6,P-GPS,1,1,0,0,0,0,0,1650276958072,3673,3672,3663,3648,0,0,27,,,,,,,0,0,0,-4.00,-71.00,-141.00,-812.00,0.00,-31.00,6,304.00,0.00,1084.19,0.00,0.00,0.00,0,,,100,100,0,2,0,0,0,2,0,,,,,0.0,0.0,0.0,0.0,0.0,0.0,0
55.935443,-4.406827,30.40,0.00,0.10,108.41,30.50,30.50,0.10,108.47,10292,2022-04-18 10:15:58.164,2022-04-18 11:15:58.164,18,0,0,14.613,55.936292,-4.407674,0.00,0.00,0.10,0.20,-7.00,-14.00,0,1,0,33,100,-8147,1117,14613,3087.50,6,P-GPS,1,1,0,0,0,0,0,1650276958164,3673,3672,3663,3648,0,0,27,,,,,,,0,0,0,-2.00,-70.00,-140.00,-812.00,0.00,-31.00,6,304.00,1.00,1084.10,0.00,0.00,1.00,0,,,100,100,0,2,0,0,0,2,0,,,,,0.0,0.0,0.0,0.0,0.0,0.0,0
55.935442,-4.406827,30.40,0.00,0.00,108.41,30.50,30.50,0.10,108.47,10393,2022-04-18 10:15:58.266,2022-04-18 11:15:58.265,18,0,0,14.613,55.936292,-4.407674,0.00,0.00,0.00,0.30,-7.00,-14.10,0,1,0,33,100,-8147,1117,14613,3087.50,6,P-GPS,1,1,0,0,0,0,0,1650276958265,3673,3672,3663,3648,0,0,27,,,,,,,0,0,0,-3.00,-70.00,-141.00,-812.00,0.00,-31.00,6,304.00,0.00,1084.10,0.00,0.00,0.00,0,,,100,100,0,2,0,0,0,2,0,,,,,0.0,0.0,0.0,0.0,0.0,0.0,0
55.935442,-4.406827,30.40,0.00,0.00,108.42,30.50,30.50,0.10,108.47,10498,2022-04-18 10:15:58.370,2022-04-18 11:15:58.370,18,0,0,14.613,55.936292,-4.407674,0.00,0.00,0.00,0.30,-7.00,-14.00,0,1,0,33,100,-8147,1117,14613,3087.50,6,P-GPS,1,1,0,0,0,0,0,1650276958370,3673,3672,3663,3648,0,0,27,,,,,,,0,0,0,-3.00,-70.00,-140.00,-812.00,0.00,-31.00,6,304.00,0.00,1084.16,0.00,0.00,0.00,0,,,100,100,0,2,0,0,0,2,0,,,,,0.0,0.0,0.0,0.0,0.0,0.0,0
55.935442,-4.406827,30.40,0.00,0.00,108.42,30.50,30.50,0.10,108.47,10602,2022-04-18 10:15:58.474,2022-04-18 11:15:58.474,18,0,0,14.613,55.936292,-4.407674,0.00,0.00,0.00,0.40,-6.90,-14.00,0,1,0,33,100,-8147,1117,14613,3087.50,6,P-GPS,1,1,0,0,0,0,0,1650276958474,3673,3672,3663,3648,0,0,27,,,,,,,0,0,0,-4.00,-69.00,-140.00,-812.00,0.00,-31.00,6,304.00,0.00,1084.16,0.00,0.00,0.00,0,,,100,100,0,2,0,0,0,2,0,,,,,0.0,0.0,0.0,0.0,0.0,0.0,0
55.935442,-4.406827,30.40,0.00,0.00,108.40,30.50,30.50,0.10,108.47,10692,2022-04-18 10:15:58.564,2022-04-18 11:15:58.564,18,0,0,14.613,55.936292,-4.407674,0.00,0.00,0.00,0.30,-6.80,-13.90,0,1,0,33,100,-8147,1117,14613,3087.50,6,P-GPS,1,1,0,0,0,0,0,1650276958564,3673,3672,3663,3648,0,0,27,,,,,,,0,0,0,-3.00,-68.00,-139.00,-812.00,0.00,-31.00,6,304.00,0.00,1084.00,0.00,0.00,0.00,0,,,100,100,0,2,0,0,0,2,0,,,,,0.0,0.0,0.0,0.0,0.0,0.0,0
55.935442,-4.406827,30.40,0.00,0.00,108.40,30.50,30.50,0.10,108.47,10791,2022-04-18 10:15:58.664,2022-04-18 11:15:58.663,18,0,0,14.613,55.936292,-4.407674,0.00,0.00,0.00,0.50,-6.60,-14.00,0,1,0,33,100,-8147,1117,14613,3087.50,6,P-GPS,1,1,0,0,0,0,0,1650276958663,3673,3672,3663,3648,0,0,27,,,,,,,0,0,0,-5.00,-66.00,-140.00,-812.00,0.00,-31.00,6,304.00,0.00,1083.99,0.00,0.00,0.00,0,,,100,100,0,2,0,0,0,2,0,,,,,0.0,0.0,0.0,0.0,0.0,0.0,0
55.935443,-4.406828,30.40,0.00,0.00,108.39,30.50,30.50,0.10,108.47,10900,2022-04-18 10:15:58.773,2022-04-18 11:15:58.772,18,0,0,14.613,55.936292,-4.407674,0.00,0.00,0.00,0.50,-6.70,-14.00,0,1,0,33,100,-8147,1117,14613,3087.50,6,P-GPS,1,1,0,0,0,0,-68,1650276958772,3673,3672,3663,3648,0,0,27,,,,,,,0,0,0,-5.00,-67.00,-140.00,-812.00,0.00,-31.00,6,304.00,0.00,1083.91,0.00,0.00,0.00,0,,,100,100,0,2,0,0,0,2,0,,,,,0.0,0.0,0.0,0.0,0.0,0.0,0
55.935442,-4.406828,30.40,0.00,0.00,108.39,30.50,30.50,0.10,108.47,10993,2022-04-18 10:15:58.865,2022-04-18 11:15:58.865,18,0,0,14.613,55.936292,-4.407674,0.00,0.00,0.00,0.50,-6.80,-14.10,0,1,0,33,100,-8147,1117,14613,3087.50,6,P-GPS,1,1,0,0,0,0,-281,1650276958865,3673,3672,3663,3648,0,0,27,,,,,,,0,0,0,-5.00,-68.00,-141.00,-813.00,0.00,-31.00,6,304.00,0.00,1083.88,0.00,0.00,0.00,0,,,100,100,0,2,0,0,0,2,0,,,,,0.0,0.0,0.0,0.0,0.0,0.0,0
55.935443,-4.406828,30.40,0.00,0.00,108.38,30.50,30.50,0.10,108.47,11106,2022-04-18 10:15:58.978,2022-04-18 11:15:58.978,18,0,0,14.592,55.936292,-4.407674,0.00,0.00,0.00,0.50,-6.70,-14.10,0,1,0,33,100,-8647,1114,14592,3087.50,6,P-GPS,1,1,0,0,0,0,-12,1650276958978,3673,3672,3663,3648,0,0,27,,,,,,,0,0,0,-5.00,-67.00,-141.00,-818.00,0.00,-31.00,6,304.00,0.00,1083.82,0.00,0.00,0.00,0,,,100,100,0,2,0,0,0,2,0,,,,,0.0,0.0,0.0,0.0,0.0,0.0,0
55.935443,-4.406828,30.40,0.00,0.00,108.38,30.50,30.50,0.10,108.47,11200,2022-04-18 10:15:59.072,2022-04-18 11:15:59.072,18,0,0,14.592,55.936292,-4.407674,0.00,0.00,0.00,0.50,-6.70,-14.10,0,1,0,33,100,-8647,1114,14592,3087.50,6,P-GPS,1,1,0,0,0,0,0,1650276959072,3673,3672,3663,3648,0,0,27,,,,,,,0,0,0,-5.00,-67.00,-141.00,-825.00,0.00,-31.00,6,304.00,0.00,1083.79,0.00,0.00,0.00,0,,,100,100,0,2,0,0,0,2,0,,,,,0.0,0.0,0.0,0.0,0.0,0.0,0
55.935442,-4.406828,30.40,0.00,0.00,108.38,30.50,30.50,0.10,108.47,11311,2022-04-18 10:15:59.183,2022-04-18 11:15:59.183,18,0,0,14.592,55.936292,-4.407674,0.00,0.00,0.00,0.60,-6.40,-14.10,0,1,0,33,100,-8647,1114,14592,3087.50,6,P-GPS,1,1,0,0,0,0,0,1650276959183,3673,3672,3663,3648,0,0,27,,,,,,,0,0,0,-6.00,-64.00,-141.00,-827.00,0.00,-31.00,6,304.00,0.00,1083.84,0.00,0.00,0.00,0,,,100,100,0,2,0,0,0,2,0,,,,,0.0,0.0,0.0,0.0,0.0,0.0,0
55.935442,-4.406828,30.40,0.00,0.00,108.38,30.50,30.50,0.10,108.47,11400,2022-04-18 10:15:59.272,2022-04-18 11:15:59.272,18,0,0,14.592,55.936292,-4.407674,0.00,0.00,0.00,0.50,-6.40,-14.10,0,1,0,33,100,-8647,1114,14592,3087.50,6,P-GPS,1,1,0,0,0,0,-295,1650276959272,3673,3672,3663,3648,0,0,27,,,,,,,0,0,0,-5.00,-64.00,-141.00,-828.00,0.00,-31.00,6,304.00,0.00,1083.82,0.00,0.00,0.00,0,,,100,100,0,2,0,0,0,2,0,,,,,0.0,0.0,0.0,0.0,0.0,0.0,0
55.935442,-4.406828,30.40,0.00,0.00,108.38,30.50,30.50,0.10,108.47,11492,2022-04-18 10:15:59.365,2022-04-18 11:15:59.364,18,0,0,14.592,55.936292,-4.407674,0.00,0.00,0.00,0.50,-6.30,-14.10,0,1,0,33,100,-8647,1114,14592,3087.50,6,P-GPS,1,1,0,0,0,0,-511,1650276959364,3673,3672,3663,3648,0,0,27,,,,,,,0,0,0,-5.00,-63.00,-141.00,-832.00,0.00,-31.00,6,304.00,0.00,1083.78,0.00,0.00,0.00,0,,,100,100,0,2,0,0,0,2,0,,,,,0.0,0.0,0.0,0.0,0.0,0.0,0
55.935442,-4.406828,30.40,0.00,0.00,108.38,30.50,30.50,0.10,108.47,11603,2022-04-18 10:15:59.475,2022-04-18 11:15:59.475,18,0,0,14.592,55.936292,-4.407674,0.00,0.00,0.00,0.40,-6.40,-14.10,0,1,0,33,100,-8647,1114,14592,3087.50,6,P-GPS,1,1,0,0,0,0,-660,1650276959475,3673,3672,3663,3648,0,0,27,,,,,,,0,0,0,-4.00,-64.00,-141.00,-842.00,0.00,-31.00,6,304.00,0.00,1083.77,0.00,0.00,0.00,0,,,100,100,0,2,0,0,0,2,0,,,,,0.0,0.0,0.0,0.0,0.0,0.0,0
55.935442,-4.406828,30.40,0.00,0.00,108.38,30.50,30.50,0.10,108.47,11692,2022-04-18 10:15:59.564,2022-04-18 11:15:59.564,18,0,0,14.592,55.936292,-4.407674,0.00,0.00,0.00,0.10,-6.20,-14.00,0,1,0,33,100,-8647,1114,14592,3087.50,6,P-GPS,1,1,0,0,0,0,-660,1650276959564,3673,3672,3663,3648,0,0,27,,,,,,,0,0,0,-1.00,-62.00,-140.00,-857.00,0.00,-31.00,6,304.00,0.00,1083.78,0.00,0.00,0.00,0,,,100,100,0,2,0,0,0,2,0,,,,,0.0,0.0,0.0,0.0,0.0,0.0,0
55.935442,-4.406828,30.40,0.00,0.00,108.38,30.50,30.50,0.10,108.47,11800,2022-04-18 10:15:59.672,2022-04-18 11:15:59.672,18,0,0,14.592,55.936292,-4.407674,0.00,0.00,0.00,0.10,-6.30,-14.00,0,1,0,33,100,-8647,1114,14592,3087.50,6,P-GPS,1,1,0,0,0,0,-660,1650276959672,3673,3672,3663,3648,0,0,27,,,,,,,0,0,0,-1.00,-63.00,-140.00,-878.00,0.00,-31.00,6,304.00,0.00,1083.76,0.00,0.00,0.00,0,,,100,100,0,2,0,0,0,2,0,,,,,0.0,0.0,0.0,0.0,0.0,0.0,0
55.935442,-4.406828,30.40,0.00,0.00,108.38,30.50,30.50,0.10,108.47,11889,2022-04-18 10:15:59.761,2022-04-18 11:15:59.761,18,0,0,14.592,55.936292,-4.407674,0.00,0.00,0.00,0.50,-6.30,-14.00,0,1,0,33,100,-8647,1114,14592,3087.50,6,P-GPS,1,1,0,0,0,0,0,1650276959761,3673,3672,3663,3648,0,0,27,,,,,,,0,0,0,-5.00,-63.00,-140.00,-898.00,0.00,-31.00,6,304.00,0.00,1083.85,0.00,0.00,0.00,0,,,100,100,0,2,0,0,0,2,0,,,,,0.0,0.0,0.0,0.0,0.0,0.0,0
55.935442,-4.406828,30.40,0.00,0.00,108.38,30.50,30.50,0.10,108.47,11995,2022-04-18 10:15:59.867,2022-04-18 11:15:59.867,18,0,0,14.592,55.936292,-4.407674,0.00,0.00,0.00,0.90,-6.60,-14.10,0,1,0,33,100,-8647,1114,14592,3087.50,6,P-GPS,1,1,0,0,0,0,0,1650276959867,3673,3672,3663,3648,0,0,27,,,,,,,0,0,0,-9.00,-66.00,-141.00,-900.00,0.00,-31.00,6,304.00,0.00,1083.83,0.00,0.00,0.00,0,,,100,100,0,2,0,0,0,2,0,,,,,0.0,0.0,0.0,0.0,0.0,0.0,0
55.935442,-4.406829,30.50,0.00,0.00,108.38,30.50,30.50,0.10,108.47,12112,2022-04-18 10:15:59.985,2022-04-18 11:15:59.984,18,0,0,14.587,55.936292,-4.407674,0.00,0.00,0.00,0.60,-6.10,-14.00,0,1,0,33,100,-8749,1112,14587,3087.50,6,P-GPS,1,1,0,0,0,0,0,1650276959984,3673,3672,3663,3648,0,0,27,,,,,,,0,0,0,-6.00,-61.00,-140.00,-900.00,0.00,-31.00,6,305.00,0.00,1083.75,0.00,0.00,0.00,0,,,100,100,0,2,0,0,0,2,0,,,,,0.0,0.0,0.0,0.0,0.0,0.0,0
55.935442,-4.406829,30.50,0.00,0.00,108.38,30.50,30.50,0.10,108.47,12306,2022-04-18 10:16:00.178,2022-04-18 11:16:00.178,18,0,0,14.587,55.936292,-4.407674,0.00,0.00,0.00,0.10,-6.40,-13.80,0,1,0,33,100,-8749,1112,14587,3087.50,6,P-GPS,1,1,0,0,0,0,0,1650276960178,3673,3672,3663,3648,0,0,27,,,,,,,0,0,0,-1.00,-64.00,-138.00,-899.00,0.00,-31.00,6,305.00,0.00,1083.78,0.00,0.00,0.00,0,,,100,100,0,2,0,0,0,2,0,,,,,0.0,0.0,0.0,0.0,0.0,0.0,0
55.935442,-4.406829,30.50,0.00,0.00,108.38,30.50,30.50,0.10,108.47,12399,2022-04-18 10:16:00.272,2022-04-18 11:16:00.271,18,0,0,14.587,55.936292,-4.407674,0.00,0.00,0.00,0.50,-6.70,-13.80,0,1,0,33,100,-8749,1112,14587,3087.50,6,P-GPS,1,1,0,0,0,0,0,1650276960271,3673,3672,3663,3648,0,0,27,,,,,,,0,0,0,-5.00,-67.00,-138.00,-899.00,0.00,-31.00,6,305.00,0.00,1083.76,0.00,0.00,0.00,0,,,100,100,0,2,0,0,0,2,0,,,,,0.0,0.0,0.0,0.0,0.0,0.0,0
55.935442,-4.406829,30.50,0.00,0.00,108.37,30.50,30.50,0.10,108.47,12519,2022-04-18 10:16:00.391,2022-04-18 11:16:00.391,18,0,0,14.587,55.936292,-4.407674,0.00,0.00,0.00,1.00,-6.10,-14.00,0,1,0,33,100,-8749,1112,14587,3087.50,6,P-GPS,1,1,0,0,0,0,0,1650276960391,3673,3672,3663,3648,0,0,27,,,,,,,0,0,0,-10.00,-61.00,-140.00,-899.00,0.00,-31.00,6,305.00,0.00,1083.69,0.00,0.00,0.00,0,,,100,100,0,2,0,0,0,2,0,,,,,0.0,0.0,0.0,0.0,0.0,0.0,0
55.935442,-4.406829,30.50,0.00,0.00,108.37,30.50,30.50,0.10,108.47,12712,2022-04-18 10:16:00.584,2022-04-18 11:16:00.584,18,0,0,14.587,55.936292,-4.407674,0.00,0.00,0.00,1.70,-6.20,-14.00,0,1,0,33,100,-8749,1112,14587,3087.50,6,P-GPS,1,1,0,0,0,0,0,1650276960584,3673,3672,3663,3648,0,0,27,,,,,,,0,0,0,-17.00,-62.00,-140.00,-900.00,0.00,-31.00,6,305.00,0.00,1083.67,0.00,0.00,0.00,0,,,100,100,0,2,0,0,0,2,0,,,,,0.0,0.0,0.0,0.0,0.0,0.0,0
55.935442,-4.406829,30.50,0.00,0.00,108.36,30.50,30.50,0.10,108.47,12804,2022-04-18 10:16:00.677,2022-04-18 11:16:00.676,18,0,0,14.587,55.936292,-4.407674,0.00,0.00,0.00,1.50,-6.50,-14.00,0,1,0,33,100,-8749,1112,14587,3087.50,6,P-GPS,1,1,0,0,0,0,0,1650276960676,3673,3672,3663,3648,0,0,27,,,,,,,0,0,0,-15.00,-65.00,-140.00,-900.00,0.00,-31.00,6,305.00,0.00,1083.62,0.00,0.00,0.00,0,,,100,100,0,2,0,0,0,2,0,,,,,0.0,0.0,0.0,0.0,0.0,0.0,0
55.935443,-4.406829,30.50,0.00,0.00,108.35,30.50,30.50,0.10,108.47,12908,2022-04-18 10:16:00.780,2022-04-18 11:16:00.780,18,0,0,14.587,55.936292,-4.407674,0.00,0.00,0.00,1.70,-6.50,-14.10,0,1,0,33,100,-8749,1112,14587,3087.50,6,P-GPS,1,1,0,0,0,0,0,1650276960780,3673,3672,3663,3648,0,0,27,,,,,,,0,0,0,-17.00,-65.00,-141.00,-900.00,0.00,-31.00,6,305.00,0.00,1083.49,0.00,0.00,0.00,0,,,100,100,0,2,0,0,0,2,0,,,,,0.0,0.0,0.0,0.0,0.0,0.0,0
55.935443,-4.406829,30.50,0.00,0.00,108.34,30.50,30.50,0.10,108.47,13013,2022-04-18 10:16:00.885,2022-04-18 11:16:00.885,18,0,0,14.587,55.936292,-4.407674,0.00,0.00,0.00,2.10,-6.50,-14.10,0,1,0,33,100,-8749,1112,14587,3087.50,6,P-GPS,1,1,0,0,0,0,0,1650276960885,3673,3672,3663,3648,0,0,27,,,,,,,0,0,0,-21.00,-65.00,-141.00,-899.00,0.00,-31.00,6,305.00,0.00,1083.43,0.00,0.00,0.00,0,,,100,100,0,2,0,0,0,2,0,,,,,0.0,0.0,0.0,0.0,0.0,0.0,0
55.935443,-4.406829,30.50,0.00,0.10,108.33,30.50,30.50,0.10,108.47,13104,2022-04-18 10:16:00.976,2022-04-18 11:16:00.976,18,0,0,14.587,55.936292,-4.407674,0.00,0.00,0.10,2.20,-6.80,-14.10,0,1,0,33,100,-8749,1112,14587,3087.50,6,P-GPS,1,1,0,0,0,0,0,1650276960976,3673,3672,3663,3648,0,0,27,,,,,,,0,0,0,-22.00,-68.00,-141.00,-900.00,0.00,-31.00,6,305.00,1.00,1083.31,0.00,0.00,1.00,0,,,100,100,0,2,0,0,0,2,0,,,,,0.0,0.0,0.0,0.0,0.0,0.0,0
55.935443,-4.406829,30.50,0.00,0.10,108.33,30.50,30.50,0.10,108.47,13212,2022-04-18 10:16:01.084,2022-04-18 11:16:01.084,18,0,0,14.587,55.936292,-4.407674,0.00,0.00,0.10,1.60,-6.40,-14.10,0,1,0,33,100,-8749,1112,14587,3087.50,6,P-GPS,1,1,0,0,0,0,0,1650276961084,3673,3672,3663,3648,0,0,27,,,,,,,0,0,0,-16.00,-64.00,-141.00,-900.00,0.00,-31.00,6,305.00,1.00,1083.28,0.00,0.00,1.00,0,,,100,100,0,2,0,0,0,2,0,,,,,0.0,0.0,0.0,0.0,0.0,0.0,0
55.935443,-4.406829,30.50,0.00,0.10,108.33,30.50,30.50,0.10,108.47,13310,2022-04-18 10:16:01.183,2022-04-18 11:16:01.182,18,0,0,14.587,55.936292,-4.407674,0.00,0.00,0.10,1.00,-6.10,-14.00,0,1,0,33,100,-8749,1112,14587,3087.50,6,P-GPS,1,1,0,0,0,0,0,1650276961182,3673,3672,3663,3648,0,0,27,,,,,,,0,0,0,-10.00,-61.00,-140.00,-900.00,0.00,-31.00,6,305.00,1.00,1083.32,0.00,0.00,1.00,0,,,100,100,0,2,0,0,0,2,0,,,,,0.0,0.0,0.0,0.0,0.0,0.0,0
55.935443,-4.406829,30.60,0.00,0.10,108.33,30.60,30.60,0.10,108.47,13404,2022-04-18 10:16:01.276,2022-04-18 11:16:01.276,18,0,0,14.587,55.936292,-4.407674,0.00,0.00,0.10,0.80,-5.90,-13.90,0,1,0,33,100,-8749,1112,14587,3087.50,6,P-GPS,1,1,0,0,0,0,0,1650276961276,3673,3672,3663,3648,0,0,27,,,,,,,0,0,0,-8.00,-59.00,-139.00,-900.00,0.00,-31.00,6,306.00,1.00,1083.31,0.00,0.00,1.00,0,,,100,100,0,2,0,0,0,2,0,,,,,0.0,0.0,0.0,0.0,0.0,0.0,0
55.935442,-4.406829,30.50,0.00,0.10,108.33,30.60,30.60,0.10,108.47,13502,2022-04-18 10:16:01.375,2022-04-18 11:16:01.374,18,0,0,14.587,55.936292,-4.407674,0.00,0.00,0.10,1.00,-5.70,-14.00,0,1,0,33,100,-8749,1112,14587,3087.50,6,P-GPS,1,1,0,0,0,0,0,1650276961374,3673,3672,3663,3648,0,0,27,,,,,,,0,0,0,-10.00,-57.00,-140.00,-900.00,0.00,-31.00,6,305.00,1.00,1083.34,0.00,0.00,1.00,0,,,100,100,0,2,0,0,0,2,0,,,,,0.0,0.0,0.0,0.0,0.0,0.0,0
55.935443,-4.406830,30.60,0.00,0.10,108.33,30.60,30.60,0.10,108.47,13598,2022-04-18 10:16:01.471,2022-04-18 11:16:01.470,18,0,0,14.587,55.936292,-4.407674,0.00,0.00,0.10,1.50,-5.90,-14.00,0,1,0,33,100,-8749,1112,14587,3087.50,6,P-GPS,1,1,0,0,0,0,0,1650276961470,3673,3672,3663,3648,0,0,27,,,,,,,0,0,0,-15.00,-59.00,-140.00,-900.00,0.00,-31.00,6,306.00,1.00,1083.31,0.00,0.00,1.00,0,,,100,100,0,2,0,0,0,2,0,,,,,0.0,0.0,0.0,0.0,0.0,0.0,0
55.935443,-4.406830,30.60,0.00,0.10,108.33,30.60,30.60,0.10,108.47,13694,2022-04-18 10:16:01.567,2022-04-18 11:16:01.566,18,0,0,14.587,55.936292,-4.407674,0.00,0.00,0.10,2.20,-5.70,-14.10,0,1,0,33,100,-8749,1112,14587,3087.50,6,P-GPS,1,1,0,0,0,0,0,1650276961566,3673,3672,3663,3648,0,0,27,,,,,,,0,0,0,-22.00,-57.00,-141.00,-900.00,0.00,-31.00,6,306.00,1.00,1083.25,0.00,0.00,1.00,0,,,100,100,0,2,0,0,0,2,0,,,,,0.0,0.0,0.0,0.0,0.0,0.0,0
55.935443,-4.406830,30.60,0.00,0.10,108.32,30.60,30.60,0.10,108.47,13802,2022-04-18 10:16:01.674,2022-04-18 11:16:01.674,18,0,0,14.587,55.936292,-4.407674,0.00,0.00,0.10,1.70,-5.70,-14.10,0,1,0,33,100,-8749,1112,14587,3087.50,6,P-GPS,1,1,0,0,0,0,0,1650276961674,3673,3672,3663,3648,0,0,27,,,,,,,0,0,0,-17.00,-57.00,-141.00,-900.00,0.00,-31.00,6,306.00,1.00,1083.22,0.00,0.00,1.00,0,,,100,100,0,2,0,0,0,2,0,,,,,0.0,0.0,0.0,0.0,0.0,0.0,0
