latitude,longitude,altitude(m),ultrasonicHeight(m),speed(mps),distance(m),max_altitude(m),max_ascent(m),max_speed(mps),max_distance(m),time(millisecond),datetime(utc),datetime(local),satellites,pressure(Pa),temperature(F),voltage(v),home_latitude,home_longitude,velocityX(mps),velocityY(mps),velocityZ(mps),pitch(deg),roll(deg),yaw(deg),powerlevel,isflying,istakingphoto,remainPowerPercent,remainLifePercent,currentCurrent,currentElectricity,currentVoltage,batteryTemperature,dischargeCount,flightmode,isMotorsOn,isTakingVideo,Rc_elevator,Rc_aileron,Rc_throttle,Rc_rudder,Rc_gyro,timestamp,Battery_Cell1,Battery_Cell2,Battery_Cell3,Battery_Cell4,Battery_Cell5,Battery_Cell6,Dronetype,AppVersion,Planename,FlyControllerSerialNumber,RemoteSerialNumber,BatterySerialNumber,CENTER_BATTERY.productDate,CENTER_BATTERY.serialNo,CENTER_BATTERY.fullCapacity,CENTER_BATTERY.productDateRaw,pitchRaw,rollRaw,yawRaw,gimbalPitchRaw,gimbalRollRaw,gimbalYawRaw,flyState,altitudeRaw,speedRaw,distanceRaw,velocityXRaw,velocityYRaw,velocityZRaw,data_reuse,App_Tip,App_Warning,downlinkSignalQuality,uplinkSignalQuality,transmissionChannel,rcModeSwitch,rcHome,rcPause,rcTransform,rcJoystickMode,appMode,FlyControllerSerialNumber_legacy,RemoteSerialNumber_legacy,BatterySerialNumber_legacy,Battery2SerialNumber,frontAvoidDist,backAvoidDist,rightAvoidDist,leftAvoidDist,upAvoidDist,downAvoidDist,isBrakingToAvoid
55.884975,-4.271859,0.30,0.50,0.70,0.04,0.30,0.30,0.70,0.04,0,2022-09-29 12:33:56.665,2022-09-29 13:33:56.664,12,0,0,16.885,55.884975,-4.271859,0.00,0.00,-0.70,1.10,-0.20,-33.10,0,1,0,91,100,-3302,3015,16885,2999.50,13,P-GPS,1,0,0,0,268,0,0,1664454836664,4246,4237,4253,4250,0,0,27,Litchi_4.24.1-g,CJTMAVIC,163DFAS001K45C,0VECFAK0072T52,0P2AFAL5340E87,,0,0,0,-11.00,-2.00,-331.00,0.00,0.00,-333.00,6,3.00,7.00,0.44,0.00,0.00,-7.00,0,,,100,100,0,2,0,0,0,2,0,,,,null,0.0,2.6,0.0,0.0,0.0,0.0,0
55.884975,-4.271859,0.40,0.60,0.80,0.04,0.40,0.40,0.80,0.04,95,2022-09-29 12:33:56.759,2022-09-29 13:33:56.759,12,0,0,16.885,55.884975,-4.271859,0.00,0.00,-0.80,1.00,-0.40,-33.20,0,1,0,91,100,-3302,3015,16885,2999.50,13,P-GPS,1,0,0,0,240,0,0,1664454836759,4246,4237,4253,4250,0,0,27,,,,,,,0,0,0,-10.00,-4.00,-332.00,0.00,0.00,-333.00,6,4.00,8.00,0.43,0.00,0.00,-8.00,0,,,100,100,0,2,0,0,0,2,0,,,,,0.0,2.6,0.0,0.0,0.0,0.0,0
55.884975,-4.271859,0.50,0.70,0.70,0.04,0.50,0.50,0.80,0.04,203,2022-09-29 12:33:56.867,2022-09-29 13:33:56.867,12,0,0,16.885,55.884975,-4.271859,0.00,0.00,-0.70,0.90,-0.30,-33.20,0,1,0,91,100,-3302,3015,16885,2999.50,13,P-GPS,1,0,0,0,236,0,0,1664454836867,4246,4237,4253,4250,0,0,27,,,,,,,0,0,0,-9.00,-3.00,-332.00,0.00,0.00,-333.00,6,5.00,7.00,0.37,0.00,0.00,-7.00,0,,,100,100,0,2,0,0,0,2,0,,,,,0.0,2.6,0.0,0.0,0.0,0.0,0
55.884975,-4.271859,0.50,0.70,0.60,0.04,0.50,0.50,0.80,0.04,296,2022-09-29 12:33:56.960,2022-09-29 13:33:56.960,12,0,0,16.885,55.884975,-4.271859,0.00,0.00,-0.60,0.80,-0.10,-33.20,0,1,0,91,100,-3302,3015,16885,2999.50,13,P-GPS,1,0,0,0,236,0,0,1664454836960,4246,4237,4253,4250,0,0,27,,,,,,,0,0,0,-8.00,-1.00,-332.00,0.00,0.00,-333.00,6,5.00,6.00,0.37,0.00,0.00,-6.00,0,,,100,100,0,2,0,0,0,2,0,,,,,0.0,2.6,0.0,0.0,0.0,0.0,0
55.884975,-4.271859,0.60,0.80,0.50,0.03,0.60,0.60,0.80,0.04,398,2022-09-29 12:33:57.062,2022-09-29 13:33:57.062,12,0,0,16.589,55.884975,-4.271859,0.00,0.00,-0.50,0.60,0.20,-33.20,0,1,0,91,100,-3302,3015,16589,2999.50,13,P-GPS,1,0,0,0,229,0,0,1664454837062,4246,4237,4253,4250,0,0,27,,,,,,,0,0,0,-6.00,2.00,-332.00,0.00,0.00,-333.00,6,6.00,5.00,0.30,0.00,0.00,-5.00,0,,,100,100,0,2,0,0,0,2,0,,,,,0.0,2.6,0.0,0.0,0.0,0.0,0
55.884975,-4.271859,0.70,0.80,0.50,0.03,0.70,0.70,0.80,0.04,494,2022-09-29 12:33:57.159,2022-09-29 13:33:57.158,12,0,0,16.589,55.884975,-4.271859,0.00,0.00,-0.50,0.50,0.20,-33.30,0,1,0,91,100,-3302,3015,16589,2999.50,13,P-GPS,1,0,0,0,218,0,0,1664454837158,4246,4237,4253,4250,0,0,27,,,,,,,0,0,0,-5.00,2.00,-333.00,0.00,0.00,-333.00,6,7.00,5.00,0.28,0.00,0.00,-5.00,0,,,100,100,0,2,0,0,0,2,0,,,,,4.2,2.6,0.0,0.0,0.0,0.0,0
55.884975,-4.271858,0.80,0.90,0.40,0.01,0.80,0.80,0.80,0.04,606,2022-09-29 12:33:57.270,2022-09-29 13:33:57.270,12,0,0,16.589,55.884975,-4.271859,0.00,0.00,-0.40,0.60,0.00,-33.30,0,1,0,91,100,-3302,3015,16589,2999.50,13,P-GPS,1,0,0,0,225,0,0,1664454837270,4246,4237,4253,4250,0,0,27,,,,,,,0,0,0,-6.00,0.00,-333.00,0.00,0.00,-333.00,6,8.00,4.00,0.08,0.00,0.00,-4.00,0,,,100,100,0,2,0,0,0,2,0,,,,,4.2,2.6,0.0,0.0,0.0,0.0,0
55.884975,-4.271859,0.80,1.00,0.30,0.02,0.80,0.80,0.80,0.04,795,2022-09-29 12:33:57.459,2022-09-29 13:33:57.459,12,0,0,16.589,55.884975,-4.271859,0.00,0.00,-0.30,0.90,-0.10,-33.30,0,1,0,91,100,-3302,3015,16589,2999.50,13,P-GPS,1,0,0,0,238,0,0,1664454837459,4246,4237,4253,4250,0,0,27,,,,,,,0,0,0,-9.00,-1.00,-333.00,0.00,0.00,-333.00,6,8.00,3.00,0.16,0.00,0.00,-3.00,0,,,100,100,0,2,0,0,0,2,0,,,,,4.2,2.6,0.0,0.0,0.0,0.0,0
55.884975,-4.271859,0.90,1.00,0.30,0.02,0.90,0.90,0.80,0.04,897,2022-09-29 12:33:57.561,2022-09-29 13:33:57.561,12,0,0,16.589,55.884975,-4.271859,0.00,0.00,-0.30,1.00,0.00,-33.20,0,1,0,91,100,-3302,3015,16589,2999.50,13,P-GPS,1,0,0,0,231,0,0,1664454837561,4246,4237,4253,4250,0,0,27,,,,,,,0,0,0,-10.00,0.00,-332.00,0.00,0.00,-333.00,6,9.00,3.00,0.16,0.00,0.00,-3.00,0,,,100,100,0,2,0,0,0,2,0,,,,,4.5,0.0,0.0,0.0,0.0,0.0,0
55.884975,-4.271859,0.90,1.00,0.30,0.02,0.90,0.90,0.80,0.04,1003,2022-09-29 12:33:57.667,2022-09-29 13:33:57.667,12,0,0,16.589,55.884975,-4.271859,0.00,0.00,-0.30,1.20,0.00,-33.30,0,1,0,91,100,-3302,3015,16589,2999.50,13,P-GPS,1,0,0,0,241,0,0,1664454837667,4246,4237,4253,4250,0,0,27,,,,,,,0,0,0,-12.00,0.00,-333.00,0.00,0.00,-333.00,6,9.00,3.00,0.19,0.00,0.00,-3.00,0,,,100,100,0,2,0,0,0,2,0,,,,,4.5,0.0,0.0,0.0,0.0,0.0,0
55.884975,-4.271859,1.00,1.10,0.30,0.02,1.00,1.00,0.80,0.04,1092,2022-09-29 12:33:57.757,2022-09-29 13:33:57.756,12,0,0,16.589,55.884975,-4.271859,0.00,0.00,-0.30,1.20,-0.10,-33.30,0,1,0,91,100,-3302,3015,16589,2999.50,13,P-GPS,1,0,0,0,255,0,0,1664454837756,4246,4237,4253,4250,0,0,27,,,,,,,0,0,0,-12.00,-1.00,-333.00,0.00,0.00,-333.00,6,10.00,3.00,0.20,0.00,0.00,-3.00,0,,,100,100,0,2,0,0,0,2,0,,,,,4.8,0.0,0.0,0.0,0.0,0.0,0
55.884975,-4.271858,1.00,1.10,0.40,0.05,1.00,1.00,0.80,0.05,1202,2022-09-29 12:33:57.866,2022-09-29 13:33:57.866,12,0,0,16.589,55.884975,-4.271859,0.00,0.00,-0.40,1.40,-0.50,-33.30,0,1,0,91,100,-3302,3015,16589,2999.50,13,P-GPS,1,0,0,0,271,0,0,1664454837866,4246,4237,4253,4250,0,0,27,,,,,,,0,0,0,-14.00,-5.00,-333.00,0.00,0.00,-333.00,6,10.00,4.00,0.48,0.00,0.00,-4.00,0,,,100,100,0,2,0,0,0,2,0,,,,,4.8,0.0,0.0,0.0,0.0,0.0,0
55.884975,-4.271858,1.00,1.20,0.40,0.06,1.00,1.00,0.80,0.06,1294,2022-09-29 12:33:57.961,2022-09-29 13:33:57.958,12,0,0,16.589,55.884975,-4.271859,0.00,0.00,-0.40,1.50,-0.60,-33.30,0,1,0,91,100,-3302,3015,16589,2999.50,13,P-GPS,1,0,0,0,277,0,0,1664454837958,4246,4237,4253,4250,0,0,27,,,,,,,0,0,0,-15.00,-6.00,-333.00,0.00,0.00,-333.00,6,10.00,4.00,0.55,0.00,0.00,-4.00,0,,,100,100,0,2,0,0,0,2,0,,,,,4.8,0.0,0.0,0.0,0.0,0.0,0
55.884976,-4.271858,1.10,1.20,0.50,0.09,1.10,1.10,0.80,0.09,1393,2022-09-29 12:33:58.057,2022-09-29 13:33:58.057,12,0,0,16.162,55.884975,-4.271859,0.00,0.00,-0.50,1.50,-0.60,-33.30,0,1,0,91,100,-7329,3013,16162,3000.50,13,P-GPS,1,0,0,0,277,0,0,1664454838057,4056,4036,4055,4083,0,0,27,,,,,,,0,0,0,-15.00,-6.00,-333.00,0.00,0.00,-333.00,6,11.00,5.00,0.87,0.00,0.00,-5.00,0,,,100,100,0,2,0,0,0,2,0,,,,,4.8,0.0,0.0,0.0,0.0,0.0,0
55.884976,-4.271858,1.10,1.30,0.50,0.10,1.10,1.10,0.80,0.10,1493,2022-09-29 12:33:58.157,2022-09-29 13:33:58.157,12,0,0,16.162,55.884975,-4.271859,0.00,0.00,-0.50,1.50,-0.60,-33.30,0,1,0,91,100,-7329,3013,16162,3000.50,13,P-GPS,1,0,0,0,265,0,0,1664454838157,4056,4036,4055,4083,0,0,27,,,,,,,0,0,0,-15.00,-6.00,-333.00,0.00,0.00,-333.00,6,11.00,5.00,0.97,0.00,0.00,-5.00,0,,,100,100,0,2,0,0,0,2,0,,,,,7.9,0.0,0.0,0.0,0.0,0.0,0
55.884976,-4.271858,1.20,1.30,0.50,0.09,1.20,1.20,0.80,0.10,1602,2022-09-29 12:33:58.267,2022-09-29 13:33:58.266,12,0,0,16.162,55.884975,-4.271859,0.00,0.00,-0.50,1.50,-0.70,-33.30,0,1,0,91,100,-7329,3013,16162,3000.50,13,P-GPS,1,0,0,0,255,0,0,1664454838266,4056,4036,4055,4083,0,0,27,,,,,,,0,0,0,-15.00,-7.00,-333.00,0.00,0.00,-333.00,6,12.00,5.00,0.91,0.00,0.00,-5.00,0,,,100,100,0,2,0,0,0,2,0,,,,,7.9,0.0,0.0,0.0,0.0,0.0,0
55.884976,-4.271858,1.20,1.40,0.50,0.10,1.20,1.20,0.80,0.10,1690,2022-09-29 12:33:58.355,2022-09-29 13:33:58.354,12,0,0,16.231,55.884975,-4.271859,0.00,0.00,-0.50,1.40,-0.90,-33.20,0,1,0,91,100,-7329,3013,16231,3000.50,13,P-GPS,1,0,0,0,256,0,0,1664454838354,4056,4036,4055,4083,0,0,27,,,,,,,0,0,0,-14.00,-9.00,-332.00,0.00,0.00,-333.00,6,12.00,5.00,0.97,0.00,0.00,-5.00,0,,,100,100,0,2,0,0,0,2,0,,,,,8.1,0.0,0.0,0.0,0.0,0.0,0
55.884976,-4.271858,1.30,1.40,0.50,0.10,1.30,1.30,0.80,0.10,1796,2022-09-29 12:33:58.460,2022-09-29 13:33:58.460,12,0,0,16.231,55.884975,-4.271859,0.00,0.00,-0.50,1.30,-1.00,-33.20,0,1,0,91,100,-7329,3013,16231,3000.50,13,P-GPS,1,0,0,0,271,0,0,1664454838460,4056,4036,4055,4083,0,0,27,,,,,,,0,0,0,-13.00,-10.00,-332.00,0.00,0.00,-333.00,6,13.00,5.00,1.03,0.00,0.00,-5.00,0,,,100,100,0,2,0,0,0,2,0,,,,,8.1,0.0,0.0,0.0,0.0,0.0,0
55.884976,-4.271858,1.30,1.50,0.50,0.11,1.30,1.30,0.80,0.11,1894,2022-09-29 12:33:58.558,2022-09-29 13:33:58.558,12,0,0,16.231,55.884975,-4.271859,0.00,0.00,-0.50,1.30,-0.90,-33.20,0,1,0,91,100,-7329,3013,16231,3000.50,13,P-GPS,1,0,0,0,317,0,0,1664454838558,4056,4036,4055,4083,0,0,27,,,,,,,0,0,0,-13.00,-9.00,-332.00,0.00,0.00,-333.00,6,13.00,5.00,1.05,0.00,0.00,-5.00,0,,,100,100,0,2,0,0,0,2,0,,,,,10.6,0.0,0.0,0.0,0.0,0.0,0
55.884976,-4.271858,1.40,1.50,0.50,0.11,1.40,1.40,0.80,0.11,2000,2022-09-29 12:33:58.664,2022-09-29 13:33:58.664,12,0,0,16.231,55.884975,-4.271859,0.00,0.00,-0.50,1.20,-0.60,-33.10,0,1,0,91,100,-7329,3013,16231,3000.50,13,P-GPS,1,0,0,0,380,0,0,1664454838664,4056,4036,4055,4083,0,0,27,,,,,,,0,0,0,-12.00,-6.00,-331.00,0.00,0.00,-333.00,6,14.00,5.00,1.13,0.00,0.00,-5.00,0,,,100,100,0,2,0,0,0,2,0,,,,,10.6,0.0,0.0,0.0,0.0,0.0,0
55.884976,-4.271858,1.50,1.60,0.70,0.11,1.50,1.50,0.80,0.11,2101,2022-09-29 12:33:58.766,2022-09-29 13:33:58.765,12,0,0,16.231,55.884975,-4.271859,0.00,0.00,-0.70,1.10,-0.50,-33.20,0,1,0,91,100,-7329,3013,16231,3000.50,13,P-GPS,1,0,0,0,384,0,0,1664454838765,4056,4036,4055,4083,0,0,27,,,,,,,0,0,0,-11.00,-5.00,-332.00,0.00,0.00,-333.00,6,15.00,7.00,1.13,0.00,0.00,-7.00,0,,,100,100,0,2,0,0,0,2,0,,,,,12.2,0.0,0.0,0.0,0.0,0.0,0
55.884976,-4.271857,1.50,1.70,1.00,0.13,1.50,1.50,1.00,0.13,2205,2022-09-29 12:33:58.869,2022-09-29 13:33:58.869,12,0,0,16.231,55.884975,-4.271859,0.00,0.00,-1.00,1.20,-0.50,-33.20,0,1,0,91,100,-7329,3013,16231,3000.50,13,P-GPS,1,0,0,0,388,0,0,1664454838869,4056,4036,4055,4083,0,0,27,,,,,,,0,0,0,-12.00,-5.00,-332.00,0.00,0.00,-333.00,6,15.00,10.00,1.26,0.00,0.00,-10.00,0,,,100,100,0,2,0,0,0,2,0,,,,,12.2,0.0,0.0,0.0,0.0,0.0,0
55.884976,-4.271857,1.70,1.80,1.10,0.13,1.70,1.70,1.10,0.13,2291,2022-09-29 12:33:58.956,2022-09-29 13:33:58.955,12,0,0,16.231,55.884975,-4.271859,0.00,0.00,-1.10,1.40,-0.40,-33.20,0,1,0,91,100,-7329,3013,16231,3000.50,13,P-GPS,1,0,0,0,415,0,0,1664454838955,4056,4036,4055,4083,0,0,27,,,,,,,0,0,0,-14.00,-4.00,-332.00,0.00,0.00,-333.00,6,17.00,11.00,1.25,0.00,0.00,-11.00,0,,,100,100,0,2,0,0,0,2,0,,,,,12.2,0.0,0.0,0.0,0.0,0.0,0
55.884976,-4.271857,1.80,1.90,1.20,0.13,1.80,1.80,1.20,0.13,2403,2022-09-29 12:33:59.067,2022-09-29 13:33:59.067,12,0,0,16.186,55.884975,-4.271859,0.00,0.00,-1.20,1.40,-0.40,-33.30,0,1,0,91,100,-7313,3009,16186,3000.50,13,P-GPS,1,0,0,0,469,0,0,1664454839067,4056,4036,4055,4083,0,0,27,,,,,,,0,0,0,-14.00,-4.00,-333.00,0.00,0.00,-333.00,6,18.00,12.00,1.25,0.00,0.00,-12.00,0,,,100,100,0,2,0,0,0,2,0,,,,,0.0,0.0,0.0,0.0,0.0,0.0,0
55.884975,-4.271857,2.10,2.20,1.80,0.09,2.10,2.10,1.80,0.13,2605,2022-09-29 12:33:59.270,2022-09-29 13:33:59.269,12,0,0,16.186,55.884975,-4.271859,0.00,0.00,-1.80,0.90,0.00,-33.40,0,1,0,91,100,-7313,3009,16186,3000.50,13,P-GPS,1,0,0,0,614,0,0,1664454839269,4056,4036,4055,4083,0,0,27,,,,,,,0,0,0,-9.00,0.00,-334.00,0.00,0.00,-333.00,6,21.00,18.00,0.87,0.00,0.00,-18.00,0,,,100,100,0,2,0,0,0,2,0,,,,,0.0,0.0,0.0,0.0,0.0,0.0,0
55.884975,-4.271857,2.50,2.70,2.70,0.09,2.50,2.50,2.70,0.13,2794,2022-09-29 12:33:59.458,2022-09-29 13:33:59.458,12,0,0,16.186,55.884975,-4.271859,0.00,0.00,-2.70,0.90,-0.10,-33.50,0,1,0,91,100,-7313,3009,16186,3000.50,13,P-GPS,1,0,0,0,610,0,0,1664454839458,4056,4036,4055,4083,0,0,27,,,,,,,0,0,0,-9.00,-1.00,-335.00,0.00,0.00,-333.00,6,25.00,27.00,0.86,0.00,0.00,-27.00,0,,,100,100,0,2,0,0,0,2,0,,,,,0.0,0.0,0.0,0.0,0.0,0.0,0
55.884975,-4.271857,2.80,3.00,3.00,0.08,2.80,2.80,3.00,0.13,2901,2022-09-29 12:33:59.566,2022-09-29 13:33:59.565,12,0,0,16.186,55.884975,-4.271859,0.00,0.00,-3.00,1.40,-0.10,-33.40,0,1,0,91,100,-7313,3009,16186,3000.50,13,P-GPS,1,0,0,-499,610,0,0,1664454839565,4056,4036,4055,4083,0,0,27,,,,,,,0,0,0,-14.00,-1.00,-334.00,0.00,0.00,-333.00,6,28.00,30.00,0.82,0.00,0.00,-30.00,0,,,100,100,0,2,0,0,0,2,0,,,,,0.0,0.0,0.0,0.0,0.0,0.0,0
55.884975,-4.271857,3.10,3.30,3.20,0.08,3.10,3.10,3.20,0.13,2992,2022-09-29 12:33:59.656,2022-09-29 13:33:59.656,12,0,0,16.186,55.884975,-4.271859,0.00,0.00,-3.20,1.50,-2.50,-33.20,0,1,0,91,100,-7313,3009,16186,3000.50,13,P-GPS,1,0,0,-660,556,0,0,1664454839656,4056,4036,4055,4083,0,0,27,,,,,,,0,0,0,-15.00,-25.00,-332.00,0.00,0.00,-333.00,6,31.00,32.00,0.80,0.00,0.00,-32.00,0,,,100,100,0,2,0,0,0,2,0,,,,,0.0,0.0,0.0,0.0,0.0,0.0,0
55.884975,-4.271857,3.50,3.60,3.20,0.07,3.50,3.50,3.20,0.13,3103,2022-09-29 12:33:59.767,2022-09-29 13:33:59.767,12,0,0,16.186,55.884975,-4.271859,-0.10,0.00,-3.20,1.30,-8.80,-33.20,0,1,0,91,100,-7313,3009,16186,3000.50,13,P-GPS,1,0,0,-660,555,0,0,1664454839767,4056,4036,4055,4083,0,0,27,,,,,,,0,0,0,-13.00,-88.00,-332.00,0.00,0.00,-333.00,6,35.00,32.02,0.74,-1.00,0.00,-32.00,0,,,100,100,0,2,0,0,0,2,0,,,,,0.0,0.0,0.0,0.0,0.0,0.0,0
55.884975,-4.271858,3.80,3.90,3.10,0.04,3.80,3.80,3.20,0.13,3205,2022-09-29 12:33:59.869,2022-09-29 13:33:59.869,12,0,0,16.186,55.884975,-4.271859,-0.10,-0.10,-3.10,1.10,-13.60,-33.40,0,1,0,91,100,-7313,3009,16186,3000.50,13,P-GPS,1,0,0,-660,555,0,0,1664454839869,4056,4036,4055,4083,0,0,27,,,,,,,0,0,0,-11.00,-136.00,-334.00,0.00,0.00,-333.00,6,38.00,31.03,0.37,-1.00,-1.00,-31.00,0,,,100,100,0,2,0,0,0,2,0,,,,,0.0,0.0,0.0,0.0,0.0,0.0,0
55.884975,-4.271859,4.40,4.50,2.87,0.06,4.40,4.40,3.20,0.13,3392,2022-09-29 12:34:00.056,2022-09-29 13:34:00.056,12,0,0,15.667,55.884975,-4.271859,-0.40,-0.50,-2.80,0.50,-17.00,-33.40,0,1,0,90,100,-10691,3007,15667,3000.50,13,P-GPS,1,0,0,-660,555,0,0,1664454840056,4056,4036,4055,4083,0,0,27,,,,,,,0,0,0,-5.00,-170.00,-334.00,0.00,0.00,-333.00,6,44.00,28.72,0.59,-4.00,-5.00,-28.00,0,,,100,100,0,2,0,0,0,2,0,,,,,0.0,0.0,0.0,0.0,0.0,0.0,0
55.884974,-4.271860,4.70,4.80,2.95,0.15,4.70,4.70,3.20,0.15,3486,2022-09-29 12:34:00.151,2022-09-29 13:34:00.150,12,0,0,15.667,55.884975,-4.271859,-0.50,-0.80,-2.80,0.50,-16.90,-33.50,0,1,0,90,100,-10691,3007,15667,3000.50,13,P-GPS,1,0,0,-660,555,0,0,1664454840150,4056,4036,4055,4083,0,0,27,,,,,,,0,0,0,-5.00,-169.00,-335.00,0.00,0.00,-333.00,6,47.00,29.55,1.47,-5.00,-8.00,-28.00,0,,,100,100,0,2,0,0,0,2,0,,,,,0.0,0.0,0.0,0.0,0.0,0.0,0
55.884973,-4.271862,4.90,5.00,3.05,0.30,4.90,4.90,3.20,0.30,3592,2022-09-29 12:34:00.256,2022-09-29 13:34:00.256,12,0,0,15.667,55.884975,-4.271859,-0.70,-1.00,-2.80,0.50,-16.50,-33.50,0,1,0,90,100,-10691,3007,15667,3000.50,13,P-GPS,1,0,0,-660,559,0,0,1664454840256,4056,4036,4055,4083,0,0,27,,,,,,,0,0,0,-5.00,-165.00,-335.00,0.00,0.00,-333.00,6,49.00,30.55,2.98,-7.00,-10.00,-28.00,0,,,100,100,0,2,0,0,0,2,0,,,,,0.0,0.0,0.0,0.0,0.0,0.0,0
55.884972,-4.271864,5.20,5.30,3.06,0.45,5.20,5.20,3.20,0.45,3695,2022-09-29 12:34:00.359,2022-09-29 13:34:00.359,12,0,0,15.667,55.884975,-4.271859,-0.80,-1.20,-2.70,0.40,-15.70,-33.20,0,1,0,90,100,-10691,3007,15667,3000.50,13,P-GPS,1,0,0,-660,557,0,0,1664454840359,4056,4036,4055,4083,0,0,27,,,,,,,0,0,0,-4.00,-157.00,-332.00,0.00,0.00,-333.00,6,52.00,30.61,4.47,-8.00,-12.00,-27.00,0,,,100,100,0,2,0,0,0,2,0,,,,,0.0,0.0,0.0,0.0,0.0,0.0,0
55.884972,-4.271866,5.50,5.60,3.22,0.61,5.50,5.50,3.22,0.61,3809,2022-09-29 12:34:00.474,2022-09-29 13:34:00.473,12,0,0,15.667,55.884975,-4.271859,-0.90,-1.50,-2.70,0.50,-15.20,-32.20,0,1,0,90,100,-10691,3007,15667,3000.50,13,P-GPS,1,0,0,-660,548,0,0,1664454840473,4056,4036,4055,4083,0,0,27,,,,,,,0,0,0,-5.00,-152.00,-322.00,0.00,0.00,-333.00,6,55.00,32.17,6.14,-9.00,-15.00,-27.00,0,,,100,100,0,2,0,0,0,2,0,,,,,0.0,0.0,0.0,0.0,0.0,0.0,0
55.884971,-4.271869,5.80,5.90,3.34,0.82,5.80,5.80,3.34,0.82,4063,2022-09-29 12:34:00.727,2022-09-29 13:34:00.727,12,0,0,15.667,55.884975,-4.271859,-1.00,-1.70,-2.70,0.70,-15.00,-31.10,0,1,0,90,100,-10691,3007,15667,3000.50,13,P-GPS,1,0,0,-660,549,0,0,1664454840727,4056,4036,4055,4083,0,0,27,,,,,,,0,0,0,-7.00,-150.00,-311.00,0.00,0.00,-333.00,6,58.00,33.44,8.16,-10.00,-17.00,-27.00,0,,,100,100,0,2,0,0,0,2,0,,,,,0.0,0.0,0.0,0.0,0.0,0.0,0
55.884968,-4.271879,6.60,6.70,3.74,1.53,6.60,6.60,3.74,1.53,4202,2022-09-29 12:34:00.867,2022-09-29 13:34:00.866,12,0,0,15.667,55.884975,-4.271859,-1.40,-2.30,-2.60,1.20,-14.20,-30.30,0,1,0,90,100,-10691,3007,15667,3000.50,13,P-GPS,1,0,0,-650,548,0,0,1664454840866,4056,4036,4055,4083,0,0,27,,,,,,,0,0,0,-12.00,-142.00,-303.00,0.00,0.00,-333.00,6,66.00,37.43,15.30,-14.00,-23.00,-26.00,0,,,100,100,0,2,0,0,0,2,0,,,,,0.0,0.0,0.0,0.0,0.0,0.0,0
55.884966,-4.271883,6.90,6.90,3.94,1.82,6.90,6.90,3.94,1.82,4308,2022-09-29 12:34:00.974,2022-09-29 13:34:00.972,12,0,0,15.667,55.884975,-4.271859,-1.40,-2.50,-2.70,1.30,-14.00,-30.00,0,1,0,90,100,-10691,3007,15667,3000.50,13,P-GPS,1,0,0,-288,542,0,0,1664454840972,4056,4036,4055,4083,0,0,27,,,,,,,0,0,0,-13.00,-140.00,-300.00,0.00,0.00,-333.00,6,69.00,39.37,18.21,-14.00,-25.00,-27.00,0,,,100,100,0,2,0,0,0,2,0,,,,,0.0,0.0,0.0,0.0,0.0,0.0,0
55.884965,-4.271887,7.10,7.20,4.04,2.13,7.10,7.10,4.04,2.13,4407,2022-09-29 12:34:01.072,2022-09-29 13:34:01.071,12,0,0,15.954,55.884975,-4.271859,-1.50,-2.70,-2.60,1.70,-11.90,-29.80,0,1,0,90,100,-8547,3004,15954,3000.50,13,P-GPS,1,0,0,-122,542,0,0,1664454841071,4056,4036,4055,4083,0,0,27,,,,,,,0,0,0,-17.00,-119.00,-298.00,0.00,0.00,-333.00,6,71.00,40.37,21.29,-15.00,-27.00,-26.00,0,,,100,100,0,2,0,0,0,2,0,,,,,0.0,0.0,0.0,0.0,0.0,0.0,0
55.884963,-4.271892,7.40,7.50,4.21,2.46,7.40,7.40,4.21,2.46,4505,2022-09-29 12:34:01.169,2022-09-29 13:34:01.169,12,0,0,15.954,55.884975,-4.271859,-1.60,-2.90,-2.60,1.60,-5.80,-29.60,0,1,0,90,100,-8547,3004,15954,3000.50,13,P-GPS,1,0,0,0,530,0,0,1664454841169,4056,4036,4055,4083,0,0,27,,,,,,,0,0,0,-16.00,-58.00,-296.00,0.00,0.00,-333.00,6,74.00,42.11,24.58,-16.00,-29.00,-26.00,0,,,100,100,0,2,0,0,0,2,0,,,,,0.0,0.0,0.0,0.0,0.0,0.0,0
55.884962,-4.271897,7.70,7.70,4.21,2.80,7.70,7.70,4.21,2.80,4603,2022-09-29 12:34:01.267,2022-09-29 13:34:01.267,12,0,0,15.954,55.884975,-4.271859,-1.60,-2.90,-2.60,1.10,6.80,-29.50,0,1,0,90,100,-8547,3004,15954,3000.50,13,P-GPS,1,0,0,0,493,0,0,1664454841267,4056,4036,4055,4083,0,0,27,,,,,,,0,0,0,-11.00,68.00,-295.00,0.00,0.00,-333.00,6,77.00,42.11,28.00,-16.00,-29.00,-26.00,0,,,100,100,0,2,0,0,0,2,0,,,,,0.0,0.0,0.0,0.0,0.0,0.0,0
55.884961,-4.271901,7.90,8.00,3.91,3.13,7.90,7.90,4.21,3.13,4696,2022-09-29 12:34:01.361,2022-09-29 13:34:01.360,12,0,0,15.954,55.884975,-4.271859,-1.50,-2.70,-2.40,0.50,19.30,-29.50,0,1,0,90,100,-8547,3004,15954,3000.50,13,P-GPS,1,0,0,0,472,0,0,1664454841360,4056,4036,4055,4083,0,0,27,,,,,,,0,0,0,-5.00,193.00,-295.00,0.00,0.00,-333.00,6,79.00,39.12,31.28,-15.00,-27.00,-24.00,0,,,100,100,0,2,0,0,0,2,0,,,,,0.0,0.0,0.0,0.0,0.0,0.0,0
55.884959,-4.271906,8.20,8.20,3.57,3.42,8.20,8.20,4.21,3.42,4805,2022-09-29 12:34:01.469,2022-09-29 13:34:01.469,12,0,0,15.954,55.884975,-4.271859,-1.30,-2.40,-2.30,0.50,23.50,-29.40,0,1,0,90,100,-8547,3004,15954,3000.50,13,P-GPS,1,0,0,0,415,0,0,1664454841469,4056,4036,4055,4083,0,0,27,,,,,,,0,0,0,-5.00,235.00,-294.00,0.00,0.00,-333.00,6,82.00,35.69,34.16,-13.00,-24.00,-23.00,0,,,100,100,0,2,0,0,0,2,0,,,,,0.0,0.0,0.0,0.0,0.0,0.0,0
55.884958,-4.271909,8.40,8.40,3.17,3.68,8.40,8.40,4.21,3.68,4897,2022-09-29 12:34:01.561,2022-09-29 13:34:01.561,11,0,0,15.954,55.884975,-4.271859,-1.10,-2.20,-2.00,0.80,24.60,-29.10,0,1,0,90,100,-8547,3004,15954,3000.50,13,P-GPS,1,0,0,0,383,0,0,1664454841561,4056,4036,4055,4083,0,0,27,,,,,,,0,0,0,-8.00,246.00,-291.00,0.00,0.00,-333.00,6,84.00,31.70,36.76,-11.00,-22.00,-20.00,0,,,100,100,0,2,0,0,0,2,0,,,,,0.0,0.0,0.0,0.0,0.0,0.0,0
55.884957,-4.271912,8.60,8.60,2.64,3.88,8.60,8.60,4.21,3.88,5003,2022-09-29 12:34:01.668,2022-09-29 13:34:01.667,11,0,0,15.954,55.884975,-4.271859,-0.90,-1.90,-1.60,1.10,24.60,-28.70,0,1,0,90,100,-8547,3004,15954,3000.50,13,P-GPS,1,0,0,0,386,0,0,1664454841667,4056,4036,4055,4083,0,0,27,,,,,,,0,0,0,-11.00,246.00,-287.00,0.00,0.00,-333.00,6,86.00,26.42,38.79,-9.00,-19.00,-16.00,0,,,100,100,0,2,0,0,0,2,0,,,,,0.0,0.0,0.0,0.0,0.0,0.0,0
55.884956,-4.271915,8.70,8.80,2.24,4.07,8.70,8.70,4.21,4.07,5094,2022-09-29 12:34:01.758,2022-09-29 13:34:01.758,12,0,0,15.954,55.884975,-4.271859,-0.70,-1.60,-1.40,1.30,24.30,-28.70,0,1,0,90,100,-8547,3004,15954,3000.50,13,P-GPS,1,0,0,0,389,0,0,1664454841758,4056,4036,4055,4083,0,0,27,,,,,,,0,0,0,-13.00,243.00,-287.00,0.00,0.00,-333.00,6,87.00,22.38,40.67,-7.00,-16.00,-14.00,0,,,100,100,0,2,0,0,0,2,0,,,,,0.0,0.0,0.0,0.0,0.0,0.0,0
55.884956,-4.271916,8.80,9.00,1.84,4.19,8.80,8.80,4.21,4.19,5203,2022-09-29 12:34:01.867,2022-09-29 13:34:01.867,12,0,0,15.954,55.884975,-4.271859,-0.50,-1.20,-1.30,1.40,21.00,-28.90,0,1,0,90,100,-8547,3004,15954,3000.50,13,P-GPS,1,0,0,0,379,0,0,1664454841867,4056,4036,4055,4083,0,0,27,,,,,,,0,0,0,-14.00,210.00,-289.00,0.00,0.00,-333.00,6,88.00,18.38,41.90,-5.00,-12.00,-13.00,0,,,100,100,0,2,0,0,0,2,0,,,,,0.0,0.0,0.0,0.0,0.0,0.0,0
55.884956,-4.271918,9.00,9.20,1.47,4.29,9.00,9.00,4.21,4.29,5293,2022-09-29 12:34:01.957,2022-09-29 13:34:01.957,12,0,0,15.954,55.884975,-4.271859,-0.30,-0.80,-1.20,1.40,16.20,-29.20,0,1,0,90,100,-8547,3004,15954,3000.50,13,P-GPS,1,0,0,0,294,0,0,1664454841957,4056,4036,4055,4083,0,0,27,,,,,,,0,0,0,-14.00,162.00,-292.00,0.00,0.00,-333.00,6,90.00,14.73,42.90,-3.00,-8.00,-12.00,0,,,100,100,0,2,0,0,0,2,0,,,,,0.0,0.0,0.0,0.0,0.0,0.0,0
55.884955,-4.271919,9.10,9.30,1.27,4.40,9.10,9.10,4.21,4.40,5402,2022-09-29 12:34:02.067,2022-09-29 13:34:02.066,12,0,0,15.954,55.884975,-4.271859,-0.20,-0.60,-1.10,1.50,11.90,-29.30,0,1,0,90,100,-8547,3004,15954,3001.50,13,P-GPS,1,0,0,0,0,0,0,1664454842066,4056,4036,4055,4083,0,0,27,,,,,,,0,0,0,-15.00,119.00,-293.00,0.00,0.00,-333.00,6,91.00,12.69,43.96,-2.00,-6.00,-11.00,0,,,100,100,0,2,0,0,0,2,0,,,,,0.0,0.0,0.0,0.0,0.0,0.0,0
55.884955,-4.271920,9.20,9.40,0.81,4.45,9.20,9.20,4.21,4.45,5492,2022-09-29 12:34:02.157,2022-09-29 13:34:02.156,11,0,0,15.954,55.884975,-4.271859,-0.10,-0.40,-0.70,1.70,9.20,-29.30,0,1,0,90,100,-8547,3004,15954,3001.50,13,P-GPS,1,0,0,0,0,0,0,1664454842156,4056,4036,4055,4083,0,0,27,,,,,,,0,0,0,-17.00,92.00,-293.00,0.00,0.00,-333.00,6,92.00,8.12,44.49,-1.00,-4.00,-7.00,0,,,100,100,0,2,0,0,0,2,0,,,,,0.0,0.0,0.0,0.0,0.0,0.0,0
55.884955,-4.271921,9.30,9.50,0.50,4.51,9.30,9.30,4.21,4.51,5596,2022-09-29 12:34:02.261,2022-09-29 13:34:02.260,11,0,0,15.954,55.884975,-4.271859,0.00,-0.30,-0.40,1.60,7.60,-29.40,0,1,0,90,100,-8547,3004,15954,3001.50,13,P-GPS,1,0,0,0,0,0,0,1664454842260,4056,4036,4055,4083,0,0,27,,,,,,,0,0,0,-16.00,76.00,-294.00,0.00,0.00,-333.00,6,93.00,5.00,45.07,0.00,-3.00,-4.00,0,,,100,100,0,2,0,0,0,2,0,,,,,0.0,0.0,0.0,0.0,0.0,0.0,0
55.884955,-4.271922,9.30,9.60,0.28,4.54,9.30,9.30,4.21,4.54,5703,2022-09-29 12:34:02.367,2022-09-29 13:34:02.367,12,0,0,15.954,55.884975,-4.271859,0.00,-0.20,-0.20,1.40,6.00,-29.50,0,1,0,90,100,-8547,3004,15954,3001.50,13,P-GPS,1,0,0,0,0,0,0,1664454842367,4056,4036,4055,4083,0,0,27,,,,,,,0,0,0,-14.00,60.00,-295.00,0.00,0.00,-333.00,6,93.00,2.83,45.38,0.00,-2.00,-2.00,0,,,100,100,0,2,0,0,0,2,0,,,,,0.0,0.0,0.0,0.0,0.0,0.0,0
55.884955,-4.271922,9.30,9.60,0.14,4.57,9.30,9.30,4.21,4.57,5805,2022-09-29 12:34:02.469,2022-09-29 13:34:02.469,12,0,0,15.954,55.884975,-4.271859,0.00,-0.10,-0.10,1.20,4.40,-29.50,0,1,0,90,100,-8547,3004,15954,3001.50,13,P-GPS,1,0,0,0,0,0,0,1664454842469,4056,4036,4055,4083,0,0,27,,,,,,,0,0,0,-12.00,44.00,-295.00,0.00,0.00,-333.00,6,93.00,1.41,45.68,0.00,-1.00,-1.00,0,,,100,100,0,2,0,0,0,2,0,,,,,0.0,0.0,0.0,0.0,0.0,0.0,0
55.884955,-4.271922,9.40,9.60,0.00,4.58,9.40,9.40,4.21,4.58,5904,2022-09-29 12:34:02.568,2022-09-29 13:34:02.568,12,0,0,15.954,55.884975,-4.271859,0.00,0.00,0.00,1.10,3.00,-29.40,0,1,0,90,100,-8547,3004,15954,3001.50,13,P-GPS,1,0,0,0,0,0,0,1664454842568,4056,4036,4055,4083,0,0,27,,,,,,,0,0,0,-11.00,30.00,-294.00,0.00,0.00,-333.00,6,94.00,0.00,45.80,0.00,0.00,0.00,0,,,100,100,0,2,0,0,0,2,0,,,,,0.0,0.0,0.0,0.0,0.0,0.0,0
55.884955,-4.271923,9.40,9.60,0.00,4.59,9.40,9.40,4.21,4.59,6003,2022-09-29 12:34:02.667,2022-09-29 13:34:02.667,12,0,0,15.954,55.884975,-4.271859,0.00,0.00,0.00,1.10,1.90,-29.40,0,1,0,90,100,-8547,3004,15954,3001.50,13,P-GPS,1,0,0,0,0,0,0,1664454842667,4056,4036,4055,4083,0,0,27,,,,,,,0,0,0,-11.00,19.00,-294.00,0.00,0.00,-333.00,6,94.00,0.00,45.95,0.00,0.00,0.00,0,,,100,100,0,2,0,0,0,2,0,,,,,0.0,0.0,0.0,0.0,0.0,0.0,0
55.884955,-4.271923,9.40,9.70,0.10,4.60,9.40,9.40,4.21,4.60,6101,2022-09-29 12:34:02.765,2022-09-29 13:34:02.765,12,0,0,15.954,55.884975,-4.271859,0.10,0.00,0.00,1.00,1.30,-29.40,0,1,0,90,100,-8547,3004,15954,3001.50,13,P-GPS,1,0,0,0,0,0,0,1664454842765,4056,4036,4055,4083,0,0,27,,,,,,,0,0,0,-10.00,13.00,-294.00,0.00,0.00,-333.00,6,94.00,1.00,45.99,1.00,0.00,0.00,0,,,100,100,0,2,0,0,0,2,0,,,,,0.0,0.0,0.0,0.0,0.0,0.0,0
55.884955,-4.271923,9.40,9.70,0.00,4.62,9.40,9.40,4.21,4.62,6196,2022-09-29 12:34:02.861,2022-09-29 13:34:02.860,12,0,0,15.954,55.884975,-4.271859,0.00,0.00,0.00,1.10,0.80,-29.40,0,1,0,90,100,-8547,3004,15954,3001.50,13,P-GPS,1,0,0,0,0,0,0,1664454842860,4056,4036,4055,4083,0,0,27,,,,,,,0,0,0,-11.00,8.00,-294.00,0.00,0.00,-333.00,6,94.00,0.00,46.16,0.00,0.00,0.00,0,,,100,100,0,2,0,0,0,2,0,,,,,0.0,0.0,0.0,0.0,0.0,0.0,0
55.884955,-4.271923,9.40,9.70,0.10,4.62,9.40,9.40,4.21,4.62,6294,2022-09-29 12:34:02.959,2022-09-29 13:34:02.958,12,0,0,15.954,55.884975,-4.271859,0.10,0.00,0.00,1.10,0.40,-29.40,0,1,0,90,100,-8547,3004,15954,3001.50,13,P-GPS,1,0,0,0,0,0,0,1664454842958,4056,4036,4055,4083,0,0,27,,,,,,,0,0,0,-11.00,4.00,-294.00,0.00,0.00,-333.00,6,94.00,1.00,46.17,1.00,0.00,0.00,0,,,100,100,0,2,0,0,0,2,0,,,,,0.0,0.0,0.0,0.0,0.0,0.0,0
55.884955,-4.271922,9.40,9.70,0.00,4.58,9.40,9.40,4.21,4.62,6401,2022-09-29 12:34:03.066,2022-09-29 13:34:03.066,12,0,0,16.199,55.884975,-4.271859,0.00,0.00,0.00,1.30,0.10,-29.40,0,1,0,90,100,-7287,3002,16199,3002.50,13,P-GPS,1,0,0,0,0,0,0,1664454843065,4056,4036,4055,4083,0,0,27,,,,,,,0,0,0,-13.00,1.00,-294.00,0.00,0.00,-333.00,6,94.00,0.00,45.83,0.00,0.00,0.00,0,,,100,100,0,2,0,0,0,2,0,,,,,0.0,0.0,0.0,0.0,0.0,0.0,0
55.884955,-4.271922,9.40,9.70,0.00,4.58,9.40,9.40,4.21,4.62,6496,2022-09-29 12:34:03.160,2022-09-29 13:34:03.160,12,0,0,16.199,55.884975,-4.271859,0.00,0.00,0.00,1.30,0.00,-29.40,0,1,0,90,100,-7287,3002,16199,3002.50,13,P-GPS,1,0,0,0,0,0,0,1664454843160,4056,4036,4055,4083,0,0,27,,,,,,,0,0,0,-13.00,0.00,-294.00,0.00,0.00,-333.00,6,94.00,0.00,45.79,0.00,0.00,0.00,0,,,100,100,0,2,0,0,0,2,0,,,,,0.0,0.0,0.0,0.0,0.0,0.0,0
55.884955,-4.271922,9.40,9.70,0.00,4.57,9.40,9.40,4.21,4.62,6589,2022-09-29 12:34:03.254,2022-09-29 13:34:03.253,12,0,0,16.199,55.884975,-4.271859,0.00,0.00,0.00,1.10,-0.20,-29.30,0,1,0,90,100,-7287,3002,16199,3002.50,13,P-GPS,1,0,0,0,0,0,0,1664454843253,4056,4036,4055,4083,0,0,27,,,,,,,0,0,0,-11.00,-2.00,-293.00,0.00,0.00,-333.00,6,94.00,0.00,45.66,0.00,0.00,0.00,0,,,100,100,0,2,0,0,0,2,0,,,,,0.0,0.0,0.0,0.0,0.0,0.0,0
55.884955,-4.271922,9.40,9.70,0.00,4.56,9.40,9.40,4.21,4.62,6703,2022-09-29 12:34:03.367,2022-09-29 13:34:03.367,12,0,0,16.199,55.884975,-4.271859,0.00,0.00,0.00,0.80,0.00,-29.40,0,1,0,90,100,-7287,3002,16199,3002.50,13,P-GPS,1,0,0,0,300,0,0,1664454843367,4056,4036,4055,4083,0,0,27,,,,,,,0,0,0,-8.00,0.00,-294.00,0.00,0.00,-333.00,6,94.00,0.00,45.63,0.00,0.00,0.00,0,,,100,100,0,2,0,0,0,2,0,,,,,0.0,0.0,0.0,0.0,0.0,0.0,0
55.884955,-4.271922,9.40,9.70,0.00,4.56,9.40,9.40,4.21,4.62,6803,2022-09-29 12:34:03.467,2022-09-29 13:34:03.467,12,0,0,16.199,55.884975,-4.271859,0.00,0.00,0.00,0.50,0.50,-29.40,0,1,0,90,100,-7287,3002,16199,3002.50,13,P-GPS,1,0,0,0,421,0,0,1664454843467,4056,4036,4055,4083,0,0,27,,,,,,,0,0,0,-5.00,5.00,-294.00,0.00,0.00,-333.00,6,94.00,0.00,45.55,0.00,0.00,0.00,0,,,100,100,0,2,0,0,0,2,0,,,,,0.0,0.0,0.0,0.0,0.0,0.0,0
55.884955,-4.271922,9.40,9.70,0.30,4.55,9.40,9.40,4.21,4.62,6924,2022-09-29 12:34:03.588,2022-09-29 13:34:03.588,12,0,0,16.199,55.884975,-4.271859,0.00,0.00,-0.30,0.00,0.80,-29.50,0,1,0,90,100,-7287,3002,16199,3002.50,13,P-GPS,1,0,0,0,660,0,0,1664454843588,4056,4036,4055,4083,0,0,27,,,,,,,0,0,0,-0.00,8.00,-295.00,0.00,0.00,-333.00,6,94.00,3.00,45.52,0.00,0.00,-3.00,0,,,100,100,0,2,0,0,0,2,0,,,,,0.0,0.0,0.0,0.0,0.0,0.0,0
55.884955,-4.271921,9.60,10.00,1.20,4.54,9.60,9.60,4.21,4.62,7089,2022-09-29 12:34:03.753,2022-09-29 13:34:03.753,11,0,0,16.199,55.884975,-4.271859,0.00,0.00,-1.20,0.30,0.40,-29.70,0,1,0,90,100,-7287,3002,16199,3002.50,13,P-GPS,1,0,0,0,660,0,0,1664454843753,4056,4036,4055,4083,0,0,27,,,,,,,0,0,0,-3.00,4.00,-297.00,0.00,0.00,-333.00,6,96.00,12.00,45.37,0.00,0.00,-12.00,0,,,100,100,0,2,0,0,0,2,0,,,,,0.0,0.0,0.0,0.0,0.0,0.0,0
55.884954,-4.271921,9.80,10.10,1.70,4.52,9.80,9.80,4.21,4.62,7189,2022-09-29 12:34:03.854,2022-09-29 13:34:03.854,11,0,0,16.199,55.884975,-4.271859,0.00,0.00,-1.70,0.70,0.30,-29.60,0,1,0,90,100,-7287,3002,16199,3002.50,13,P-GPS,1,0,0,0,660,0,0,1664454843853,4056,4036,4055,4083,0,0,27,,,,,,,0,0,0,-7.00,3.00,-296.00,0.00,0.00,-333.00,6,98.00,17.00,45.22,0.00,0.00,-17.00,0,,,100,100,0,2,0,0,0,2,0,,,,,0.0,0.0,0.0,0.0,0.0,0.0,0
55.884955,-4.271921,10.00,10.40,2.20,4.51,10.00,10.00,4.21,4.62,7305,2022-09-29 12:34:03.969,2022-09-29 13:34:03.969,12,0,0,16.199,55.884975,-4.271859,0.00,0.00,-2.20,0.90,0.10,-29.70,0,1,0,90,100,-7287,3002,16199,3002.50,13,P-GPS,1,0,0,0,660,0,0,1664454843969,4056,4036,4055,4083,0,0,27,,,,,,,0,0,0,-9.00,1.00,-297.00,0.00,0.00,-333.00,6,100.00,22.00,45.13,0.00,0.00,-22.00,0,,,100,100,0,2,0,0,0,2,0,,,,,0.0,0.0,0.0,0.0,0.0,0.0,0
55.884955,-4.271921,10.20,10.60,2.70,4.49,10.20,10.20,4.21,4.62,7399,2022-09-29 12:34:04.063,2022-09-29 13:34:04.063,12,0,0,16.129,55.884975,-4.271859,0.00,0.00,-2.70,1.00,0.00,-29.70,0,1,0,90,100,-6151,3000,16129,3002.50,13,P-GPS,1,0,0,0,660,0,0,1664454844063,4056,4036,4055,4083,0,0,27,,,,,,,0,0,0,-10.00,0.00,-297.00,0.00,0.00,-333.00,6,102.00,27.00,44.94,0.00,0.00,-27.00,0,,,100,100,0,2,0,0,0,2,0,,,,,0.0,0.0,0.0,0.0,0.0,0.0,0
55.884955,-4.271920,10.50,11.00,3.20,4.48,10.50,10.50,4.21,4.62,7494,2022-09-29 12:34:04.158,2022-09-29 13:34:04.158,12,0,0,16.129,55.884975,-4.271859,0.00,0.00,-3.20,0.80,0.00,-29.60,0,1,0,90,100,-6151,3000,16129,3002.50,13,P-GPS,1,0,0,0,257,0,0,1664454844158,4056,4036,4055,4083,0,0,27,,,,,,,0,0,0,-8.00,0.00,-296.00,0.00,0.00,-333.00,6,105.00,32.00,44.84,0.00,0.00,-32.00,0,,,100,100,0,2,0,0,0,2,0,,,,,0.0,0.0,0.0,0.0,0.0,0.0,0
55.884954,-4.271921,10.90,11.30,3.30,4.50,10.90,10.90,4.21,4.62,7600,2022-09-29 12:34:04.265,2022-09-29 13:34:04.264,12,0,0,16.129,55.884975,-4.271859,0.00,0.00,-3.30,1.20,0.00,-29.50,0,1,0,90,100,-6151,3000,16129,3002.50,13,P-GPS,1,0,0,0,0,0,0,1664454844264,4056,4036,4055,4083,0,0,27,,,,,,,0,0,0,-12.00,0.00,-295.00,0.00,0.00,-333.00,6,109.00,33.00,45.01,0.00,0.00,-33.00,0,,,100,100,0,2,0,0,0,2,0,,,,,0.0,0.0,0.0,0.0,0.0,0.0,0
55.884954,-4.271920,11.20,11.60,3.20,4.49,11.20,11.20,4.21,4.62,7696,2022-09-29 12:34:04.361,2022-09-29 13:34:04.360,12,0,0,15.669,55.884975,-4.271859,0.00,0.00,-3.20,1.40,0.00,-29.40,0,1,0,90,100,-6151,3000,15669,3002.50,13,P-GPS,1,0,0,0,0,0,0,1664454844360,4056,4036,4055,4083,0,0,27,,,,,,,0,0,0,-14.00,0.00,-294.00,0.00,0.00,-333.00,6,112.00,32.00,44.93,0.00,0.00,-32.00,0,,,100,100,0,2,0,0,0,2,0,,,,,0.0,0.0,0.0,0.0,0.0,0.0,0
55.884954,-4.271920,11.20,11.60,3.20,4.49,11.20,11.20,4.21,4.62,7784,2022-09-29 12:34:04.449,2022-09-29 13:34:04.448,12,0,0,15.669,55.884975,-4.271859,0.00,0.00,-2.90,1.40,0.00,-29.40,0,1,0,90,100,-6151,3000,15669,3002.50,13,P-GPS,1,0,0,0,0,0,0,1664454844448,4056,4036,4055,4083,0,0,27,,,,,,,0,0,0,-14.00,0.00,-294.00,0.00,0.00,-333.00,6,112.00,32.00,44.93,0.00,0.00,-29.00,0,,,100,100,0,2,0,0,0,2,0,,,,,0.0,0.0,0.0,0.0,0.0,0.0,0
55.884955,-4.271920,11.80,0.00,2.50,4.46,11.80,11.80,4.21,4.62,7888,2022-09-29 12:34:04.553,2022-09-29 13:34:04.552,11,0,0,15.669,55.884975,-4.271859,0.00,0.00,-2.50,0.70,-0.20,-29.30,0,1,0,90,100,-6151,3000,15669,3002.50,13,P-GPS,1,0,0,0,0,0,0,1664454844552,4056,4036,4055,4083,0,0,27,,,,,,,0,0,0,-7.00,-2.00,-293.00,0.00,0.00,-333.00,6,118.00,25.00,44.60,0.00,0.00,-25.00,0,,,100,100,0,2,0,0,0,2,0,,,,,0.0,0.0,0.0,0.0,0.0,0.0,0
55.884955,-4.271920,12.10,0.00,2.20,4.46,12.10,12.10,4.21,4.62,7996,2022-09-29 12:34:04.661,2022-09-29 13:34:04.661,11,0,0,15.669,55.884975,-4.271859,0.00,0.00,-2.20,0.20,-0.10,-29.30,0,1,0,90,100,-6151,3000,15669,3002.50,13,P-GPS,1,0,0,0,0,0,0,1664454844660,4056,4036,4055,4083,0,0,27,,,,,,,0,0,0,-2.00,-1.00,-293.00,0.00,0.00,-333.00,6,121.00,22.00,44.62,0.00,0.00,-22.00,0,,,100,100,0,2,0,0,0,2,0,,,,,0.0,0.0,0.0,0.0,0.0,0.0,0
55.884955,-4.271920,12.30,0.00,1.80,4.45,12.30,12.30,4.21,4.62,8098,2022-09-29 12:34:04.762,2022-09-29 13:34:04.762,11,0,0,15.669,55.884975,-4.271859,0.00,0.00,-1.80,0.10,0.00,-29.30,0,1,0,90,100,-6151,3000,15669,3002.50,13,P-GPS,1,0,0,0,0,0,0,1664454844762,4056,4036,4055,4083,0,0,27,,,,,,,0,0,0,-1.00,0.00,-293.00,0.00,0.00,-333.00,6,123.00,18.00,44.54,0.00,0.00,-18.00,0,,,100,100,0,2,0,0,0,2,0,,,,,0.0,0.0,0.0,0.0,0.0,0.0,0
55.884955,-4.271919,12.50,0.00,1.40,4.41,12.50,12.50,4.21,4.62,8202,2022-09-29 12:34:04.866,2022-09-29 13:34:04.866,11,0,0,15.669,55.884975,-4.271859,0.00,0.00,-1.40,0.20,-0.10,-29.30,0,1,0,90,100,-6151,3000,15669,3002.50,13,P-GPS,1,0,0,0,0,0,0,1664454844866,4056,4036,4055,4083,0,0,27,,,,,,,0,0,0,-2.00,-1.00,-293.00,0.00,0.00,-333.00,6,125.00,14.00,44.13,0.00,0.00,-14.00,0,,,100,100,0,2,0,0,0,2,0,,,,,0.0,0.0,0.0,0.0,0.0,0.0,0
55.884955,-4.271919,12.60,0.00,0.90,4.40,12.60,12.60,4.21,4.62,8292,2022-09-29 12:34:04.956,2022-09-29 13:34:04.956,11,0,0,15.669,55.884975,-4.271859,0.00,0.00,-0.90,0.50,-0.40,-29.20,0,1,0,90,100,-6151,3000,15669,3002.50,13,P-GPS,1,0,0,0,0,0,0,1664454844956,4056,4036,4055,4083,0,0,27,,,,,,,0,0,0,-5.00,-4.00,-292.00,0.00,0.00,-333.00,6,126.00,9.00,44.01,0.00,0.00,-9.00,0,,,100,100,0,2,0,0,0,2,0,,,,,0.0,0.0,0.0,0.0,0.0,0.0,0
55.884955,-4.271919,12.70,0.00,0.50,4.39,12.70,12.70,4.21,4.62,8405,2022-09-29 12:34:05.069,2022-09-29 13:34:05.069,11,0,0,16.285,55.884975,-4.271859,0.00,0.00,-0.50,0.70,-0.60,-29.20,0,1,0,90,100,-7662,2995,16285,3003.50,13,P-GPS,1,0,0,0,0,0,0,1664454845069,4056,4036,4055,4083,0,0,27,,,,,,,0,0,0,-7.00,-6.00,-292.00,0.00,0.00,-333.00,6,127.00,5.00,43.90,0.00,0.00,-5.00,0,,,100,100,0,2,0,0,0,2,0,,,,,0.0,0.0,0.0,0.0,0.0,0.0,0
55.884955,-4.271919,12.80,0.00,0.30,4.38,12.80,12.80,4.21,4.62,8495,2022-09-29 12:34:05.160,2022-09-29 13:34:05.159,12,0,0,16.285,55.884975,-4.271859,0.00,0.00,-0.30,0.80,-0.60,-29.30,0,1,0,90,100,-7662,2995,16285,3003.50,13,P-GPS,1,0,0,0,0,0,0,1664454845159,4056,4036,4055,4083,0,0,27,,,,,,,0,0,0,-8.00,-6.00,-293.00,0.00,0.00,-333.00,6,128.00,3.00,43.79,0.00,0.00,-3.00,0,,,100,100,0,2,0,0,0,2,0,,,,,0.0,0.0,0.0,0.0,0.0,0.0,0
55.884955,-4.271918,12.80,0.00,0.10,4.36,12.80,12.80,4.21,4.62,8596,2022-09-29 12:34:05.260,2022-09-29 13:34:05.260,12,0,0,16.285,55.884975,-4.271859,0.00,0.00,-0.10,0.80,-0.30,-29.30,0,1,0,90,100,-7662,2995,16285,3003.50,13,P-GPS,1,0,0,0,0,0,0,1664454845260,4056,4036,4055,4083,0,0,27,,,,,,,0,0,0,-8.00,-3.00,-293.00,0.00,0.00,-333.00,6,128.00,1.00,43.63,0.00,0.00,-1.00,0,,,100,100,0,2,0,0,0,2,0,,,,,0.0,0.0,0.0,0.0,0.0,0.0,0
55.884955,-4.271918,12.80,0.00,0.00,4.35,12.80,12.80,4.21,4.62,8702,2022-09-29 12:34:05.366,2022-09-29 13:34:05.366,12,0,0,16.285,55.884975,-4.271859,0.00,0.00,0.00,0.90,-0.40,-29.40,0,1,0,90,100,-7662,2995,16285,3003.50,13,P-GPS,1,0,0,0,0,0,0,1664454845366,4056,4036,4055,4083,0,0,27,,,,,,,0,0,0,-9.00,-4.00,-294.00,0.00,0.00,-333.00,6,128.00,0.00,43.53,0.00,0.00,0.00,0,,,100,100,0,2,0,0,0,2,0,,,,,0.0,0.0,0.0,0.0,0.0,0.0,0
55.884955,-4.271918,12.80,0.00,0.00,4.33,12.80,12.80,4.21,4.62,8793,2022-09-29 12:34:05.457,2022-09-29 13:34:05.457,12,0,0,16.285,55.884975,-4.271859,0.00,0.00,0.00,1.00,-0.80,-29.40,0,1,0,90,100,-7662,2995,16285,3003.50,13,P-GPS,1,0,0,0,0,0,0,1664454845457,4056,4036,4055,4083,0,0,27,,,,,,,0,0,0,-10.00,-8.00,-294.00,0.00,0.00,-333.00,6,128.00,0.00,43.30,0.00,0.00,0.00,0,,,100,100,0,2,0,0,0,2,0,,,,,0.0,0.0,0.0,0.0,0.0,0.0,0
55.884955,-4.271918,12.80,0.00,0.00,4.32,12.80,12.80,4.21,4.62,8892,2022-09-29 12:34:05.556,2022-09-29 13:34:05.556,12,0,0,16.285,55.884975,-4.271859,0.00,0.00,0.00,1.20,-0.80,-29.40,0,1,0,90,100,-7662,2995,16285,3003.50,13,P-GPS,1,0,0,0,0,0,0,1664454845556,4056,4036,4055,4083,0,0,27,,,,,,,0,0,0,-12.00,-8.00,-294.00,0.00,0.00,-333.00,6,128.00,0.00,43.20,0.00,0.00,0.00,0,,,100,100,0,2,0,0,0,2,0,,,,,0.0,0.0,0.0,0.0,0.0,0.0,0
55.884955,-4.271918,12.80,0.00,0.00,4.33,12.80,12.80,4.21,4.62,8995,2022-09-29 12:34:05.660,2022-09-29 13:34:05.659,12,0,0,16.285,55.884975,-4.271859,0.00,0.00,0.00,1.30,-0.70,-29.50,0,1,0,90,100,-7662,2995,16285,3003.50,13,P-GPS,1,0,0,0,0,0,0,1664454845659,4056,4036,4055,4083,0,0,27,,,,,,,0,0,0,-13.00,-7.00,-295.00,0.00,0.00,-333.00,6,128.00,0.00,43.30,0.00,0.00,0.00,0,,,100,100,0,2,0,0,0,2,0,,,,,0.0,0.0,0.0,0.0,0.0,0.0,0
55.884955,-4.271918,12.80,0.00,0.00,4.32,12.80,12.80,4.21,4.62,9094,2022-09-29 12:34:05.758,2022-09-29 13:34:05.758,11,0,0,16.285,55.884975,-4.271859,0.00,0.00,0.00,1.50,-0.70,-29.50,0,1,0,90,100,-7662,2995,16285,3003.50,13,P-GPS,1,0,0,0,0,0,0,1664454845758,4056,4036,4055,4083,0,0,27,,,,,,,0,0,0,-15.00,-7.00,-295.00,0.00,0.00,-333.00,6,128.00,0.00,43.23,0.00,0.00,0.00,0,,,100,100,0,2,0,0,0,2,0,,,,,0.0,0.0,0.0,0.0,0.0,0.0,0
55.884955,-4.271918,12.80,0.00,0.00,4.34,12.80,12.80,4.21,4.62,9197,2022-09-29 12:34:05.862,2022-09-29 13:34:05.861,11,0,0,16.285,55.884975,-4.271859,0.00,0.00,0.00,1.50,-0.50,-29.60,0,1,0,90,100,-7662,2995,16285,3003.50,13,P-GPS,1,0,0,0,0,0,0,1664454845861,4056,4036,4055,4083,0,0,27,,,,,,,0,0,0,-15.00,-5.00,-296.00,0.00,0.00,-333.00,6,128.00,0.00,43.38,0.00,0.00,0.00,0,,,100,100,0,2,0,0,0,2,0,,,,,0.0,0.0,0.0,0.0,0.0,0.0,0
55.884955,-4.271918,12.80,0.00,0.00,4.33,12.80,12.80,4.21,4.62,9297,2022-09-29 12:34:05.961,2022-09-29 13:34:05.961,12,0,0,16.285,55.884975,-4.271859,0.00,0.00,0.00,1.60,-0.40,-29.70,0,1,0,90,100,-7662,2995,16285,3003.50,13,P-GPS,1,0,0,0,0,0,0,1664454845961,4056,4036,4055,4083,0,0,27,,,,,,,0,0,0,-16.00,-4.00,-297.00,0.00,0.00,-333.00,6,128.00,0.00,43.34,0.00,0.00,0.00,0,,,100,100,0,2,0,0,0,2,0,,,,,0.0,0.0,0.0,0.0,0.0,0.0,0
55.884955,-4.271918,12.80,0.00,0.00,4.34,12.80,12.80,4.21,4.62,9390,2022-09-29 12:34:06.055,2022-09-29 13:34:06.054,12,0,0,16.090,55.884975,-4.271859,0.00,0.00,0.00,1.50,-0.20,-29.70,0,1,0,90,100,-5989,2994,16090,3003.50,13,P-GPS,1,0,0,0,0,0,0,1664454846054,4056,4036,4055,4083,0,0,27,,,,,,,0,0,0,-15.00,-2.00,-297.00,0.00,0.00,-333.00,6,128.00,0.00,43.41,0.00,0.00,0.00,0,,,100,100,0,2,0,0,0,2,0,,,,,0.0,0.0,0.0,0.0,0.0,0.0,0
55.884955,-4.271918,12.80,0.00,0.00,4.34,12.80,12.80,4.21,4.62,9494,2022-09-29 12:34:06.158,2022-09-29 13:34:06.158,12,0,0,16.090,55.884975,-4.271859,0.00,0.00,0.00,1.40,-0.10,-29.80,0,1,0,90,100,-5989,2994,16090,3003.50,13,P-GPS,1,0,0,0,0,0,0,1664454846158,4056,4036,4055,4083,0,0,27,,,,,,,0,0,0,-14.00,-1.00,-298.00,0.00,0.00,-333.00,6,128.00,0.00,43.37,0.00,0.00,0.00,0,,,100,100,0,2,0,0,0,2,0,,,,,0.0,0.0,0.0,0.0,0.0,0.0,0
55.884955,-4.271918,12.80,0.00,0.00,4.34,12.80,12.80,4.21,4.62,9603,2022-09-29 12:34:06.267,2022-09-29 13:34:06.267,12,0,0,16.090,55.884975,-4.271859,0.00,0.00,0.00,1.30,-0.40,-29.60,0,1,0,90,100,-5989,2994,16090,3003.50,13,P-GPS,1,0,0,0,0,0,0,1664454846267,4056,4036,4055,4083,0,0,27,,,,,,,0,0,0,-13.00,-4.00,-296.00,0.00,0.00,-333.00,6,128.00,0.00,43.36,0.00,0.00,0.00,0,,,100,100,0,2,0,0,0,2,0,,,,,0.0,0.0,0.0,0.0,0.0,0.0,0
55.884954,-4.271917,12.80,0.00,0.00,4.33,12.80,12.80,4.21,4.62,9703,2022-09-29 12:34:06.368,2022-09-29 13:34:06.367,12,0,0,16.090,55.884975,-4.271859,0.00,0.00,0.00,1.30,-0.60,-29.50,0,1,0,90,100,-5989,2994,16090,3003.50,13,P-GPS,1,0,0,0,0,0,0,1664454846367,4056,4036,4055,4083,0,0,27,,,,,,,0,0,0,-13.00,-6.00,-295.00,0.00,0.00,-333.00,6,128.00,0.00,43.31,0.00,0.00,0.00,0,,,100,100,0,2,0,0,0,2,0,,,,,0.0,0.0,0.0,0.0,0.0,0.0,0
55.884954,-4.271917,12.80,0.00,0.00,4.33,12.80,12.80,4.21,4.62,9810,2022-09-29 12:34:06.476,2022-09-29 13:34:06.474,12,0,0,16.090,55.884975,-4.271859,0.00,0.00,0.00,1.10,-0.90,-29.50,0,1,0,90,100,-5989,2994,16090,3003.50,13,P-GPS,1,0,0,0,0,0,0,1664454846474,4056,4036,4055,4083,0,0,27,,,,,,,0,0,0,-11.00,-9.00,-295.00,0.00,0.00,-333.00,6,128.00,0.00,43.35,0.00,0.00,0.00,0,,,100,100,0,2,0,0,0,2,0,,,,,0.0,0.0,0.0,0.0,0.0,0.0,0
55.884954,-4.271917,12.80,0.00,0.00,4.33,12.80,12.80,4.21,4.62,9904,2022-09-29 12:34:06.568,2022-09-29 13:34:06.568,12,0,0,16.090,55.884975,-4.271859,0.00,0.00,0.00,1.00,-1.00,-29.50,0,1,0,90,100,-5989,2994,16090,3003.50,13,P-GPS,1,0,0,0,0,0,0,1664454846568,4056,4036,4055,4083,0,0,27,,,,,,,0,0,0,-10.00,-10.00,-295.00,0.00,0.00,-333.00,6,128.00,0.00,43.30,0.00,0.00,0.00,0,,,100,100,0,2,0,0,0,2,0,,,,,0.0,0.0,0.0,0.0,0.0,0.0,0
55.884954,-4.271917,12.80,0.00,0.00,4.33,12.80,12.80,4.21,4.62,10005,2022-09-29 12:34:06.669,2022-09-29 13:34:06.669,12,0,0,16.090,55.884975,-4.271859,0.00,0.00,0.00,0.70,-1.10,-29.40,0,1,0,90,100,-5989,2994,16090,3003.50,13,P-GPS,1,0,0,0,0,0,0,1664454846669,4056,4036,4055,4083,0,0,27,,,,,,,0,0,0,-7.00,-11.00,-294.00,0.00,0.00,-333.00,6,128.00,0.00,43.30,0.00,0.00,0.00,0,,,100,100,0,2,0,0,0,2,0,,,,,0.0,0.0,0.0,0.0,0.0,0.0,0
55.884954,-4.271917,12.80,0.00,0.00,4.33,12.80,12.80,4.21,4.62,10097,2022-09-29 12:34:06.761,2022-09-29 13:34:06.761,12,0,0,16.090,55.884975,-4.271859,0.00,0.00,0.00,0.50,-1.20,-29.50,0,1,0,90,100,-5989,2994,16090,3003.50,13,P-GPS,1,0,0,0,0,0,0,1664454846761,4056,4036,4055,4083,0,0,27,,,,,,,0,0,0,-5.00,-12.00,-295.00,0.00,0.00,-333.00,6,128.00,0.00,43.27,0.00,0.00,0.00,0,,,100,100,0,2,0,0,0,2,0,,,,,0.0,0.0,0.0,0.0,0.0,0.0,0
55.884954,-4.271917,12.80,0.00,0.00,4.35,12.80,12.80,4.21,4.62,10209,2022-09-29 12:34:06.873,2022-09-29 13:34:06.873,12,0,0,16.090,55.884975,-4.271859,0.00,0.00,0.00,0.30,-1.20,-29.40,0,1,0,90,100,-5989,2994,16090,3003.50,13,P-GPS,1,0,0,0,0,0,0,1664454846873,4056,4036,4055,4083,0,0,27,,,,,,,0,0,0,-3.00,-12.00,-294.00,0.00,0.00,-333.00,6,128.00,0.00,43.48,0.00,0.00,0.00,0,,,100,100,0,2,0,0,0,2,0,,,,,0.0,0.0,0.0,0.0,0.0,0.0,0
55.884954,-4.271917,12.80,0.00,0.00,4.35,12.80,12.80,4.21,4.62,10299,2022-09-29 12:34:06.963,2022-09-29 13:34:06.963,12,0,0,16.090,55.884975,-4.271859,0.00,0.00,0.00,0.30,-1.00,-29.40,0,1,0,90,100,-5989,2994,16090,3003.50,13,P-GPS,1,0,0,0,0,0,0,1664454846963,4056,4036,4055,4083,0,0,27,,,,,,,0,0,0,-3.00,-10.00,-294.00,0.00,0.00,-333.00,6,128.00,0.00,43.50,0.00,0.00,0.00,0,,,100,100,0,2,0,0,0,2,0,,,,,0.0,0.0,0.0,0.0,0.0,0.0,0
55.884954,-4.271917,12.80,0.00,0.00,4.36,12.80,12.80,4.21,4.62,10396,2022-09-29 12:34:07.060,2022-09-29 13:34:07.060,12,0,0,16.090,55.884975,-4.271859,0.00,0.00,0.00,0.20,-1.00,-29.40,0,1,0,90,100,-5989,2994,16090,3003.50,13,P-GPS,1,0,0,0,0,0,0,1664454847060,4056,4036,4055,4083,0,0,27,,,,,,,0,0,0,-2.00,-10.00,-294.00,0.00,0.00,-333.00,6,128.00,0.00,43.58,0.00,0.00,0.00,0,,,100,100,0,2,0,0,0,2,0,,,,,0.0,0.0,0.0,0.0,0.0,0.0,0
55.884954,-4.271917,12.80,0.00,0.00,4.36,12.80,12.80,4.21,4.62,10495,2022-09-29 12:34:07.160,2022-09-29 13:34:07.159,12,0,0,16.090,55.884975,-4.271859,0.00,0.00,0.00,0.10,-0.90,-29.30,0,1,0,90,100,-5989,2994,16090,3003.50,13,P-GPS,1,0,0,0,0,0,0,1664454847159,4056,4036,4055,4083,0,0,27,,,,,,,0,0,0,-1.00,-9.00,-293.00,0.00,0.00,-333.00,6,128.00,0.00,43.61,0.00,0.00,0.00,0,,,100,100,0,2,0,0,0,2,0,,,,,0.0,0.0,0.0,0.0,0.0,0.0,0
55.884954,-4.271917,12.80,0.00,0.00,4.37,12.80,12.80,4.21,4.62,10605,2022-09-29 12:34:07.270,2022-09-29 13:34:07.269,12,0,0,16.090,55.884975,-4.271859,0.00,0.00,0.00,0.20,-0.90,-29.30,0,1,0,90,100,-5989,2994,16090,3003.50,13,P-GPS,1,0,0,0,0,0,0,1664454847269,4056,4036,4055,4083,0,0,27,,,,,,,0,0,0,-2.00,-9.00,-293.00,0.00,0.00,-333.00,6,128.00,0.00,43.72,0.00,0.00,0.00,0,,,100,100,0,2,0,0,0,2,0,,,,,0.0,0.0,0.0,0.0,0.0,0.0,0
55.884953,-4.271917,12.80,0.00,0.00,4.38,12.80,12.80,4.21,4.62,10700,2022-09-29 12:34:07.364,2022-09-29 13:34:07.364,12,0,0,16.090,55.884975,-4.271859,0.00,0.00,0.00,0.20,-1.10,-29.30,0,1,0,90,100,-5989,2994,16090,3003.50,13,P-GPS,1,0,0,-488,0,0,0,1664454847364,4056,4036,4055,4083,0,0,27,,,,,,,0,0,0,-2.00,-11.00,-293.00,0.00,0.00,-333.00,6,128.00,0.00,43.76,0.00,0.00,0.00,0,,,100,100,0,2,0,0,0,2,0,,,,,0.0,0.0,0.0,0.0,0.0,0.0,0
55.884953,-4.271917,12.90,0.00,0.00,4.37,12.90,12.90,4.21,4.62,10805,2022-09-29 12:34:07.469,2022-09-29 13:34:07.469,12,0,0,16.090,55.884975,-4.271859,0.00,0.00,0.00,0.40,-6.20,-29.30,0,1,0,90,100,-5989,2994,16090,3003.50,13,P-GPS,1,0,0,-660,0,0,0,1664454847469,4056,4036,4055,4083,0,0,27,,,,,,,0,0,0,-4.00,-62.00,-293.00,0.00,0.00,-333.00,6,129.00,0.00,43.73,0.00,0.00,0.00,0,,,100,100,0,2,0,0,0,2,0,,,,,0.0,0.0,0.0,0.0,0.0,0.0,0
55.884953,-4.271917,12.90,0.00,0.10,4.38,12.90,12.90,4.21,4.62,10907,2022-09-29 12:34:07.572,2022-09-29 13:34:07.571,12,0,0,16.090,55.884975,-4.271859,0.00,-0.10,0.00,0.40,-13.00,-29.30,0,1,0,90,100,-5989,2994,16090,3003.50,13,P-GPS,1,0,0,-660,0,0,0,1664454847571,4056,4036,4055,4083,0,0,27,,,,,,,0,0,0,-4.00,-130.00,-293.00,0.00,0.00,-333.00,6,129.00,1.00,43.85,0.00,-1.00,0.00,0,,,100,100,0,2,0,0,0,2,0,,,,,0.0,0.0,0.0,0.0,0.0,0.0,0
55.884953,-4.271917,12.90,0.00,0.32,4.40,12.90,12.90,4.21,4.62,11003,2022-09-29 12:34:07.667,2022-09-29 13:34:07.667,12,0,0,16.090,55.884975,-4.271859,-0.10,-0.30,0.00,0.40,-17.30,-29.30,0,1,0,90,100,-5989,2994,16090,3003.50,13,P-GPS,1,0,0,-660,0,0,0,1664454847667,4056,4036,4055,4083,0,0,27,,,,,,,0,0,0,-4.00,-173.00,-293.00,0.00,0.00,-333.00,6,129.00,3.16,43.97,-1.00,-3.00,0.00,0,,,100,100,0,2,0,0,0,2,0,,,,,0.0,0.0,0.0,0.0,0.0,0.0,0
55.884953,-4.271918,12.90,0.00,0.58,4.45,12.90,12.90,4.21,4.62,11100,2022-09-29 12:34:07.765,2022-09-29 13:34:07.764,12,0,0,16.090,55.884975,-4.271859,-0.30,-0.50,0.00,0.40,-19.20,-29.30,0,1,0,90,100,-5989,2994,16090,3003.50,13,P-GPS,1,0,0,-660,0,0,0,1664454847764,4056,4036,4055,4083,0,0,27,,,,,,,0,0,0,-4.00,-192.00,-293.00,0.00,0.00,-333.00,6,129.00,5.83,44.52,-3.00,-5.00,0.00,0,,,100,100,0,2,0,0,0,2,0,,,,,0.0,0.0,0.0,0.0,0.0,0.0,0
55.884953,-4.271919,12.90,0.00,0.89,4.54,12.90,12.90,4.21,4.62,11202,2022-09-29 12:34:07.867,2022-09-29 13:34:07.866,12,0,0,16.090,55.884975,-4.271859,-0.40,-0.80,0.00,0.40,-19.70,-29.30,0,1,0,90,100,-5989,2994,16090,3003.50,13,P-GPS,1,0,0,-660,0,0,0,1664454847866,4056,4036,4055,4083,0,0,27,,,,,,,0,0,0,-4.00,-197.00,-293.00,0.00,0.00,-333.00,6,129.00,8.94,45.36,-4.00,-8.00,0.00,0,,,100,100,0,2,0,0,0,2,0,,,,,0.0,0.0,0.0,0.0,0.0,0.0,0
55.884952,-4.271921,12.90,0.00,1.25,4.65,12.90,12.90,4.21,4.65,11296,2022-09-29 12:34:07.960,2022-09-29 13:34:07.960,12,0,0,16.090,55.884975,-4.271859,-0.60,-1.10,0.00,0.60,-19.70,-29.40,0,1,0,90,100,-5989,2994,16090,3003.50,13,P-GPS,1,0,0,-660,0,0,0,1664454847960,4056,4036,4055,4083,0,0,27,,,,,,,0,0,0,-6.00,-197.00,-294.00,0.00,0.00,-333.00,6,129.00,12.53,46.53,-6.00,-11.00,0.00,0,,,100,100,0,2,0,0,0,2,0,,,,,0.0,0.0,0.0,0.0,0.0,0.0,0
55.884952,-4.271923,12.90,0.00,1.48,4.81,12.90,12.90,4.21,4.81,11405,2022-09-29 12:34:08.069,2022-09-29 13:34:08.069,12,0,0,16.090,55.884975,-4.271859,-0.70,-1.30,0.00,0.90,-19.60,-29.40,0,1,0,90,100,-6924,2992,16090,3004.50,13,P-GPS,1,0,0,-660,0,0,0,1664454848069,4006,3990,4007,4042,0,0,27,,,,,,,0,0,0,-9.00,-196.00,-294.00,0.00,0.00,-333.00,6,129.00,14.76,48.11,-7.00,-13.00,0.00,0,,,100,100,0,2,0,0,0,2,0,,,,,0.0,0.0,0.0,0.0,0.0,0.0,0
55.884951,-4.271926,12.90,0.00,1.79,4.99,12.90,12.90,4.21,4.99,11511,2022-09-29 12:34:08.175,2022-09-29 13:34:08.175,12,0,0,16.090,55.884975,-4.271859,-0.80,-1.60,0.00,1.00,-19.50,-29.50,0,1,0,90,100,-6924,2992,16090,3004.50,13,P-GPS,1,0,0,-660,0,0,0,1664454848175,4006,3990,4007,4042,0,0,27,,,,,,,0,0,0,-10.00,-195.00,-295.00,0.00,0.00,-333.00,6,129.00,17.89,49.91,-8.00,-16.00,0.00,0,,,100,100,0,2,0,0,0,2,0,,,,,0.0,0.0,0.0,0.0,0.0,0.0,0
55.884950,-4.271929,12.90,0.00,2.15,5.20,12.90,12.90,4.21,5.20,11599,2022-09-29 12:34:08.263,2022-09-29 13:34:08.263,12,0,0,16.090,55.884975,-4.271859,-1.00,-1.90,0.00,1.00,-19.60,-29.60,0,1,0,90,100,-6924,2992,16090,3004.50,13,P-GPS,1,0,0,-660,0,0,0,1664454848263,4006,3990,4007,4042,0,0,27,,,,,,,0,0,0,-10.00,-196.00,-296.00,0.00,0.00,-333.00,6,129.00,21.47,52.04,-10.00,-19.00,0.00,0,,,100,100,0,2,0,0,0,2,0,,,,,0.0,0.0,0.0,0.0,0.0,0.0,0
55.884949,-4.271932,12.90,0.00,2.37,5.44,12.90,12.90,4.21,5.44,11699,2022-09-29 12:34:08.363,2022-09-29 13:34:08.363,12,0,0,16.090,55.884975,-4.271859,-1.10,-2.10,0.00,1.00,-19.50,-29.70,0,1,0,90,100,-6924,2992,16090,3004.50,13,P-GPS,1,0,0,-660,0,0,0,1664454848363,4006,3990,4007,4042,0,0,27,,,,,,,0,0,0,-10.00,-195.00,-297.00,0.00,0.00,-333.00,6,129.00,23.71,54.43,-11.00,-21.00,0.00,0,,,100,100,0,2,0,0,0,2,0,,,,,0.0,0.0,0.0,0.0,0.0,0.0,0
55.884948,-4.271935,12.90,0.00,2.73,5.69,12.90,12.90,4.21,5.69,11807,2022-09-29 12:34:08.472,2022-09-29 13:34:08.471,12,0,0,16.090,55.884975,-4.271859,-1.30,-2.40,0.00,0.90,-19.20,-29.60,0,1,0,90,100,-6924,2992,16090,3004.50,13,P-GPS,1,0,0,-660,0,0,0,1664454848471,4006,3990,4007,4042,0,0,27,,,,,,,0,0,0,-9.00,-192.00,-296.00,0.00,0.00,-333.00,6,129.00,27.29,56.88,-13.00,-24.00,0.00,0,,,100,100,0,2,0,0,0,2,0,,,,,0.0,0.0,0.0,0.0,0.0,0.0,0
55.884946,-4.271940,12.90,0.00,2.95,5.98,12.90,12.90,4.21,5.98,11902,2022-09-29 12:34:08.567,2022-09-29 13:34:08.566,12,0,0,16.090,55.884975,-4.271859,-1.40,-2.60,0.00,0.90,-18.80,-29.60,0,1,0,90,100,-6924,2992,16090,3004.50,13,P-GPS,1,0,0,-660,0,0,0,1664454848566,4006,3990,4007,4042,0,0,27,,,,,,,0,0,0,-9.00,-188.00,-296.00,0.00,0.00,-333.00,6,129.00,29.53,59.82,-14.00,-26.00,0.00,0,,,100,100,0,2,0,0,0,2,0,,,,,0.0,0.0,0.0,0.0,0.0,0.0,0
55.884945,-4.271944,12.90,0.00,3.26,6.33,12.90,12.90,4.21,6.33,11997,2022-09-29 12:34:08.661,2022-09-29 13:34:08.661,12,0,0,16.090,55.884975,-4.271859,-1.50,-2.90,0.00,1.00,-18.40,-29.70,0,1,0,90,100,-6924,2992,16090,3004.50,13,P-GPS,1,0,0,-660,0,0,0,1664454848661,4006,3990,4007,4042,0,0,27,,,,,,,0,0,0,-10.00,-184.00,-297.00,0.00,0.00,-333.00,6,129.00,32.65,63.31,-15.00,-29.00,0.00,0,,,100,100,0,2,0,0,0,2,0,,,,,0.0,0.0,0.0,0.0,0.0,0.0,0
55.884943,-4.271949,12.90,0.00,3.49,6.68,12.90,12.90,4.21,6.68,12105,2022-09-29 12:34:08.769,2022-09-29 13:34:08.769,12,0,0,16.090,55.884975,-4.271859,-1.60,-3.10,0.00,1.10,-18.10,-29.70,0,1,0,90,100,-6924,2992,16090,3004.50,13,P-GPS,1,0,0,-660,0,0,0,1664454848769,4006,3990,4007,4042,0,0,27,,,,,,,0,0,0,-11.00,-181.00,-297.00,0.00,0.00,-333.00,6,129.00,34.89,66.79,-16.00,-31.00,0.00,0,,,100,100,0,2,0,0,0,2,0,,,,,0.0,0.0,0.0,0.0,0.0,0.0,0
55.884942,-4.271954,12.90,0.00,3.76,7.03,12.90,12.90,4.21,7.03,12201,2022-09-29 12:34:08.865,2022-09-29 13:34:08.865,12,0,0,16.090,55.884975,-4.271859,-1.80,-3.30,0.00,1.20,-18.00,-29.70,0,1,0,90,100,-6924,2992,16090,3004.50,13,P-GPS,1,0,0,-660,0,0,0,1664454848865,4006,3990,4007,4042,0,0,27,,,,,,,0,0,0,-12.00,-180.00,-297.00,0.00,0.00,-333.00,6,129.00,37.59,70.27,-18.00,-33.00,0.00,0,,,100,100,0,2,0,0,0,2,0,,,,,0.0,0.0,0.0,0.0,0.0,0.0,0
55.884940,-4.271960,12.90,0.00,3.98,7.42,12.90,12.90,4.21,7.42,12294,2022-09-29 12:34:08.959,2022-09-29 13:34:08.958,12,0,0,16.090,55.884975,-4.271859,-1.90,-3.50,0.00,0.90,-17.70,-29.80,0,1,0,90,100,-6924,2992,16090,3004.50,13,P-GPS,1,0,0,-660,0,0,0,1664454848958,4006,3990,4007,4042,0,0,27,,,,,,,0,0,0,-9.00,-177.00,-298.00,0.00,0.00,-333.00,6,129.00,39.82,74.19,-19.00,-35.00,0.00,0,,,100,100,0,2,0,0,0,2,0,,,,,0.0,0.0,0.0,0.0,0.0,0.0,0
55.884938,-4.271965,12.90,0.00,4.21,7.84,12.90,12.90,4.21,7.84,12407,2022-09-29 12:34:09.071,2022-09-29 13:34:09.071,12,0,0,15.972,55.884975,-4.271859,-2.00,-3.70,0.00,1.00,-17.40,-29.70,0,1,0,90,100,-7262,2988,15972,3004.50,13,P-GPS,1,0,0,-621,0,0,0,1664454849071,4006,3990,4007,4042,0,0,27,,,,,,,0,0,0,-10.00,-174.00,-297.00,0.00,0.00,-333.00,6,129.00,42.06,78.42,-20.00,-37.00,0.00,0,,,100,100,0,2,0,0,0,2,0,,,,,0.0,0.0,0.0,0.0,0.0,0.0,0
55.884936,-4.271971,12.90,0.00,4.43,8.28,12.90,12.90,4.43,8.28,12496,2022-09-29 12:34:09.160,2022-09-29 13:34:09.160,12,0,0,15.972,55.884975,-4.271859,-2.10,-3.90,0.00,1.20,-17.10,-29.70,0,1,0,90,100,-7262,2988,15972,3004.50,13,P-GPS,1,0,0,-524,0,0,0,1664454849160,4006,3990,4007,4042,0,0,27,,,,,,,0,0,0,-12.00,-171.00,-297.00,0.00,0.00,-333.00,6,129.00,44.29,82.79,-21.00,-39.00,0.00,0,,,100,100,0,2,0,0,0,2,0,,,,,0.0,0.0,0.0,0.0,0.0,0.0,0
55.884934,-4.271978,12.90,0.00,4.57,8.72,12.90,12.90,4.57,8.72,12602,2022-09-29 12:34:09.266,2022-09-29 13:34:09.266,12,0,0,15.972,55.884975,-4.271859,-2.20,-4.00,0.00,1.30,-17.00,-29.80,0,1,0,90,100,-7262,2988,15972,3004.50,13,P-GPS,1,0,0,-484,0,0,0,1664454849266,4006,3990,4007,4042,0,0,27,,,,,,,0,0,0,-13.00,-170.00,-298.00,0.00,0.00,-333.00,6,129.00,45.65,87.23,-22.00,-40.00,0.00,0,,,100,100,0,2,0,0,0,2,0,,,,,0.0,0.0,0.0,0.0,0.0,0.0,0
55.884932,-4.271984,12.90,0.00,4.79,9.20,12.90,12.90,4.79,9.20,12693,2022-09-29 12:34:09.357,2022-09-29 13:34:09.357,12,0,0,15.972,55.884975,-4.271859,-2.30,-4.20,0.00,1.20,-16.70,-29.80,0,1,0,90,100,-7262,2988,15972,3004.50,13,P-GPS,1,0,0,-484,0,0,0,1664454849357,4006,3990,4007,4042,0,0,27,,,,,,,0,0,0,-12.00,-167.00,-298.00,0.00,0.00,-333.00,6,129.00,47.89,91.97,-23.00,-42.00,0.00,0,,,100,100,0,2,0,0,0,2,0,,,,,0.0,0.0,0.0,0.0,0.0,0.0,0
55.884930,-4.271991,12.90,0.00,5.01,9.70,12.90,12.90,5.01,9.70,12798,2022-09-29 12:34:09.462,2022-09-29 13:34:09.462,12,0,0,15.972,55.884975,-4.271859,-2.40,-4.40,0.00,1.30,-16.10,-29.70,0,1,0,90,100,-7262,2988,15972,3004.50,13,P-GPS,1,0,0,-483,0,0,0,1664454849462,4006,3990,4007,4042,0,0,27,,,,,,,0,0,0,-13.00,-161.00,-297.00,0.00,0.00,-333.00,6,129.00,50.12,97.00,-24.00,-44.00,0.00,0,,,100,100,0,2,0,0,0,2,0,,,,,0.0,0.0,0.0,0.0,0.0,0.0,0
55.884928,-4.271998,12.90,0.00,5.10,10.21,12.90,12.90,5.10,10.21,12896,2022-09-29 12:34:09.560,2022-09-29 13:34:09.560,12,0,0,15.972,55.884975,-4.271859,-2.40,-4.50,0.00,1.70,-15.30,-29.80,0,1,0,90,100,-7262,2988,15972,3004.50,13,P-GPS,1,0,0,-293,0,0,0,1664454849560,4006,3990,4007,4042,0,0,27,,,,,,,0,0,0,-17.00,-153.00,-298.00,0.00,0.00,-333.00,6,129.00,51.00,102.10,-24.00,-45.00,0.00,0,,,100,100,0,2,0,0,0,2,0,,,,,0.0,0.0,0.0,0.0,0.0,0.0,0
55.884925,-4.272005,12.90,0.00,5.24,10.73,12.90,12.90,5.24,10.73,12999,2022-09-29 12:34:09.664,2022-09-29 13:34:09.663,12,0,0,15.972,55.884975,-4.271859,-2.50,-4.60,0.00,2.20,-10.30,-29.70,0,1,0,90,100,-7262,2988,15972,3004.50,13,P-GPS,1,0,0,-105,0,0,0,1664454849663,4006,3990,4007,4042,0,0,27,,,,,,,0,0,0,-22.00,-103.00,-297.00,0.00,0.00,-333.00,6,129.00,52.35,107.26,-25.00,-46.00,0.00,0,,,100,100,0,2,0,0,0,2,0,,,,,0.0,0.0,0.0,0.0,0.0,0.0,0
55.884923,-4.272013,12.90,0.00,5.32,11.26,12.90,12.90,5.32,11.26,13100,2022-09-29 12:34:09.764,2022-09-29 13:34:09.764,12,0,0,15.972,55.884975,-4.271859,-2.50,-4.70,0.00,2.10,-3.30,-29.50,0,1,0,90,100,-7262,2988,15972,3004.50,13,P-GPS,1,0,0,-49,0,0,0,1664454849764,4006,3990,4007,4042,0,0,27,,,,,,,0,0,0,-21.00,-33.00,-295.00,0.00,0.00,-333.00,6,129.00,53.24,112.60,-25.00,-47.00,0.00,0,,,100,100,0,2,0,0,0,2,0,,,,,0.0,0.0,0.0,0.0,0.0,0.0,0
55.884921,-4.272020,12.90,0.00,5.24,11.79,12.90,12.90,5.32,11.79,13201,2022-09-29 12:34:09.866,2022-09-29 13:34:09.865,12,0,0,15.972,55.884975,-4.271859,-2.50,-4.60,0.00,1.70,2.10,-29.40,0,1,0,90,100,-7262,2988,15972,3004.50,13,P-GPS,1,0,0,0,0,0,0,1664454849865,4006,3990,4007,4042,0,0,27,,,,,,,0,0,0,-17.00,21.00,-294.00,0.00,0.00,-333.00,6,129.00,52.35,117.95,-25.00,-46.00,0.00,0,,,100,100,0,2,0,0,0,2,0,,,,,0.0,0.0,0.0,0.0,0.0,0.0,0
55.884918,-4.272027,12.90,0.00,5.01,12.31,12.90,12.90,5.32,12.31,13290,2022-09-29 12:34:09.954,2022-09-29 13:34:09.954,12,0,0,15.972,55.884975,-4.271859,-2.40,-4.40,0.00,0.70,19.80,-29.80,0,1,0,90,100,-7262,2988,15972,3004.50,13,P-GPS,1,0,0,0,0,0,0,1664454849954,4006,3990,4007,4042,0,0,27,,,,,,,0,0,0,-7.00,198.00,-298.00,0.00,0.00,-333.00,6,129.00,50.12,123.13,-24.00,-44.00,0.00,0,,,100,100,0,2,0,0,0,2,0,,,,,0.0,0.0,0.0,0.0,0.0,0.0,0
55.884916,-4.272034,12.90,0.00,4.52,12.78,12.90,12.90,5.32,12.78,13390,2022-09-29 12:34:10.054,2022-09-29 13:34:10.054,12,0,0,15.975,55.884975,-4.271859,-2.10,-4.00,0.00,0.10,24.90,-29.70,0,1,0,90,100,-7414,2986,15975,3004.50,13,P-GPS,1,0,0,0,0,0,0,1664454850054,4006,3990,4007,4042,0,0,27,,,,,,,0,0,0,-1.00,249.00,-297.00,0.00,0.00,-333.00,6,129.00,45.18,127.79,-21.00,-40.00,0.00,0,,,100,100,0,2,0,0,0,2,0,,,,,0.0,0.0,0.0,0.0,0.0,0.0,0
55.884914,-4.272040,12.90,0.00,4.07,13.21,12.90,12.90,5.32,13.21,13492,2022-09-29 12:34:10.156,2022-09-29 13:34:10.156,12,0,0,15.975,55.884975,-4.271859,-1.90,-3.60,0.00,0.70,24.80,-29.40,0,1,0,90,100,-7414,2986,15975,3004.50,13,P-GPS,1,0,0,0,0,0,0,1664454850156,4006,3990,4007,4042,0,0,27,,,,,,,0,0,0,-7.00,248.00,-294.00,0.00,0.00,-333.00,6,129.00,40.71,132.08,-19.00,-36.00,0.00,0,,,100,100,0,2,0,0,0,2,0,,,,,0.0,0.0,0.0,0.0,0.0,0.0,0
55.884913,-4.272045,12.90,0.00,3.62,13.59,12.90,12.90,5.32,13.59,13588,2022-09-29 12:34:10.252,2022-09-29 13:34:10.252,12,0,0,15.975,55.884975,-4.271859,-1.70,-3.20,0.00,0.90,24.40,-29.40,0,1,0,90,100,-7414,2986,15975,3004.50,13,P-GPS,1,0,0,0,0,0,0,1664454850252,4006,3990,4007,4042,0,0,27,,,,,,,0,0,0,-9.00,244.00,-294.00,0.00,0.00,-333.00,6,129.00,36.24,135.89,-17.00,-32.00,0.00,0,,,100,100,0,2,0,0,0,2,0,,,,,0.0,0.0,0.0,0.0,0.0,0.0,0
55.884911,-4.272050,12.80,0.00,3.13,13.93,12.90,12.90,5.32,13.93,13693,2022-09-29 12:34:10.358,2022-09-29 13:34:10.357,12,0,0,15.983,55.884975,-4.271859,-1.40,-2.80,0.10,0.80,24.10,-29.50,0,1,0,90,100,-7414,2986,15983,3004.50,13,P-GPS,1,0,0,0,0,0,0,1664454850357,4006,3990,4007,4042,0,0,27,,,,,,,0,0,0,-8.00,241.00,-295.00,0.00,0.00,-333.00,6,128.00,31.32,139.25,-14.00,-28.00,1.00,0,,,100,100,0,2,0,0,0,2,0,,,,,0.0,0.0,0.0,0.0,0.0,0.0,0
55.884910,-4.272054,12.80,0.00,2.69,14.20,12.90,12.90,5.32,14.20,13794,2022-09-29 12:34:10.459,2022-09-29 13:34:10.458,12,0,0,15.983,55.884975,-4.271859,-1.20,-2.40,0.10,0.90,25.00,-29.30,0,1,0,90,100,-7414,2986,15983,3004.50,13,P-GPS,1,0,0,0,0,0,0,1664454850458,4006,3990,4007,4042,0,0,27,,,,,,,0,0,0,-9.00,250.00,-293.00,0.00,0.00,-333.00,6,128.00,26.85,141.97,-12.00,-24.00,1.00,0,,,100,100,0,2,0,0,0,2,0,,,,,0.0,0.0,0.0,0.0,0.0,0.0,0
55.884909,-4.272057,12.70,0.00,2.10,14.43,12.90,12.90,5.32,14.43,13895,2022-09-29 12:34:10.560,2022-09-29 13:34:10.559,12,0,0,15.983,55.884975,-4.271859,-0.90,-1.90,0.10,0.70,25.30,-29.30,0,1,0,90,100,-7414,2986,15983,3004.50,13,P-GPS,1,0,0,0,0,0,0,1664454850559,4006,3990,4007,4042,0,0,27,,,,,,,0,0,0,-7.00,253.00,-293.00,0.00,0.00,-333.00,6,127.00,21.05,144.31,-9.00,-19.00,1.00,0,,,100,100,0,2,0,0,0,2,0,,,,,0.0,0.0,0.0,0.0,0.0,0.0,0
55.884908,-4.272060,12.70,0.00,1.53,14.62,12.90,12.90,5.32,14.62,13993,2022-09-29 12:34:10.659,2022-09-29 13:34:10.657,12,0,0,15.983,55.884975,-4.271859,-0.60,-1.40,0.10,-0.10,22.70,-29.40,0,1,0,90,100,-7414,2986,15983,3004.50,13,P-GPS,1,0,0,0,0,0,0,1664454850657,4006,3990,4007,4042,0,0,27,,,,,,,0,0,0,1.00,227.00,-294.00,0.00,0.00,-333.00,6,127.00,15.26,146.25,-6.00,-14.00,1.00,0,,,100,100,0,2,0,0,0,2,0,,,,,0.0,0.0,0.0,0.0,0.0,0.0,0
55.884908,-4.272062,12.70,0.00,1.17,14.76,12.90,12.90,5.32,14.76,14094,2022-09-29 12:34:10.759,2022-09-29 13:34:10.758,12,0,0,15.983,55.884975,-4.271859,-0.40,-1.10,0.00,1.60,18.00,-28.90,0,1,0,90,100,-7414,2986,15983,3004.50,13,P-GPS,1,0,0,0,0,0,0,1664454850758,4006,3990,4007,4042,0,0,27,,,,,,,0,0,0,-16.00,180.00,-289.00,0.00,0.00,-333.00,6,127.00,11.70,147.57,-4.00,-11.00,0.00,0,,,100,100,0,2,0,0,0,2,0,,,,,0.0,0.0,0.0,0.0,0.0,0.0,0
