latitude,longitude,altitude(m),ultrasonicHeight(m),speed(mps),distance(m),max_altitude(m),max_ascent(m),max_speed(mps),max_distance(m),time(millisecond),datetime(utc),datetime(local),satellites,pressure(Pa),temperature(F),voltage(v),home_latitude,home_longitude,velocityX(mps),velocityY(mps),velocityZ(mps),pitch(deg),roll(deg),yaw(deg),powerlevel,isflying,istakingphoto,remainPowerPercent,remainLifePercent,currentCurrent,currentElectricity,currentVoltage,batteryTemperature,dischargeCount,flightmode,isMotorsOn,isTakingVideo,Rc_elevator,Rc_aileron,Rc_throttle,Rc_rudder,Rc_gyro,timestamp,Battery_Cell1,Battery_Cell2,Battery_Cell3,Battery_Cell4,Battery_Cell5,Battery_Cell6,Dronetype,AppVersion,Planename,FlyControllerSerialNumber,RemoteSerialNumber,BatterySerialNumber,CENTER_BATTERY.productDate,CENTER_BATTERY.serialNo,CENTER_BATTERY.fullCapacity,CENTER_BATTERY.productDateRaw,pitchRaw,rollRaw,yawRaw,gimbalPitchRaw,gimbalRollRaw,gimbalYawRaw,flyState,altitudeRaw,speedRaw,distanceRaw,velocityXRaw,velocityYRaw,velocityZRaw,data_reuse,App_Tip,App_Warning,downlinkSignalQuality,uplinkSignalQuality,transmissionChannel,rcModeSwitch,rcHome,rcPause,rcTransform,rcJoystickMode,appMode,FlyControllerSerialNumber_legacy,RemoteSerialNumber_legacy,BatterySerialNumber_legacy,Battery2SerialNumber,frontAvoidDist,backAvoidDist,rightAvoidDist,leftAvoidDist,upAvoidDist,downAvoidDist,isBrakingToAvoid
55.955138,-4.401928,88.20,0.00,0.00,84.89,88.20,88.20,0.00,84.89,0,2022-09-19 10:33:08.902,2022-09-19 11:33:08.902,18,0,0,15.409,55.954469,-4.402580,0.00,0.00,0.00,2.60,-1.80,100.40,0,1,0,0,0,0,0,15409,3076.50,0,P-GPS,1,0,0,0,0,0,0,1663583588902,0,0,0,0,0,0,27,Litchi_4.24.1-g,,,,null,,0,0,0,-26.00,-18.00,1004.00,-899.00,0.00,922.00,6,882.00,0.00,848.93,0.00,0.00,0.00,0,,,100,100,0,2,0,0,0,2,0,,,,null,0.0,0.0,0.0,0.0,0.0,0.0,0
55.955138,-4.401928,88.20,0.00,0.00,84.90,88.20,88.20,0.00,84.90,187,2022-09-19 10:33:09.089,2022-09-19 11:33:09.089,18,0,0,15.409,55.954469,-4.402580,0.00,0.00,0.00,2.70,-1.80,100.40,0,1,0,0,0,0,0,15409,3076.50,0,P-GPS,1,0,0,0,0,0,0,1663583589089,0,0,0,0,0,0,27,Litchi_4.24.1-g,CJTMAVIC,163DFAS001K45C,0VECFAK0072T52,0P2AFAL5340E87,,0,0,0,-27.00,-18.00,1004.00,-899.00,0.00,922.00,6,882.00,0.00,848.97,0.00,0.00,0.00,0,,,100,100,0,2,0,0,0,2,0,,,,null,0.0,0.0,0.0,0.0,0.0,0.0,0
55.955138,-4.401928,88.20,0.00,0.00,84.90,88.20,88.20,0.00,84.90,286,2022-09-19 10:33:09.188,2022-09-19 11:33:09.188,18,0,0,15.409,55.954469,-4.402580,0.00,0.00,0.00,2.70,-1.80,100.40,0,1,0,0,0,0,0,15409,3076.50,0,P-GPS,1,0,0,0,0,0,0,1663583589188,0,0,0,0,0,0,27,,,,,,,0,0,0,-27.00,-18.00,1004.00,-900.00,0.00,922.00,6,882.00,0.00,848.95,0.00,0.00,0.00,0,,,100,100,0,2,0,0,0,2,0,,,,,0.0,0.0,0.0,0.0,0.0,0.0,0
55.955138,-4.401928,88.30,0.00,0.00,84.89,88.30,88.30,0.00,84.90,383,2022-09-19 10:33:09.286,2022-09-19 11:33:09.285,18,0,0,15.409,55.954469,-4.402580,0.00,0.00,0.00,2.80,-1.80,100.40,0,1,0,0,0,0,0,15409,3076.50,0,P-GPS,1,0,0,0,0,0,0,1663583589285,0,0,0,0,0,0,27,,,,,,,0,0,0,-28.00,-18.00,1004.00,-900.00,0.00,922.00,6,883.00,0.00,848.94,0.00,0.00,0.00,0,,,100,100,0,2,0,0,0,2,0,,,,,0.0,0.0,0.0,0.0,0.0,0.0,0
55.955138,-4.401928,88.20,0.00,0.00,84.89,88.30,88.30,0.00,84.90,482,2022-09-19 10:33:09.385,2022-09-19 11:33:09.384,18,0,0,15.409,55.954469,-4.402580,0.00,0.00,0.00,2.90,-1.90,100.30,0,1,0,0,0,0,0,15409,3076.50,0,P-GPS,1,0,0,0,0,0,0,1663583589384,0,0,0,0,0,0,27,,,,,,,0,0,0,-29.00,-19.00,1003.00,-899.00,0.00,922.00,6,882.00,0.00,848.93,0.00,0.00,0.00,0,,,100,100,0,2,0,0,0,2,0,,,,,0.0,0.0,0.0,0.0,0.0,0.0,0
55.955138,-4.401928,88.20,0.00,0.00,84.89,88.30,88.30,0.00,84.90,587,2022-09-19 10:33:09.489,2022-09-19 11:33:09.489,18,0,0,15.409,55.954469,-4.402580,0.00,0.00,0.00,2.80,-1.90,100.40,0,1,0,0,0,0,0,15409,3076.50,0,P-GPS,1,0,0,0,0,0,0,1663583589489,0,0,0,0,0,0,27,,,,,,,0,0,0,-28.00,-19.00,1004.00,-900.00,0.00,922.00,6,882.00,0.00,848.92,0.00,0.00,0.00,0,,,100,100,0,2,0,0,0,2,0,,,,,0.0,0.0,0.0,0.0,0.0,0.0,0
55.955138,-4.401928,88.20,0.00,0.00,84.89,88.30,88.30,0.00,84.90,687,2022-09-19 10:33:09.590,2022-09-19 11:33:09.589,18,0,0,15.409,55.954469,-4.402580,0.00,0.00,0.00,2.80,-1.80,100.40,0,1,0,0,0,0,0,15409,3076.50,0,P-GPS,1,0,0,0,0,0,0,1663583589589,0,0,0,0,0,0,27,,,,,,,0,0,0,-28.00,-18.00,1004.00,-899.00,0.00,922.00,6,882.00,0.00,848.92,0.00,0.00,0.00,0,,,100,100,0,2,0,0,0,2,0,,,,,0.0,0.0,0.0,0.0,0.0,0.0,0
55.955138,-4.401928,88.20,0.00,0.00,84.90,88.30,88.30,0.00,84.90,781,2022-09-19 10:33:09.684,2022-09-19 11:33:09.683,18,0,0,15.409,55.954469,-4.402580,0.00,0.00,0.00,2.80,-1.70,100.40,0,1,0,0,0,0,0,15409,3076.50,0,P-GPS,1,0,0,0,0,0,0,1663583589683,0,0,0,0,0,0,27,,,,,,,0,0,0,-28.00,-17.00,1004.00,-899.00,0.00,922.00,6,882.00,0.00,848.95,0.00,0.00,0.00,0,,,100,100,0,2,0,0,0,2,0,,,,,0.0,0.0,0.0,0.0,0.0,0.0,0
55.955138,-4.401928,88.20,0.00,0.00,84.90,88.30,88.30,0.00,84.90,886,2022-09-19 10:33:09.789,2022-09-19 11:33:09.788,18,0,0,15.409,55.954469,-4.402580,0.00,0.00,0.00,2.90,-1.80,100.40,0,1,0,0,0,0,0,15409,3076.50,0,P-GPS,1,0,0,0,0,0,0,1663583589788,0,0,0,0,0,0,27,,,,,,,0,0,0,-29.00,-18.00,1004.00,-899.00,0.00,922.00,6,882.00,0.00,848.96,0.00,0.00,0.00,0,,,100,100,0,2,0,0,0,2,0,,,,,0.0,0.0,0.0,0.0,0.0,0.0,0
55.955138,-4.401928,88.20,0.00,0.00,84.90,88.30,88.30,0.00,84.90,992,2022-09-19 10:33:09.894,2022-09-19 11:33:09.894,18,0,0,15.404,55.954469,-4.402580,0.00,0.00,0.00,3.00,-1.80,100.30,0,1,0,64,100,-7396,2105,15404,3076.50,11,P-GPS,1,0,0,0,0,0,0,1663583589894,0,0,0,0,0,0,27,,,,,,,0,0,0,-30.00,-18.00,1003.00,-899.00,0.00,922.00,6,882.00,0.00,848.98,0.00,0.00,0.00,0,,,100,100,0,2,0,0,0,2,0,,,,,0.0,0.0,0.0,0.0,0.0,0.0,0
55.955138,-4.401928,88.20,0.00,0.00,84.90,88.30,88.30,0.00,84.90,1089,2022-09-19 10:33:09.992,2022-09-19 11:33:09.991,18,0,0,15.404,55.954469,-4.402580,0.00,0.00,0.00,3.00,-1.80,100.40,0,1,0,64,100,-7396,2105,15404,3076.50,11,P-GPS,1,0,0,0,0,0,0,1663583589991,0,0,0,0,0,0,27,,,,,,,0,0,0,-30.00,-18.00,1004.00,-899.00,0.00,922.00,6,882.00,0.00,848.99,0.00,0.00,0.00,0,,,100,100,0,2,0,0,0,2,0,,,,,0.0,0.0,0.0,0.0,0.0,0.0,0
55.955138,-4.401928,88.20,0.00,0.00,84.88,88.30,88.30,0.00,84.90,1181,2022-09-19 10:33:10.084,2022-09-19 11:33:10.083,18,0,0,15.404,55.954469,-4.402580,0.00,0.00,0.00,2.90,-1.70,100.40,0,1,0,64,100,-7396,2105,15404,3076.50,11,P-GPS,1,0,0,0,0,0,0,1663583590083,0,0,0,0,0,0,27,,,,,,,0,0,0,-29.00,-17.00,1004.00,-900.00,0.00,922.00,6,882.00,0.00,848.80,0.00,0.00,0.00,0,,,100,100,0,2,0,0,0,2,0,,,,,0.0,0.0,0.0,0.0,0.0,0.0,0
55.955138,-4.401928,88.20,0.00,0.00,84.88,88.30,88.30,0.00,84.90,1289,2022-09-19 10:33:10.191,2022-09-19 11:33:10.191,18,0,0,15.404,55.954469,-4.402580,0.00,0.00,0.00,2.80,-1.70,100.40,0,1,0,64,100,-7396,2105,15404,3076.50,11,P-GPS,1,0,0,0,0,0,0,1663583590191,0,0,0,0,0,0,27,,,,,,,0,0,0,-28.00,-17.00,1004.00,-900.00,0.00,922.00,6,882.00,0.00,848.79,0.00,0.00,0.00,0,,,100,100,0,2,0,0,0,2,0,,,,,0.0,0.0,0.0,0.0,0.0,0.0,0
55.955138,-4.401928,88.20,0.00,0.00,84.88,88.30,88.30,0.00,84.90,1387,2022-09-19 10:33:10.290,2022-09-19 11:33:10.289,18,0,0,15.404,55.954469,-4.402580,0.00,0.00,0.00,2.80,-1.60,100.40,0,1,0,64,100,-7396,2105,15404,3076.50,11,P-GPS,1,0,0,0,0,0,0,1663583590289,0,0,0,0,0,0,27,,,,,,,0,0,0,-28.00,-16.00,1004.00,-900.00,0.00,922.00,6,882.00,0.00,848.81,0.00,0.00,0.00,0,,,100,100,0,2,0,0,0,2,0,,,,,0.0,0.0,0.0,0.0,0.0,0.0,0
55.955138,-4.401928,88.20,0.00,0.00,84.88,88.30,88.30,0.00,84.90,1486,2022-09-19 10:33:10.389,2022-09-19 11:33:10.388,18,0,0,15.404,55.954469,-4.402580,0.00,0.00,0.00,2.80,-1.50,100.40,0,1,0,64,100,-7396,2105,15404,3076.50,11,P-GPS,1,0,0,0,0,0,0,1663583590388,0,0,0,0,0,0,27,,,,,,,0,0,0,-28.00,-15.00,1004.00,-900.00,0.00,922.00,6,882.00,0.00,848.81,0.00,0.00,0.00,0,,,100,100,0,2,0,0,0,2,0,,,,,0.0,0.0,0.0,0.0,0.0,0.0,0
55.955138,-4.401928,88.20,0.00,0.00,84.90,88.30,88.30,0.00,84.90,1594,2022-09-19 10:33:10.496,2022-09-19 11:33:10.496,18,0,0,15.404,55.954469,-4.402580,0.00,0.00,0.00,2.70,-1.50,100.40,0,1,0,64,100,-7396,2105,15404,3076.50,11,P-GPS,1,0,0,0,0,0,0,1663583590496,0,0,0,0,0,0,27,,,,,,,0,0,0,-27.00,-15.00,1004.00,-899.00,0.00,922.00,6,882.00,0.00,849.02,0.00,0.00,0.00,0,,,100,100,0,2,0,0,0,2,0,,,,,0.0,0.0,0.0,0.0,0.0,0.0,0
55.955138,-4.401928,88.20,0.00,0.00,84.90,88.30,88.30,0.00,84.90,1684,2022-09-19 10:33:10.587,2022-09-19 11:33:10.587,18,0,0,15.404,55.954469,-4.402580,0.00,0.00,0.00,2.80,-1.50,100.40,0,1,0,64,100,-7396,2105,15404,3076.50,11,P-GPS,1,0,0,0,0,0,0,1663583590586,0,0,0,0,0,0,27,,,,,,,0,0,0,-28.00,-15.00,1004.00,-899.00,0.00,922.00,6,882.00,0.00,849.04,0.00,0.00,0.00,0,,,100,100,0,2,0,0,0,2,0,,,,,0.0,0.0,0.0,0.0,0.0,0.0,0
55.955138,-4.401928,88.20,0.00,0.00,84.90,88.30,88.30,0.00,84.90,1800,2022-09-19 10:33:10.703,2022-09-19 11:33:10.702,18,0,0,15.404,55.954469,-4.402580,0.00,0.00,0.00,2.80,-1.60,100.40,0,1,0,64,100,-7396,2105,15404,3076.50,11,P-GPS,1,0,0,0,0,0,0,1663583590702,0,0,0,0,0,0,27,,,,,,,0,0,0,-28.00,-16.00,1004.00,-899.00,0.00,922.00,6,882.00,0.00,849.01,0.00,0.00,0.00,0,,,100,100,0,2,0,0,0,2,0,,,,,0.0,0.0,0.0,0.0,0.0,0.0,0
55.955138,-4.401928,88.20,0.00,0.00,84.90,88.30,88.30,0.00,84.90,1890,2022-09-19 10:33:10.793,2022-09-19 11:33:10.792,18,0,0,15.404,55.954469,-4.402580,0.00,0.00,0.00,2.90,-1.60,100.40,0,1,0,64,100,-7396,2105,15404,3076.50,11,P-GPS,1,0,0,0,0,0,0,1663583590792,0,0,0,0,0,0,27,,,,,,,0,0,0,-29.00,-16.00,1004.00,-899.00,0.00,922.00,6,882.00,0.00,849.02,0.00,0.00,0.00,0,,,100,100,0,2,0,0,0,2,0,,,,,0.0,0.0,0.0,0.0,0.0,0.0,0
55.955138,-4.401928,88.20,0.00,0.00,84.90,88.30,88.30,0.00,84.90,1997,2022-09-19 10:33:10.899,2022-09-19 11:33:10.899,18,0,0,15.407,55.954469,-4.402580,0.00,0.00,0.00,2.80,-1.50,100.40,0,1,0,64,100,-7407,2103,15407,3076.50,11,P-GPS,1,0,0,0,0,0,0,1663583590899,0,0,0,0,0,0,27,,,,,,,0,0,0,-28.00,-15.00,1004.00,-900.00,0.00,922.00,6,882.00,0.00,848.99,0.00,0.00,0.00,0,,,100,100,0,2,0,0,0,2,0,,,,,0.0,0.0,0.0,0.0,0.0,0.0,0
55.955138,-4.401928,88.20,0.00,0.00,84.90,88.30,88.30,0.00,84.90,2090,2022-09-19 10:33:10.994,2022-09-19 11:33:10.993,18,0,0,15.407,55.954469,-4.402580,0.00,0.00,0.00,2.80,-1.60,100.40,0,1,0,64,100,-7407,2103,15407,3076.50,11,P-GPS,1,0,0,0,0,0,0,1663583590992,0,0,0,0,0,0,27,,,,,,,0,0,0,-28.00,-16.00,1004.00,-900.00,0.00,922.00,6,882.00,0.00,848.99,0.00,0.00,0.00,0,,,100,100,0,2,0,0,0,2,0,,,,,0.0,0.0,0.0,0.0,0.0,0.0,0
55.955138,-4.401928,88.20,0.00,0.00,84.90,88.30,88.30,0.00,84.90,2202,2022-09-19 10:33:11.105,2022-09-19 11:33:11.104,18,0,0,15.407,55.954469,-4.402580,0.00,0.00,0.00,2.80,-1.60,100.40,0,1,0,64,100,-7407,2103,15407,3076.50,11,P-GPS,1,0,0,0,0,0,0,1663583591104,0,0,0,0,0,0,27,,,,,,,0,0,0,-28.00,-16.00,1004.00,-900.00,0.00,922.00,6,882.00,0.00,849.02,0.00,0.00,0.00,0,,,100,100,0,2,0,0,0,2,0,,,,,0.0,0.0,0.0,0.0,0.0,0.0,0
55.955138,-4.401928,88.30,0.00,0.00,84.90,88.30,88.30,0.00,84.90,2290,2022-09-19 10:33:11.193,2022-09-19 11:33:11.193,18,0,0,15.407,55.954469,-4.402580,0.00,0.00,0.00,2.80,-1.60,100.40,0,1,0,64,100,-7407,2103,15407,3076.50,11,P-GPS,1,0,0,0,0,0,0,1663583591192,0,0,0,0,0,0,27,,,,,,,0,0,0,-28.00,-16.00,1004.00,-899.00,0.00,922.00,6,883.00,0.00,849.02,0.00,0.00,0.00,0,,,100,100,0,2,0,0,0,2,0,,,,,0.0,0.0,0.0,0.0,0.0,0.0,0
55.955138,-4.401928,88.30,0.00,0.00,84.92,88.30,88.30,0.00,84.92,2403,2022-09-19 10:33:11.306,2022-09-19 11:33:11.305,18,0,0,15.407,55.954469,-4.402580,0.00,0.00,0.00,2.80,-1.70,100.40,0,1,0,64,100,-7407,2103,15407,3076.50,11,P-GPS,1,0,0,0,0,0,0,1663583591305,0,0,0,0,0,0,27,,,,,,,0,0,0,-28.00,-17.00,1004.00,-899.00,0.00,922.00,6,883.00,0.00,849.16,0.00,0.00,0.00,0,,,100,100,0,2,0,0,0,2,0,,,,,0.0,0.0,0.0,0.0,0.0,0.0,0
55.955138,-4.401928,88.30,0.00,0.00,84.92,88.30,88.30,0.00,84.92,2583,2022-09-19 10:33:11.485,2022-09-19 11:33:11.485,18,0,0,15.407,55.954469,-4.402580,0.00,0.00,0.00,2.80,-1.60,100.30,0,1,0,64,100,-7407,2103,15407,3076.50,11,P-GPS,1,0,0,0,0,0,0,1663583591485,0,0,0,0,0,0,27,,,,,,,0,0,0,-28.00,-16.00,1003.00,-900.00,0.00,922.00,6,883.00,0.00,849.20,0.00,0.00,0.00,0,,,100,100,0,2,0,0,0,2,0,,,,,0.0,0.0,0.0,0.0,0.0,0.0,0
55.955138,-4.401928,88.30,0.00,0.00,84.92,88.30,88.30,0.00,84.92,2688,2022-09-19 10:33:11.591,2022-09-19 11:33:11.590,18,0,0,15.407,55.954469,-4.402580,0.00,0.00,0.00,2.80,-1.60,100.30,0,1,0,64,100,-7407,2103,15407,3076.50,11,P-GPS,1,0,0,0,0,0,0,1663583591590,0,0,0,0,0,0,27,,,,,,,0,0,0,-28.00,-16.00,1003.00,-899.00,0.00,922.00,6,883.00,0.00,849.23,0.00,0.00,0.00,0,,,100,100,0,2,0,0,0,2,0,,,,,0.0,0.0,0.0,0.0,0.0,0.0,0
55.955138,-4.401928,88.30,0.00,0.00,84.92,88.30,88.30,0.00,84.92,2792,2022-09-19 10:33:11.695,2022-09-19 11:33:11.694,18,0,0,15.407,55.954469,-4.402580,0.00,0.00,0.00,2.80,-1.60,100.30,0,1,0,64,100,-7407,2103,15407,3076.50,11,P-GPS,1,0,0,0,0,0,0,1663583591694,0,0,0,0,0,0,27,,,,,,,0,0,0,-28.00,-16.00,1003.00,-899.00,0.00,922.00,6,883.00,0.00,849.20,0.00,0.00,0.00,0,,,100,100,0,2,0,0,0,2,0,,,,,0.0,0.0,0.0,0.0,0.0,0.0,0
55.955138,-4.401928,88.30,0.00,0.00,84.92,88.30,88.30,0.00,84.92,2892,2022-09-19 10:33:11.794,2022-09-19 11:33:11.794,18,0,0,15.407,55.954469,-4.402580,0.00,0.00,0.00,2.80,-1.50,100.40,0,1,0,64,100,-7407,2103,15407,3076.50,11,P-GPS,1,0,0,0,0,0,0,1663583591794,0,0,0,0,0,0,27,,,,,,,0,0,0,-28.00,-15.00,1004.00,-900.00,0.00,922.00,6,883.00,0.00,849.22,0.00,0.00,0.00,0,,,100,100,0,2,0,0,0,2,0,,,,,0.0,0.0,0.0,0.0,0.0,0.0,0
55.955138,-4.401928,88.30,0.00,0.00,84.92,88.30,88.30,0.00,84.92,2980,2022-09-19 10:33:11.883,2022-09-19 11:33:11.882,18,0,0,15.405,55.954469,-4.402580,0.00,0.00,0.00,2.80,-1.50,100.40,0,1,0,64,100,-7351,2101,15405,3076.50,11,P-GPS,1,0,0,0,0,0,0,1663583591882,0,0,0,0,0,0,27,,,,,,,0,0,0,-28.00,-15.00,1004.00,-899.00,0.00,922.00,6,883.00,0.00,849.19,0.00,0.00,0.00,0,,,100,100,0,2,0,0,0,2,0,,,,,0.0,0.0,0.0,0.0,0.0,0.0,0
55.955138,-4.401928,88.30,0.00,0.00,84.92,88.30,88.30,0.00,84.92,3083,2022-09-19 10:33:11.986,2022-09-19 11:33:11.985,18,0,0,15.405,55.954469,-4.402580,0.00,0.00,0.00,2.70,-1.50,100.40,0,1,0,64,100,-7351,2101,15405,3076.50,11,P-GPS,1,0,0,0,0,0,0,1663583591985,0,0,0,0,0,0,27,,,,,,,0,0,0,-27.00,-15.00,1004.00,-899.00,0.00,922.00,6,883.00,0.00,849.21,0.00,0.00,0.00,0,,,100,100,0,2,0,0,0,2,0,,,,,0.0,0.0,0.0,0.0,0.0,0.0,0
55.955138,-4.401928,88.30,0.00,0.00,84.92,88.30,88.30,0.00,84.92,3178,2022-09-19 10:33:12.080,2022-09-19 11:33:12.080,18,0,0,15.405,55.954469,-4.402580,0.00,0.00,0.00,2.70,-1.60,100.40,0,1,0,64,100,-7351,2101,15405,3076.50,11,P-GPS,1,0,0,0,0,0,0,1663583592080,0,0,0,0,0,0,27,,,,,,,0,0,0,-27.00,-16.00,1004.00,-900.00,0.00,922.00,6,883.00,0.00,849.22,0.00,0.00,0.00,0,,,100,100,0,2,0,0,0,2,0,,,,,0.0,0.0,0.0,0.0,0.0,0.0,0
55.955138,-4.401928,88.30,0.00,0.00,84.93,88.30,88.30,0.00,84.93,3287,2022-09-19 10:33:12.189,2022-09-19 11:33:12.189,18,0,0,15.405,55.954469,-4.402580,0.00,0.00,0.00,2.70,-1.40,100.40,0,1,0,64,100,-7351,2101,15405,3076.50,11,P-GPS,1,0,0,0,0,0,0,1663583592189,0,0,0,0,0,0,27,,,,,,,0,0,0,-27.00,-14.00,1004.00,-899.00,0.00,922.00,6,883.00,0.00,849.25,0.00,0.00,0.00,0,,,100,100,0,2,0,0,0,2,0,,,,,0.0,0.0,0.0,0.0,0.0,0.0,0
55.955138,-4.401928,88.30,0.00,0.00,84.92,88.30,88.30,0.00,84.93,3390,2022-09-19 10:33:12.293,2022-09-19 11:33:12.292,18,0,0,15.405,55.954469,-4.402580,0.00,0.00,0.00,2.60,-1.50,100.40,0,1,0,64,100,-7351,2101,15405,3076.50,11,P-GPS,1,0,0,0,0,0,0,1663583592292,0,0,0,0,0,0,27,,,,,,,0,0,0,-26.00,-15.00,1004.00,-900.00,0.00,922.00,6,883.00,0.00,849.22,0.00,0.00,0.00,0,,,100,100,0,2,0,0,0,2,0,,,,,0.0,0.0,0.0,0.0,0.0,0.0,0
55.955138,-4.401928,88.30,0.00,0.00,84.92,88.30,88.30,0.00,84.93,3484,2022-09-19 10:33:12.386,2022-09-19 11:33:12.386,18,0,0,15.405,55.954469,-4.402580,0.00,0.00,0.00,2.80,-1.50,100.40,0,1,0,64,100,-7351,2101,15405,3076.50,11,P-GPS,1,0,0,0,0,0,0,1663583592386,0,0,0,0,0,0,27,,,,,,,0,0,0,-28.00,-15.00,1004.00,-899.00,0.00,922.00,6,883.00,0.00,849.23,0.00,0.00,0.00,0,,,100,100,0,2,0,0,0,2,0,,,,,0.0,0.0,0.0,0.0,0.0,0.0,0
55.955138,-4.401928,88.30,0.00,0.00,84.92,88.30,88.30,0.00,84.93,3584,2022-09-19 10:33:12.487,2022-09-19 11:33:12.486,18,0,0,15.405,55.954469,-4.402580,0.00,0.00,0.00,2.90,-1.60,100.40,0,1,0,64,100,-7351,2101,15405,3076.50,11,P-GPS,1,0,0,0,0,0,0,1663583592486,0,0,0,0,0,0,27,,,,,,,0,0,0,-29.00,-16.00,1004.00,-899.00,0.00,922.00,6,883.00,0.00,849.24,0.00,0.00,0.00,0,,,100,100,0,2,0,0,0,2,0,,,,,0.0,0.0,0.0,0.0,0.0,0.0,0
55.955138,-4.401927,88.30,0.00,0.00,84.93,88.30,88.30,0.00,84.93,3687,2022-09-19 10:33:12.590,2022-09-19 11:33:12.589,18,0,0,15.405,55.954469,-4.402580,0.00,0.00,0.00,3.00,-1.70,100.40,0,1,0,64,100,-7351,2101,15405,3076.50,11,P-GPS,1,0,0,0,0,0,0,1663583592589,0,0,0,0,0,0,27,,,,,,,0,0,0,-30.00,-17.00,1004.00,-899.00,0.00,922.00,6,883.00,0.00,849.26,0.00,0.00,0.00,0,,,100,100,0,2,0,0,0,2,0,,,,,0.0,0.0,0.0,0.0,0.0,0.0,0
55.955138,-4.401928,88.30,0.00,0.00,84.92,88.30,88.30,0.00,84.93,3782,2022-09-19 10:33:12.684,2022-09-19 11:33:12.684,18,0,0,15.405,55.954469,-4.402580,0.00,0.00,0.00,3.00,-1.70,100.40,0,1,0,64,100,-7351,2101,15405,3076.50,11,P-GPS,1,0,0,0,0,0,0,1663583592684,0,0,0,0,0,0,27,,,,,,,0,0,0,-30.00,-17.00,1004.00,-899.00,0.00,922.00,6,883.00,0.00,849.22,0.00,0.00,0.00,0,,,100,100,0,2,0,0,0,2,0,,,,,0.0,0.0,0.0,0.0,0.0,0.0,0
55.955138,-4.401927,88.30,0.00,0.00,84.92,88.30,88.30,0.00,84.93,3888,2022-09-19 10:33:12.791,2022-09-19 11:33:12.790,18,0,0,15.405,55.954469,-4.402580,0.00,0.00,0.00,3.00,-1.70,100.40,0,1,0,64,100,-7351,2101,15405,3076.50,11,P-GPS,1,0,0,0,0,0,0,1663583592790,0,0,0,0,0,0,27,,,,,,,0,0,0,-30.00,-17.00,1004.00,-899.00,0.00,922.00,6,883.00,0.00,849.22,0.00,0.00,0.00,0,,,100,100,0,2,0,0,0,2,0,,,,,0.0,0.0,0.0,0.0,0.0,0.0,0
55.955138,-4.401927,88.30,0.00,0.00,84.92,88.30,88.30,0.00,84.93,4000,2022-09-19 10:33:12.903,2022-09-19 11:33:12.902,18,0,0,15.405,55.954469,-4.402580,0.00,0.00,0.00,3.00,-1.80,100.40,0,1,0,64,100,-7323,2099,15405,3076.50,11,P-GPS,1,0,0,0,0,0,0,1663583592902,0,0,0,0,0,0,27,,,,,,,0,0,0,-30.00,-18.00,1004.00,-899.00,0.00,922.00,6,883.00,0.00,849.24,0.00,0.00,0.00,0,,,100,100,0,2,0,0,0,2,0,,,,,0.0,0.0,0.0,0.0,0.0,0.0,0
55.955138,-4.401927,88.30,0.00,0.00,84.92,88.30,88.30,0.00,84.93,4087,2022-09-19 10:33:12.991,2022-09-19 11:33:12.989,18,0,0,15.405,55.954469,-4.402580,0.00,0.00,0.00,3.10,-2.00,100.40,0,1,0,64,100,-7323,2099,15405,3076.50,11,P-GPS,1,0,0,0,0,0,0,1663583592989,0,0,0,0,0,0,27,,,,,,,0,0,0,-31.00,-20.00,1004.00,-899.00,0.00,922.00,6,883.00,0.00,849.24,0.00,0.00,0.00,0,,,100,100,0,2,0,0,0,2,0,,,,,0.0,0.0,0.0,0.0,0.0,0.0,0
55.955138,-4.401927,88.30,0.00,0.00,84.92,88.30,88.30,0.00,84.93,4197,2022-09-19 10:33:13.100,2022-09-19 11:33:13.099,18,0,0,15.405,55.954469,-4.402580,0.00,0.00,0.00,3.20,-2.00,100.40,0,1,0,64,100,-7323,2099,15405,3076.50,11,P-GPS,1,0,0,0,0,0,0,1663583593099,0,0,0,0,0,0,27,,,,,,,0,0,0,-32.00,-20.00,1004.00,-900.00,0.00,922.00,6,883.00,0.00,849.21,0.00,0.00,0.00,0,,,100,100,0,2,0,0,0,2,0,,,,,0.0,0.0,0.0,0.0,0.0,0.0,0
55.955138,-4.401927,88.30,0.00,0.00,84.92,88.30,88.30,0.00,84.93,4285,2022-09-19 10:33:13.187,2022-09-19 11:33:13.187,18,0,0,15.405,55.954469,-4.402580,0.00,0.00,0.00,3.20,-2.10,100.40,0,1,0,64,100,-7323,2099,15405,3076.50,11,P-GPS,1,0,0,0,0,0,0,1663583593187,0,0,0,0,0,0,27,,,,,,,0,0,0,-32.00,-21.00,1004.00,-899.00,0.00,922.00,6,883.00,0.00,849.21,0.00,0.00,0.00,0,,,100,100,0,2,0,0,0,2,0,,,,,0.0,0.0,0.0,0.0,0.0,0.0,0
55.955138,-4.401928,88.30,0.00,0.00,84.92,88.30,88.30,0.00,84.93,4381,2022-09-19 10:33:13.284,2022-09-19 11:33:13.283,18,0,0,15.405,55.954469,-4.402580,0.00,0.00,0.00,3.30,-2.10,100.40,0,1,0,64,100,-7323,2099,15405,3076.50,11,P-GPS,1,0,0,0,0,0,0,1663583593283,0,0,0,0,0,0,27,,,,,,,0,0,0,-33.00,-21.00,1004.00,-899.00,0.00,922.00,6,883.00,0.00,849.21,0.00,0.00,0.00,0,,,100,100,0,2,0,0,0,2,0,,,,,0.0,0.0,0.0,0.0,0.0,0.0,0
55.955138,-4.401927,88.30,0.00,0.00,84.92,88.30,88.30,0.00,84.93,4487,2022-09-19 10:33:13.389,2022-09-19 11:33:13.389,18,0,0,15.405,55.954469,-4.402580,0.00,0.00,0.00,3.40,-2.10,100.40,0,1,0,64,100,-7323,2099,15405,3076.50,11,P-GPS,1,0,0,0,0,0,0,1663583593389,3865,3859,3852,3828,0,0,27,,,,,,,0,0,0,-34.00,-21.00,1004.00,-900.00,0.00,922.00,6,883.00,0.00,849.21,0.00,0.00,0.00,0,,,100,100,0,2,0,0,0,2,0,,,,,0.0,0.0,0.0,0.0,0.0,0.0,0
55.955138,-4.401928,88.30,0.00,0.00,84.91,88.30,88.30,0.00,84.93,4588,2022-09-19 10:33:13.491,2022-09-19 11:33:13.490,18,0,0,15.405,55.954469,-4.402580,0.00,0.00,0.00,3.40,-2.00,100.40,0,1,0,64,100,-7323,2099,15405,3076.50,11,P-GPS,1,0,0,0,0,0,0,1663583593490,3865,3859,3852,3828,0,0,27,,,,,,,0,0,0,-34.00,-20.00,1004.00,-900.00,0.00,922.00,6,883.00,0.00,849.06,0.00,0.00,0.00,0,,,100,100,0,2,0,0,0,2,0,,,,,0.0,0.0,0.0,0.0,0.0,0.0,0
55.955138,-4.401928,88.30,0.00,0.00,84.91,88.30,88.30,0.00,84.93,4687,2022-09-19 10:33:13.590,2022-09-19 11:33:13.589,18,0,0,15.405,55.954469,-4.402580,0.00,0.00,0.00,3.30,-1.90,100.40,0,1,0,64,100,-7323,2099,15405,3076.50,11,P-GPS,1,0,0,0,0,0,0,1663583593589,3865,3859,3852,3828,0,0,27,,,,,,,0,0,0,-33.00,-19.00,1004.00,-900.00,0.00,922.00,6,883.00,0.00,849.05,0.00,0.00,0.00,0,,,100,100,0,2,0,0,0,2,0,,,,,0.0,0.0,0.0,0.0,0.0,0.0,0
55.955138,-4.401928,88.30,0.00,0.00,84.91,88.30,88.30,0.00,84.93,4787,2022-09-19 10:33:13.690,2022-09-19 11:33:13.689,18,0,0,15.405,55.954469,-4.402580,0.00,0.00,0.00,3.10,-2.00,100.40,0,1,0,64,100,-7323,2099,15405,3076.50,11,P-GPS,1,0,0,0,0,0,0,1663583593689,3865,3859,3852,3828,0,0,27,,,,,,,0,0,0,-31.00,-20.00,1004.00,-900.00,0.00,922.00,6,883.00,0.00,849.07,0.00,0.00,0.00,0,,,100,100,0,2,0,0,0,2,2,,,,,0.0,0.0,0.0,0.0,0.0,0.0,0
55.955138,-4.401928,88.30,0.00,0.00,84.91,88.30,88.30,0.00,84.93,4893,2022-09-19 10:33:13.795,2022-09-19 11:33:13.795,18,0,0,15.405,55.954469,-4.402580,0.00,0.00,0.00,2.90,-2.20,100.40,0,1,0,64,100,-7323,2099,15405,3076.50,11,P-GPS,1,0,0,0,0,0,0,1663583593795,3865,3859,3852,3828,0,0,27,,,,,,,0,0,0,-29.00,-22.00,1004.00,-900.00,0.00,922.00,6,883.00,0.00,849.06,0.00,0.00,0.00,0,,,100,100,0,2,0,0,0,2,2,,,,,0.0,0.0,0.0,0.0,0.0,0.0,0
55.955138,-4.401927,88.30,0.00,0.00,84.91,88.30,88.30,0.00,84.93,4999,2022-09-19 10:33:13.901,2022-09-19 11:33:13.901,18,0,0,15.406,55.954469,-4.402580,0.00,0.00,0.00,3.00,-2.30,100.40,0,1,0,63,100,-7298,2097,15406,3076.50,11,P-GPS,1,0,0,0,0,0,0,1663583593901,3865,3859,3852,3828,0,0,27,,,,,,,0,0,0,-30.00,-23.00,1004.00,-900.00,0.00,922.00,6,883.00,0.00,849.11,0.00,0.00,0.00,0,,,100,100,0,2,0,0,0,2,2,,,,,0.0,0.0,0.0,0.0,0.0,0.0,0
55.955137,-4.401927,88.30,0.00,0.00,84.90,88.30,88.30,0.00,84.93,5200,2022-09-19 10:33:14.102,2022-09-19 11:33:14.102,18,0,0,15.406,55.954469,-4.402580,0.00,0.00,0.00,3.40,-2.40,100.40,0,1,0,63,100,-7298,2097,15406,3076.50,11,P-GPS,1,0,0,0,0,0,0,1663583594102,3865,3859,3852,3828,0,0,27,,,,,,,0,0,0,-34.00,-24.00,1004.00,-899.00,0.00,922.00,6,883.00,0.00,848.97,0.00,0.00,0.00,0,,,100,100,0,2,0,0,0,2,2,,,,,0.0,0.0,0.0,0.0,0.0,0.0,0
55.955137,-4.401927,88.30,0.00,0.00,84.90,88.30,88.30,0.00,84.93,5289,2022-09-19 10:33:14.192,2022-09-19 11:33:14.191,18,0,0,15.406,55.954469,-4.402580,0.00,0.00,0.00,3.50,-2.30,100.30,0,1,0,63,100,-7298,2097,15406,3076.50,11,P-GPS,1,0,0,0,0,0,0,1663583594191,3865,3859,3852,3828,0,0,27,,,,,,,0,0,0,-35.00,-23.00,1003.00,-899.00,0.00,922.00,6,883.00,0.00,848.96,0.00,0.00,0.00,0,,,100,100,0,2,0,0,0,2,2,,,,,0.0,0.0,0.0,0.0,0.0,0.0,0
55.955138,-4.401927,88.30,0.00,0.00,84.90,88.30,88.30,0.00,84.93,5398,2022-09-19 10:33:14.301,2022-09-19 11:33:14.301,18,0,0,15.406,55.954469,-4.402580,0.00,0.00,0.00,3.60,-2.20,100.30,0,1,0,63,100,-7298,2097,15406,3076.50,11,P-GPS,1,0,0,0,0,0,0,1663583594300,3865,3859,3852,3828,0,0,27,,,,,,,0,0,0,-36.00,-22.00,1003.00,-900.00,0.00,922.00,6,883.00,0.00,849.01,0.00,0.00,0.00,0,,,100,100,0,2,0,0,0,2,2,,,,,0.0,0.0,0.0,0.0,0.0,0.0,0
55.955138,-4.401927,88.30,0.00,0.00,84.90,88.30,88.30,0.00,84.93,5489,2022-09-19 10:33:14.391,2022-09-19 11:33:14.391,18,0,0,15.406,55.954469,-4.402580,0.00,0.00,0.00,3.40,-2.30,100.30,0,1,0,63,100,-7298,2097,15406,3076.50,11,P-GPS,1,0,0,0,0,0,0,1663583594391,3865,3859,3852,3828,0,0,27,,,,,,,0,0,0,-34.00,-23.00,1003.00,-899.00,0.00,922.00,6,883.00,0.00,849.01,0.00,0.00,0.00,0,,,100,100,0,2,0,0,0,2,2,,,,,0.0,0.0,0.0,0.0,0.0,0.0,0
55.955137,-4.401927,88.30,0.00,0.00,84.89,88.30,88.30,0.00,84.93,5597,2022-09-19 10:33:14.500,2022-09-19 11:33:14.499,18,0,0,15.406,55.954469,-4.402580,0.00,0.00,0.00,3.40,-2.30,100.30,0,1,0,63,100,-7298,2097,15406,3076.50,11,P-GPS,1,0,0,0,0,0,0,1663583594499,3865,3859,3852,3828,0,0,27,,,,,,,0,0,0,-34.00,-23.00,1003.00,-899.00,0.00,922.00,6,883.00,0.00,848.94,0.00,0.00,0.00,0,,,100,100,0,2,0,0,0,2,2,,,,,0.0,0.0,0.0,0.0,0.0,0.0,0
55.955137,-4.401927,88.30,0.00,0.00,84.89,88.30,88.30,0.00,84.93,5688,2022-09-19 10:33:14.592,2022-09-19 11:33:14.590,18,0,0,15.406,55.954469,-4.402580,0.00,0.00,0.00,3.40,-2.40,100.30,0,1,0,63,100,-7298,2097,15406,3076.50,11,P-GPS,1,0,0,0,0,0,0,1663583594590,3865,3859,3852,3828,0,0,27,,,,,,,0,0,0,-34.00,-24.00,1003.00,-899.00,0.00,922.00,6,883.00,0.00,848.94,0.00,0.00,0.00,0,,,100,100,0,2,0,0,0,2,2,,,,,0.0,0.0,0.0,0.0,0.0,0.0,0
55.955137,-4.401927,88.30,0.00,0.00,84.90,88.30,88.30,0.00,84.93,5793,2022-09-19 10:33:14.696,2022-09-19 11:33:14.695,18,0,0,15.406,55.954469,-4.402580,0.00,0.00,0.00,3.40,-2.30,100.30,0,1,0,63,100,-7298,2097,15406,3076.50,11,P-GPS,1,0,0,0,0,0,0,1663583594695,3865,3859,3852,3828,0,0,27,,,,,,,0,0,0,-34.00,-23.00,1003.00,-900.00,0.00,922.00,6,883.00,0.00,848.97,0.00,0.00,0.00,0,,,100,100,0,2,0,0,0,2,2,,,,,0.0,0.0,0.0,0.0,0.0,0.0,0
55.955137,-4.401927,88.30,0.00,0.00,84.90,88.30,88.30,0.00,84.93,5890,2022-09-19 10:33:14.793,2022-09-19 11:33:14.792,18,0,0,15.406,55.954469,-4.402580,0.00,0.00,0.00,3.40,-2.30,100.40,0,1,0,63,100,-7298,2097,15406,3076.50,11,P-GPS,1,0,0,0,0,0,0,1663583594792,3865,3859,3852,3828,0,0,27,,,,,,,0,0,0,-34.00,-23.00,1004.00,-899.00,0.00,922.00,6,883.00,0.00,848.98,0.00,0.00,0.00,0,,,100,100,0,2,0,0,0,2,2,,,,,0.0,0.0,0.0,0.0,0.0,0.0,0
55.955137,-4.401927,88.30,0.00,0.00,84.91,88.30,88.30,0.00,84.93,5982,2022-09-19 10:33:14.884,2022-09-19 11:33:14.884,18,0,0,15.406,55.954469,-4.402580,0.00,0.00,0.00,3.50,-2.20,100.40,0,1,0,63,100,-7298,2097,15406,3076.50,11,P-GPS,1,0,0,0,0,0,0,1663583594884,3865,3859,3852,3828,0,0,27,,,,,,,0,0,0,-35.00,-22.00,1004.00,-899.00,0.00,922.00,6,883.00,0.00,849.05,0.00,0.00,0.00,0,,,100,100,0,2,0,0,0,2,2,,,,,0.0,0.0,0.0,0.0,0.0,0.0,0
55.955137,-4.401927,88.30,0.00,0.00,84.91,88.30,88.30,0.00,84.93,6086,2022-09-19 10:33:14.989,2022-09-19 11:33:14.988,18,0,0,15.406,55.954469,-4.402580,0.00,0.00,0.00,3.40,-2.10,100.40,0,1,0,63,100,-7298,2097,15406,3076.50,11,P-GPS,1,0,0,0,0,0,0,1663583594988,3865,3859,3852,3828,0,0,27,,,,,,,0,0,0,-34.00,-21.00,1004.00,-900.00,0.00,922.00,6,883.00,0.00,849.07,0.00,0.00,0.00,0,,,100,100,0,2,0,0,0,2,2,,,,,0.0,0.0,0.0,0.0,0.0,0.0,0
55.955137,-4.401927,88.30,0.00,0.00,84.91,88.30,88.30,0.00,84.93,6184,2022-09-19 10:33:15.087,2022-09-19 11:33:15.086,18,0,0,15.406,55.954469,-4.402580,0.00,0.00,0.00,3.40,-2.20,100.30,0,1,0,63,100,-7298,2097,15406,3076.50,11,P-GPS,1,0,0,0,0,0,0,1663583595086,3865,3859,3852,3828,0,0,27,,,,,,,0,0,0,-34.00,-22.00,1003.00,-899.00,0.00,922.00,6,883.00,0.00,849.06,0.00,0.00,0.00,0,,,100,100,0,2,0,0,0,2,2,,,,,0.0,0.0,0.0,0.0,0.0,0.0,0
55.955137,-4.401927,88.30,0.00,0.00,84.91,88.30,88.30,0.00,84.93,6288,2022-09-19 10:33:15.192,2022-09-19 11:33:15.190,18,0,0,15.406,55.954469,-4.402580,0.00,0.00,0.00,3.50,-2.20,100.40,0,1,0,63,100,-7298,2097,15406,3076.50,11,P-GPS,1,0,0,0,0,0,0,1663583595190,3865,3859,3852,3828,0,0,27,,,,,,,0,0,0,-35.00,-22.00,1004.00,-899.00,0.00,922.00,6,883.00,0.00,849.08,0.00,0.00,0.00,0,,,100,100,0,2,0,0,0,2,2,,,,,0.0,0.0,0.0,0.0,0.0,0.0,0
55.955137,-4.401927,88.30,0.00,0.00,84.91,88.30,88.30,0.00,84.93,6382,2022-09-19 10:33:15.284,2022-09-19 11:33:15.284,18,0,0,15.406,55.954469,-4.402580,0.00,0.00,0.00,3.50,-2.30,100.30,0,1,0,63,100,-7298,2097,15406,3076.50,11,P-GPS,1,0,0,0,0,0,0,1663583595284,3865,3859,3852,3828,0,0,27,,,,,,,0,0,0,-35.00,-23.00,1003.00,-900.00,0.00,922.00,6,883.00,0.00,849.10,0.00,0.00,0.00,0,,,100,100,0,2,0,0,0,2,2,,,,,0.0,0.0,0.0,0.0,0.0,0.0,0
55.955138,-4.401927,88.30,0.00,0.00,84.91,88.30,88.30,0.00,84.93,6497,2022-09-19 10:33:15.400,2022-09-19 11:33:15.399,18,0,0,15.406,55.954469,-4.402580,0.00,0.00,0.00,3.40,-2.20,100.30,0,1,0,63,100,-7298,2097,15406,3076.50,11,P-GPS,1,0,0,0,0,0,0,1663583595399,3865,3859,3852,3828,0,0,27,,,,,,,0,0,0,-34.00,-22.00,1003.00,-899.00,0.00,922.00,6,883.00,0.00,849.11,0.00,0.00,0.00,0,,,100,100,0,2,0,0,0,2,2,,,,,0.0,0.0,0.0,0.0,0.0,0.0,0
55.955138,-4.401927,88.30,0.00,0.00,84.93,88.30,88.30,0.00,84.93,6584,2022-09-19 10:33:15.486,2022-09-19 11:33:15.486,18,0,0,15.406,55.954469,-4.402580,0.00,0.00,0.00,3.30,-2.20,100.30,0,1,0,63,100,-7298,2097,15406,3076.50,11,P-GPS,1,0,0,0,0,0,0,1663583595486,3865,3859,3852,3828,0,0,27,,,,,,,0,0,0,-33.00,-22.00,1003.00,-899.00,0.00,922.00,6,883.00,0.00,849.28,0.00,0.00,0.00,0,,,100,100,0,2,0,0,0,2,2,,,,,0.0,0.0,0.0,0.0,0.0,0.0,0
55.955138,-4.401927,88.30,0.00,0.00,84.93,88.30,88.30,0.00,84.93,6681,2022-09-19 10:33:15.583,2022-09-19 11:33:15.583,18,0,0,15.406,55.954469,-4.402580,0.00,0.00,0.00,3.20,-2.10,100.30,0,1,0,63,100,-7298,2097,15406,3076.50,11,P-GPS,1,0,0,0,0,0,0,1663583595583,3865,3859,3852,3828,0,0,27,,,,,,,0,0,0,-32.00,-21.00,1003.00,-900.00,0.00,922.00,6,883.00,0.00,849.31,0.00,0.00,0.00,0,,,100,100,0,2,0,0,0,2,2,,,,,0.0,0.0,0.0,0.0,0.0,0.0,0
55.955138,-4.401927,88.30,0.00,0.00,84.93,88.30,88.30,0.00,84.93,6776,2022-09-19 10:33:15.679,2022-09-19 11:33:15.679,18,0,0,15.406,55.954469,-4.402580,0.00,0.00,0.00,3.20,-2.10,100.30,0,1,0,63,100,-7298,2097,15406,3076.50,11,P-GPS,1,0,0,0,0,0,0,1663583595678,3865,3859,3852,3828,0,0,27,,,,,,,0,0,0,-32.00,-21.00,1003.00,-900.00,0.00,922.00,6,883.00,0.00,849.31,0.00,0.00,0.00,0,,,100,100,0,2,0,0,0,2,2,,,,,0.0,0.0,0.0,0.0,0.0,0.0,0
55.955138,-4.401927,88.30,0.00,0.00,84.93,88.30,88.30,0.00,84.93,6880,2022-09-19 10:33:15.782,2022-09-19 11:33:15.782,18,0,0,15.406,55.954469,-4.402580,0.00,0.00,0.00,3.30,-2.40,100.40,0,1,0,63,100,-7298,2097,15406,3076.50,11,P-GPS,1,0,0,0,0,0,0,1663583595782,3865,3859,3852,3828,0,0,27,,,,,,,0,0,0,-33.00,-24.00,1004.00,-899.00,0.00,922.00,6,883.00,0.00,849.32,0.00,0.00,0.00,0,,,100,100,0,2,0,0,0,2,2,,,,,0.0,0.0,0.0,0.0,0.0,0.0,0
55.955138,-4.401927,88.30,0.00,0.00,84.93,88.30,88.30,0.00,84.93,6979,2022-09-19 10:33:15.881,2022-09-19 11:33:15.881,18,0,0,15.400,55.954469,-4.402580,0.00,0.00,0.00,3.40,-2.40,100.40,0,1,0,63,100,-7330,2095,15400,3076.50,11,P-GPS,1,0,0,0,0,0,0,1663583595881,3865,3859,3852,3828,0,0,27,,,,,,,0,0,0,-34.00,-24.00,1004.00,-899.00,0.00,922.00,6,883.00,0.00,849.31,0.00,0.00,0.00,0,,,100,100,0,2,0,0,0,2,2,,,,,0.0,0.0,0.0,0.0,0.0,0.0,0
55.955138,-4.401927,88.30,0.00,0.00,84.93,88.30,88.30,0.00,84.93,7078,2022-09-19 10:33:15.980,2022-09-19 11:33:15.980,18,0,0,15.400,55.954469,-4.402580,0.00,0.00,0.00,3.60,-2.30,100.40,0,1,0,63,100,-7330,2095,15400,3076.50,11,P-GPS,1,0,0,0,0,0,0,1663583595980,3865,3859,3852,3828,0,0,27,,,,,,,0,0,0,-36.00,-23.00,1004.00,-899.00,0.00,922.00,6,883.00,0.00,849.34,0.00,0.00,0.00,0,,,100,100,0,2,0,0,0,2,2,,,,,0.0,0.0,0.0,0.0,0.0,0.0,0
55.955138,-4.401927,88.30,0.00,0.00,84.93,88.30,88.30,0.00,84.93,7194,2022-09-19 10:33:16.096,2022-09-19 11:33:16.096,18,0,0,15.400,55.954469,-4.402580,0.00,0.00,0.00,3.60,-2.40,100.30,0,1,0,63,100,-7330,2095,15400,3076.50,11,P-GPS,1,0,0,0,0,0,0,1663583596096,3865,3859,3852,3828,0,0,27,,,,,,,0,0,0,-36.00,-24.00,1003.00,-899.00,0.00,922.00,6,883.00,0.00,849.30,0.00,0.00,0.00,0,,,100,100,0,2,0,0,0,2,2,,,,,0.0,0.0,0.0,0.0,0.0,0.0,0
55.955138,-4.401927,88.30,0.00,0.00,84.93,88.30,88.30,0.00,84.93,7281,2022-09-19 10:33:16.183,2022-09-19 11:33:16.183,18,0,0,15.400,55.954469,-4.402580,0.00,0.00,0.00,3.50,-2.50,100.30,0,1,0,63,100,-7330,2095,15400,3076.50,11,P-GPS,1,0,0,0,0,0,0,1663583596183,3865,3859,3852,3828,0,0,27,,,,,,,0,0,0,-35.00,-25.00,1003.00,-899.00,0.00,922.00,6,883.00,0.00,849.32,0.00,0.00,0.00,0,,,100,100,0,2,0,0,0,2,2,,,,,0.0,0.0,0.0,0.0,0.0,0.0,0
55.955138,-4.401927,88.30,0.00,0.00,84.93,88.30,88.30,0.00,84.93,7380,2022-09-19 10:33:16.282,2022-09-19 11:33:16.282,18,0,0,15.400,55.954469,-4.402580,0.00,0.00,0.00,3.50,-2.50,100.30,0,1,0,63,100,-7330,2095,15400,3076.50,11,P-GPS,1,0,0,0,0,0,0,1663583596282,3865,3859,3852,3828,0,0,27,,,,,,,0,0,0,-35.00,-25.00,1003.00,-900.00,0.00,922.00,6,883.00,0.00,849.34,0.00,0.00,0.00,0,,,100,100,0,2,0,0,0,2,2,,,,,0.0,0.0,0.0,0.0,0.0,0.0,0
55.955138,-4.401927,88.30,0.00,0.00,84.94,88.30,88.30,0.00,84.94,7478,2022-09-19 10:33:16.381,2022-09-19 11:33:16.380,18,0,0,15.400,55.954469,-4.402580,0.00,0.00,0.00,3.50,-2.40,100.30,0,1,0,63,100,-7330,2095,15400,3076.50,11,P-GPS,1,0,0,0,0,0,0,1663583596380,3865,3859,3852,3828,0,0,27,,,,,,,0,0,0,-35.00,-24.00,1003.00,-899.00,0.00,922.00,6,883.00,0.00,849.37,0.00,0.00,0.00,0,,,100,100,0,2,0,0,0,2,2,,,,,0.0,0.0,0.0,0.0,0.0,0.0,0
55.955137,-4.401927,88.30,0.00,0.00,84.92,88.30,88.30,0.00,84.94,7583,2022-09-19 10:33:16.485,2022-09-19 11:33:16.485,18,0,0,15.400,55.954469,-4.402580,0.00,0.00,0.00,3.50,-2.40,100.30,0,1,0,63,100,-7330,2095,15400,3076.50,11,P-GPS,1,0,0,0,0,0,0,1663583596485,3865,3859,3852,3828,0,0,27,,,,,,,0,0,0,-35.00,-24.00,1003.00,-899.00,0.00,922.00,6,883.00,0.00,849.23,0.00,0.00,0.00,0,,,100,100,0,2,0,0,0,2,2,,,,,0.0,0.0,0.0,0.0,0.0,0.0,0
55.955137,-4.401926,88.30,0.00,0.00,84.93,88.30,88.30,0.00,84.94,7678,2022-09-19 10:33:16.580,2022-09-19 11:33:16.580,18,0,0,15.400,55.954469,-4.402580,0.00,0.00,0.00,3.60,-2.40,100.40,0,1,0,63,100,-7330,2095,15400,3076.50,11,P-GPS,1,0,0,0,0,0,0,1663583596580,3865,3859,3852,3828,0,0,27,,,,,,,0,0,0,-36.00,-24.00,1004.00,-899.00,0.00,922.00,6,883.00,0.00,849.25,0.00,0.00,0.00,0,,,100,100,0,2,0,0,0,2,2,,,,,0.0,0.0,0.0,0.0,0.0,0.0,0
55.955137,-4.401926,88.30,0.00,0.00,84.93,88.30,88.30,0.00,84.94,7793,2022-09-19 10:33:16.696,2022-09-19 11:33:16.695,18,0,0,15.400,55.954469,-4.402580,0.00,0.00,0.00,3.60,-2.40,100.30,0,1,0,63,100,-7330,2095,15400,3076.50,11,P-GPS,1,0,0,0,0,0,0,1663583596695,3865,3859,3852,3828,0,0,27,,,,,,,0,0,0,-36.00,-24.00,1003.00,-899.00,0.00,922.00,6,883.00,0.00,849.28,0.00,0.00,0.00,0,,,100,100,0,2,0,0,0,2,2,,,,,0.0,0.0,0.0,0.0,0.0,0.0,0
55.955137,-4.401926,88.30,0.00,0.00,84.93,88.30,88.30,0.00,84.94,7883,2022-09-19 10:33:16.786,2022-09-19 11:33:16.785,18,0,0,15.400,55.954469,-4.402580,0.00,0.00,0.00,3.60,-2.30,100.30,0,1,0,63,100,-7330,2095,15400,3076.50,11,P-GPS,1,0,0,0,0,0,0,1663583596785,3865,3859,3852,3828,0,0,27,,,,,,,0,0,0,-36.00,-23.00,1003.00,-900.00,0.00,922.00,6,883.00,0.00,849.30,0.00,0.00,0.00,0,,,100,100,0,2,0,0,0,2,2,,,,,0.0,0.0,0.0,0.0,0.0,0.0,0
55.955137,-4.401926,88.30,0.00,0.00,84.92,88.30,88.30,0.00,84.94,7983,2022-09-19 10:33:16.885,2022-09-19 11:33:16.885,18,0,0,15.398,55.954469,-4.402580,0.00,0.00,0.00,3.60,-2.30,100.30,0,1,0,63,100,-7328,2091,15398,3076.50,11,P-GPS,1,0,0,0,0,0,0,1663583596885,3865,3859,3852,3828,0,0,27,,,,,,,0,0,0,-36.00,-23.00,1003.00,-899.00,0.00,922.00,6,883.00,0.00,849.17,0.00,0.00,0.00,0,,,100,100,0,2,0,0,0,2,2,,,,,0.0,0.0,0.0,0.0,0.0,0.0,0
55.955137,-4.401926,88.30,0.00,0.00,84.92,88.30,88.30,0.00,84.94,8084,2022-09-19 10:33:16.986,2022-09-19 11:33:16.986,18,0,0,15.398,55.954469,-4.402580,0.00,0.00,0.00,3.50,-2.40,100.30,0,1,0,63,100,-7328,2091,15398,3076.50,11,P-GPS,1,0,0,0,0,0,0,1663583596986,3865,3859,3852,3828,0,0,27,,,,,,,0,0,0,-35.00,-24.00,1003.00,-900.00,0.00,922.00,6,883.00,0.00,849.18,0.00,0.00,0.00,0,,,100,100,0,2,0,0,0,2,2,,,,,0.0,0.0,0.0,0.0,0.0,0.0,0
55.955137,-4.401926,88.30,0.00,0.00,84.92,88.30,88.30,0.00,84.94,8182,2022-09-19 10:33:17.084,2022-09-19 11:33:17.084,18,0,0,15.398,55.954469,-4.402580,0.00,0.00,0.00,3.60,-2.30,100.30,0,1,0,63,100,-7328,2091,15398,3076.50,11,P-GPS,1,0,0,0,0,0,0,1663583597084,3865,3859,3852,3828,0,0,27,,,,,,,0,0,0,-36.00,-23.00,1003.00,-899.00,0.00,922.00,6,883.00,0.00,849.16,0.00,0.00,0.00,0,,,100,100,0,2,0,0,0,2,2,,,,,0.0,0.0,0.0,0.0,0.0,0.0,0
55.955137,-4.401926,88.30,0.00,0.00,84.92,88.30,88.30,0.00,84.94,8286,2022-09-19 10:33:17.188,2022-09-19 11:33:17.188,18,0,0,15.398,55.954469,-4.402580,0.00,0.00,0.00,3.70,-2.20,100.30,0,1,0,63,100,-7328,2091,15398,3076.50,11,P-GPS,1,0,0,0,0,0,0,1663583597188,3865,3859,3852,3828,0,0,27,,,,,,,0,0,0,-37.00,-22.00,1003.00,-899.00,0.00,922.00,6,883.00,0.00,849.17,0.00,0.00,0.00,0,,,100,100,0,2,0,0,0,2,2,,,,,0.0,0.0,0.0,0.0,0.0,0.0,0
55.955137,-4.401926,88.30,0.00,0.00,84.92,88.30,88.30,0.00,84.94,8384,2022-09-19 10:33:17.287,2022-09-19 11:33:17.286,18,0,0,15.398,55.954469,-4.402580,0.00,0.00,0.00,3.70,-2.10,100.20,0,1,0,63,100,-7328,2091,15398,3076.50,11,P-GPS,1,0,0,0,0,0,0,1663583597286,3865,3859,3852,3828,0,0,27,,,,,,,0,0,0,-37.00,-21.00,1002.00,-899.00,0.00,922.00,6,883.00,0.00,849.21,0.00,0.00,0.00,0,,,100,100,0,2,0,0,0,2,2,,,,,0.0,0.0,0.0,0.0,0.0,0.0,0
55.955137,-4.401926,88.30,0.00,0.00,84.92,88.30,88.30,0.00,84.94,8480,2022-09-19 10:33:17.383,2022-09-19 11:33:17.382,18,0,0,15.398,55.954469,-4.402580,0.00,0.00,0.00,3.50,-2.10,100.30,0,1,0,63,100,-7328,2091,15398,3076.50,11,P-GPS,1,0,0,0,0,0,0,1663583597382,3865,3859,3852,3828,0,0,27,,,,,,,0,0,0,-35.00,-21.00,1003.00,-900.00,0.00,922.00,6,883.00,0.00,849.21,0.00,0.00,0.00,0,,,100,100,0,2,0,0,0,2,2,,,,,0.0,0.0,0.0,0.0,0.0,0.0,0
55.955137,-4.401926,88.30,0.00,0.00,84.92,88.30,88.30,0.00,84.94,8591,2022-09-19 10:33:17.494,2022-09-19 11:33:17.493,18,0,0,15.398,55.954469,-4.402580,0.00,0.00,0.00,3.50,-2.30,100.30,0,1,0,63,100,-7328,2091,15398,3076.50,11,P-GPS,1,0,0,0,0,0,0,1663583597493,3865,3859,3852,3828,0,0,27,,,,,,,0,0,0,-35.00,-23.00,1003.00,-900.00,0.00,922.00,6,883.00,0.00,849.19,0.00,0.00,0.00,0,,,100,100,0,2,0,0,0,2,2,,,,,0.0,0.0,0.0,0.0,0.0,0.0,0
55.955137,-4.401926,88.30,0.00,0.00,84.92,88.30,88.30,0.00,84.94,8684,2022-09-19 10:33:17.586,2022-09-19 11:33:17.586,18,0,0,15.398,55.954469,-4.402580,0.00,0.00,0.00,3.50,-2.20,100.40,0,1,0,63,100,-7328,2091,15398,3076.50,11,P-GPS,1,0,0,0,0,0,0,1663583597586,3865,3859,3852,3828,0,0,27,,,,,,,0,0,0,-35.00,-22.00,1004.00,-899.00,0.00,922.00,6,883.00,0.00,849.19,0.00,0.00,0.00,0,,,100,100,0,2,0,0,0,2,2,,,,,0.0,0.0,0.0,0.0,0.0,0.0,0
55.955137,-4.401926,88.30,0.00,0.00,84.92,88.30,88.30,0.00,84.94,8783,2022-09-19 10:33:17.686,2022-09-19 11:33:17.685,18,0,0,15.398,55.954469,-4.402580,0.00,0.00,0.00,3.50,-2.20,100.30,0,1,0,63,100,-7328,2091,15398,3076.50,11,P-GPS,1,0,0,0,0,0,0,1663583597685,3865,3859,3852,3828,0,0,27,,,,,,,0,0,0,-35.00,-22.00,1003.00,-899.00,0.00,922.00,6,883.00,0.00,849.22,0.00,0.00,0.00,0,,,100,100,0,2,0,0,0,2,2,,,,,0.0,0.0,0.0,0.0,0.0,0.0,0
55.955137,-4.401926,88.30,0.00,0.00,84.92,88.30,88.30,0.00,84.94,8885,2022-09-19 10:33:17.787,2022-09-19 11:33:17.787,18,0,0,15.398,55.954469,-4.402580,0.00,0.00,0.00,3.50,-2.20,100.30,0,1,0,63,100,-7328,2091,15398,3076.50,11,P-GPS,1,0,0,0,0,0,0,1663583597787,3865,3859,3852,3828,0,0,27,,,,,,,0,0,0,-35.00,-22.00,1003.00,-899.00,0.00,922.00,6,883.00,0.00,849.22,0.00,0.00,0.00,0,,,100,100,0,2,0,0,0,2,2,,,,,0.0,0.0,0.0,0.0,0.0,0.0,0
55.955137,-4.401926,88.30,0.00,0.00,84.93,88.30,88.30,0.00,84.94,8985,2022-09-19 10:33:17.887,2022-09-19 11:33:17.887,18,0,0,15.398,55.954469,-4.402580,0.00,0.00,0.00,3.50,-2.30,100.30,0,1,0,63,100,-7325,2089,15398,3076.50,11,P-GPS,1,0,0,0,0,0,0,1663583597887,3865,3859,3852,3828,0,0,27,,,,,,,0,0,0,-35.00,-23.00,1003.00,-900.00,0.00,922.00,6,883.00,0.00,849.25,0.00,0.00,0.00,0,,,100,100,0,2,0,0,0,2,2,,,,,0.0,0.0,0.0,0.0,0.0,0.0,0
55.955137,-4.401926,88.30,0.00,0.00,84.93,88.30,88.30,0.00,84.94,9123,2022-09-19 10:33:18.025,2022-09-19 11:33:18.025,18,0,0,15.398,55.954469,-4.402580,0.00,0.00,0.00,3.50,-2.30,100.30,0,1,0,63,100,-7325,2089,15398,3076.50,11,P-GPS,1,0,0,0,0,0,0,1663583598025,3865,3859,3852,3828,0,0,27,,,,,,,0,0,0,-35.00,-23.00,1003.00,-900.00,0.00,922.00,6,883.00,0.00,849.26,0.00,0.00,0.00,0,,,100,100,0,2,0,0,0,2,2,,,,,0.0,0.0,0.0,0.0,0.0,0.0,0
55.955137,-4.401926,88.30,0.00,0.00,84.93,88.30,88.30,0.00,84.94,9285,2022-09-19 10:33:18.187,2022-09-19 11:33:18.187,18,0,0,15.398,55.954469,-4.402580,0.00,0.00,0.00,3.50,-2.20,100.30,0,1,0,63,100,-7325,2089,15398,3076.50,11,P-GPS,1,0,0,0,0,0,0,1663583598187,3865,3859,3852,3828,0,0,27,,,,,,,0,0,0,-35.00,-22.00,1003.00,-899.00,0.00,922.00,6,883.00,0.00,849.30,0.00,0.00,0.00,0,,,100,100,0,2,0,0,0,2,2,,,,,0.0,0.0,0.0,0.0,0.0,0.0,0
55.955137,-4.401926,88.40,0.00,0.00,84.93,88.40,88.40,0.00,84.94,9385,2022-09-19 10:33:18.288,2022-09-19 11:33:18.287,18,0,0,15.398,55.954469,-4.402580,0.00,0.00,0.00,3.40,-2.20,100.30,0,1,0,63,100,-7325,2089,15398,3076.50,11,P-GPS,1,0,0,0,0,0,0,1663583598287,3865,3859,3852,3828,0,0,27,,,,,,,0,0,0,-34.00,-22.00,1003.00,-900.00,0.00,922.00,6,884.00,0.00,849.29,0.00,0.00,0.00,0,,,100,100,0,2,0,0,0,2,2,,,,,0.0,0.0,0.0,0.0,0.0,0.0,0
55.955137,-4.401926,88.40,0.00,0.00,84.93,88.40,88.40,0.00,84.94,9480,2022-09-19 10:33:18.382,2022-09-19 11:33:18.382,18,0,0,15.398,55.954469,-4.402580,0.00,0.00,0.00,3.50,-2.20,100.30,0,1,0,63,100,-7325,2089,15398,3076.50,11,P-GPS,1,0,0,0,0,0,0,1663583598382,3865,3859,3852,3828,0,0,27,,,,,,,0,0,0,-35.00,-22.00,1003.00,-900.00,0.00,922.00,6,884.00,0.00,849.30,0.00,0.00,0.00,0,,,100,100,0,2,0,0,0,2,2,,,,,0.0,0.0,0.0,0.0,0.0,0.0,0
55.955137,-4.401926,88.40,0.00,0.00,84.93,88.40,88.40,0.00,84.94,9587,2022-09-19 10:33:18.489,2022-09-19 11:33:18.489,18,0,0,15.398,55.954469,-4.402580,0.00,0.00,0.00,3.50,-2.20,100.30,0,1,0,63,100,-7325,2089,15398,3076.50,11,P-GPS,1,0,0,0,0,0,0,1663583598489,3865,3859,3852,3828,0,0,27,,,,,,,0,0,0,-35.00,-22.00,1003.00,-899.00,0.00,922.00,6,884.00,0.00,849.34,0.00,0.00,0.00,0,,,100,100,0,2,0,0,0,2,2,,,,,0.0,0.0,0.0,0.0,0.0,0.0,0
55.955137,-4.401926,88.40,0.00,0.00,84.94,88.40,88.40,0.00,84.94,9688,2022-09-19 10:33:18.590,2022-09-19 11:33:18.590,18,0,0,15.398,55.954469,-4.402580,0.00,0.00,0.00,3.50,-2.20,100.30,0,1,0,63,100,-7325,2089,15398,3076.50,11,P-GPS,1,0,0,0,0,0,0,1663583598590,3865,3859,3852,3828,0,0,27,,,,,,,0,0,0,-35.00,-22.00,1003.00,-899.00,0.00,922.00,6,884.00,0.00,849.35,0.00,0.00,0.00,0,,,100,100,0,2,0,0,0,2,2,,,,,0.0,0.0,0.0,0.0,0.0,0.0,0
55.955137,-4.401926,88.40,0.00,0.00,84.93,88.40,88.40,0.00,84.94,9782,2022-09-19 10:33:18.685,2022-09-19 11:33:18.684,18,0,0,15.398,55.954469,-4.402580,0.00,0.00,0.00,3.50,-2.10,100.30,0,1,0,63,100,-7325,2089,15398,3076.50,11,P-GPS,1,0,0,0,0,0,0,1663583598684,3865,3859,3852,3828,0,0,27,,,,,,,0,0,0,-35.00,-21.00,1003.00,-900.00,0.00,922.00,6,884.00,0.00,849.33,0.00,0.00,0.00,0,,,100,100,0,2,0,0,0,2,2,,,,,0.0,0.0,0.0,0.0,0.0,0.0,0
55.955137,-4.401926,88.40,0.00,0.00,84.93,88.40,88.40,0.00,84.94,9893,2022-09-19 10:33:18.795,2022-09-19 11:33:18.795,18,0,0,15.398,55.954469,-4.402580,0.00,0.00,0.00,3.40,-2.20,100.30,0,1,0,63,100,-7325,2089,15398,3076.50,11,P-GPS,1,0,0,0,0,0,0,1663583598795,3865,3859,3852,3828,0,0,27,,,,,,,0,0,0,-34.00,-22.00,1003.00,-899.00,0.00,922.00,6,884.00,0.00,849.34,0.00,0.00,0.00,0,,,100,100,0,2,0,0,0,2,2,,,,,0.0,0.0,0.0,0.0,0.0,0.0,0
55.955137,-4.401926,88.40,0.00,0.00,84.93,88.40,88.40,0.00,84.94,9991,2022-09-19 10:33:18.893,2022-09-19 11:33:18.893,18,0,0,15.395,55.954469,-4.402580,0.00,0.00,0.00,3.40,-2.10,100.30,0,1,0,63,100,-7370,2087,15395,3076.50,11,P-GPS,1,0,0,0,0,0,0,1663583598893,3865,3859,3852,3828,0,0,27,,,,,,,0,0,0,-34.00,-21.00,1003.00,-899.00,0.00,922.00,6,884.00,0.00,849.32,0.00,0.00,0.00,0,,,100,100,0,2,0,0,0,2,2,,,,,0.0,0.0,0.0,0.0,0.0,0.0,0
55.955137,-4.401926,88.40,0.00,0.00,84.93,88.40,88.40,0.00,84.94,10087,2022-09-19 10:33:18.989,2022-09-19 11:33:18.989,18,0,0,15.395,55.954469,-4.402580,0.00,0.00,0.00,3.30,-2.20,100.30,0,1,0,63,100,-7370,2087,15395,3076.50,11,P-GPS,1,0,0,0,0,0,0,1663583598989,3865,3859,3852,3828,0,0,27,,,,,,,0,0,0,-33.00,-22.00,1003.00,-900.00,0.00,922.00,6,884.00,0.00,849.33,0.00,0.00,0.00,0,,,100,100,0,2,0,0,0,2,2,,,,,0.0,0.0,0.0,0.0,0.0,0.0,0
55.955137,-4.401926,88.40,0.00,0.00,84.93,88.40,88.40,0.00,84.94,10182,2022-09-19 10:33:19.084,2022-09-19 11:33:19.084,18,0,0,15.395,55.954469,-4.402580,0.00,0.00,0.00,3.30,-2.30,100.30,0,1,0,63,100,-7370,2087,15395,3076.50,11,P-GPS,1,0,0,0,0,0,0,1663583599084,3865,3859,3852,3828,0,0,27,,,,,,,0,0,0,-33.00,-23.00,1003.00,-899.00,0.00,922.00,6,884.00,0.00,849.31,0.00,0.00,0.00,0,,,100,100,0,2,0,0,0,2,2,,,,,0.0,0.0,0.0,0.0,0.0,0.0,0
55.955137,-4.401926,88.40,0.00,0.00,84.93,88.40,88.40,0.00,84.94,10289,2022-09-19 10:33:19.192,2022-09-19 11:33:19.191,18,0,0,15.395,55.954469,-4.402580,0.00,0.00,0.00,3.30,-2.30,100.30,0,1,0,63,100,-7370,2087,15395,3076.50,11,P-GPS,1,0,0,0,0,0,0,1663583599191,3865,3859,3852,3828,0,0,27,,,,,,,0,0,0,-33.00,-23.00,1003.00,-900.00,0.00,922.00,6,884.00,0.00,849.31,0.00,0.00,0.00,0,,,100,100,0,2,0,0,0,2,2,,,,,0.0,0.0,0.0,0.0,0.0,0.0,0
55.955137,-4.401926,88.40,0.00,0.00,84.93,88.40,88.40,0.00,84.94,10391,2022-09-19 10:33:19.293,2022-09-19 11:33:19.293,18,0,0,15.395,55.954469,-4.402580,0.00,0.00,0.00,3.30,-2.30,100.30,0,1,0,63,100,-7370,2087,15395,3076.50,11,P-GPS,1,0,0,0,0,0,0,1663583599293,3865,3859,3852,3828,0,0,27,,,,,,,0,0,0,-33.00,-23.00,1003.00,-899.00,0.00,922.00,6,884.00,0.00,849.31,0.00,0.00,0.00,0,,,100,100,0,2,0,0,0,2,2,,,,,0.0,0.0,0.0,0.0,0.0,0.0,0
55.955137,-4.401926,88.40,0.00,0.00,84.93,88.40,88.40,0.00,84.94,10493,2022-09-19 10:33:19.395,2022-09-19 11:33:19.395,18,0,0,15.395,55.954469,-4.402580,0.00,0.00,0.00,3.30,-2.20,100.30,0,1,0,63,100,-7370,2087,15395,3076.50,11,P-GPS,1,0,0,0,0,0,0,1663583599395,3865,3859,3852,3828,0,0,27,,,,,,,0,0,0,-33.00,-22.00,1003.00,-899.00,0.00,922.00,6,884.00,0.00,849.32,0.00,0.00,0.00,0,,,100,100,0,2,0,0,0,2,2,,,,,0.0,0.0,0.0,0.0,0.0,0.0,0
55.955137,-4.401926,88.40,0.00,0.00,84.94,88.40,88.40,0.00,84.94,10585,2022-09-19 10:33:19.488,2022-09-19 11:33:19.488,18,0,0,15.395,55.954469,-4.402580,0.00,0.00,0.00,3.20,-2.10,100.30,0,1,0,63,100,-7370,2087,15395,3076.50,11,P-GPS,1,0,0,0,0,0,0,1663583599487,3865,3859,3852,3828,0,0,27,,,,,,,0,0,0,-32.00,-21.00,1003.00,-900.00,0.00,922.00,6,884.00,0.00,849.37,0.00,0.00,0.00,0,,,100,100,0,2,0,0,0,2,2,,,,,0.0,0.0,0.0,0.0,0.0,0.0,0
55.955137,-4.401926,88.40,0.00,0.00,84.94,88.40,88.40,0.00,84.94,10692,2022-09-19 10:33:19.594,2022-09-19 11:33:19.594,18,0,0,15.395,55.954469,-4.402580,0.00,0.00,0.00,3.20,-2.00,100.40,0,1,0,63,100,-7370,2087,15395,3076.50,11,P-GPS,1,0,0,0,0,0,0,1663583599594,3865,3859,3852,3828,0,0,27,,,,,,,0,0,0,-32.00,-20.00,1004.00,-900.00,0.00,922.00,6,884.00,0.00,849.38,0.00,0.00,0.00,0,,,100,100,0,2,0,0,0,2,2,,,,,0.0,0.0,0.0,0.0,0.0,0.0,0
55.955137,-4.401926,88.40,0.00,0.00,84.93,88.40,88.40,0.00,84.94,10793,2022-09-19 10:33:19.695,2022-09-19 11:33:19.695,18,0,0,15.395,55.954469,-4.402580,0.00,0.00,0.00,3.10,-2.10,100.40,0,1,0,63,100,-7370,2087,15395,3076.50,11,P-GPS,1,0,0,0,0,0,0,1663583599695,3865,3859,3852,3828,0,0,27,,,,,,,0,0,0,-31.00,-21.00,1004.00,-900.00,0.00,922.00,6,884.00,0.00,849.32,0.00,0.00,0.00,0,,,100,100,0,2,0,0,0,2,2,,,,,0.0,0.0,0.0,0.0,0.0,0.0,0
55.955137,-4.401926,88.40,0.00,0.00,84.93,88.40,88.40,0.00,84.94,10884,2022-09-19 10:33:19.787,2022-09-19 11:33:19.787,18,0,0,15.395,55.954469,-4.402580,0.00,0.00,0.00,3.00,-2.20,100.40,0,1,0,63,100,-7370,2087,15395,3076.50,11,P-GPS,1,0,0,0,0,0,0,1663583599786,3865,3859,3852,3828,0,0,27,,,,,,,0,0,0,-30.00,-22.00,1004.00,-900.00,0.00,922.00,6,884.00,0.00,849.33,0.00,0.00,0.00,0,,,100,100,0,2,0,0,0,2,2,,,,,0.0,0.0,0.0,0.0,0.0,0.0,0
55.955137,-4.401926,88.40,0.00,0.00,84.94,88.40,88.40,0.00,84.94,10987,2022-09-19 10:33:19.890,2022-09-19 11:33:19.889,18,0,0,15.392,55.954469,-4.402580,0.00,0.00,0.00,3.10,-2.20,100.40,0,1,0,63,100,-7378,2085,15392,3076.50,11,P-GPS,1,0,0,0,0,0,0,1663583599889,3865,3859,3852,3828,0,0,27,,,,,,,0,0,0,-31.00,-22.00,1004.00,-900.00,0.00,922.00,6,884.00,0.00,849.36,0.00,0.00,0.00,0,,,100,100,0,2,0,0,0,2,2,,,,,0.0,0.0,0.0,0.0,0.0,0.0,0
55.955137,-4.401926,88.40,0.00,0.00,84.94,88.40,88.40,0.00,84.94,11090,2022-09-19 10:33:19.992,2022-09-19 11:33:19.992,18,0,0,15.392,55.954469,-4.402580,0.00,0.00,0.00,3.10,-2.10,100.40,0,1,0,63,100,-7378,2085,15392,3076.50,11,P-GPS,1,0,0,0,0,0,0,1663583599992,3865,3859,3852,3828,0,0,27,,,,,,,0,0,0,-31.00,-21.00,1004.00,-899.00,0.00,922.00,6,884.00,0.00,849.37,0.00,0.00,0.00,0,,,100,100,0,2,0,0,0,2,2,,,,,0.0,0.0,0.0,0.0,0.0,0.0,0
55.955137,-4.401926,88.40,0.00,0.00,84.94,88.40,88.40,0.00,84.94,11180,2022-09-19 10:33:20.082,2022-09-19 11:33:20.082,18,0,0,15.392,55.954469,-4.402580,0.00,0.00,0.00,3.30,-2.20,100.30,0,1,0,63,100,-7378,2085,15392,3076.50,11,P-GPS,1,0,0,0,0,0,0,1663583600082,3865,3859,3852,3828,0,0,27,,,,,,,0,0,0,-33.00,-22.00,1003.00,-899.00,0.00,922.00,6,884.00,0.00,849.35,0.00,0.00,0.00,0,,,100,100,0,2,0,0,0,2,2,,,,,0.0,0.0,0.0,0.0,0.0,0.0,0
55.955137,-4.401926,88.40,0.00,0.00,84.94,88.40,88.40,0.00,84.94,11291,2022-09-19 10:33:20.193,2022-09-19 11:33:20.193,18,0,0,15.392,55.954469,-4.402580,0.00,0.00,0.00,3.40,-2.20,100.30,0,1,0,63,100,-7378,2085,15392,3076.50,11,P-GPS,1,0,0,0,0,0,0,1663583600193,3865,3859,3852,3828,0,0,27,,,,,,,0,0,0,-34.00,-22.00,1003.00,-899.00,0.00,922.00,6,884.00,0.00,849.36,0.00,0.00,0.00,0,,,100,100,0,2,0,0,0,2,2,,,,,0.0,0.0,0.0,0.0,0.0,0.0,0
55.955137,-4.401926,88.40,0.00,0.00,84.94,88.40,88.40,0.00,84.94,11387,2022-09-19 10:33:20.290,2022-09-19 11:33:20.289,18,0,0,15.392,55.954469,-4.402580,0.00,0.00,0.00,4.90,-1.40,100.40,0,1,0,63,100,-7378,2085,15392,3076.50,11,P-GPS,1,0,0,0,0,0,0,1663583600289,3865,3859,3852,3828,0,0,27,,,,,,,0,0,0,-49.00,-14.00,1004.00,-899.00,0.00,922.00,17,884.00,0.00,849.40,0.00,0.00,0.00,0,,,100,100,0,2,0,0,0,2,2,,,,,0.0,0.0,0.0,0.0,0.0,0.0,0
55.955137,-4.401926,88.40,0.00,0.00,84.94,88.40,88.40,0.00,84.94,11487,2022-09-19 10:33:20.389,2022-09-19 11:33:20.389,18,0,0,15.392,55.954469,-4.402580,0.00,0.00,0.00,4.60,-1.60,100.40,0,1,0,63,100,-7378,2085,15392,3076.50,11,Joystick,1,0,0,0,0,0,0,1663583600389,3865,3859,3852,3828,0,0,27,,,,,,,0,0,0,-46.00,-16.00,1004.00,-899.00,0.00,922.00,17,884.00,0.00,849.40,0.00,0.00,0.00,0,,,100,100,0,2,0,0,0,2,2,,,,,0.0,0.0,0.0,0.0,0.0,0.0,0
55.955137,-4.401926,88.40,0.00,0.00,84.94,88.40,88.40,0.00,84.94,11583,2022-09-19 10:33:20.486,2022-09-19 11:33:20.485,18,0,0,15.392,55.954469,-4.402580,0.00,0.00,0.00,4.30,-1.90,100.40,0,1,0,63,100,-7378,2085,15392,3076.50,11,Joystick,1,0,0,0,0,0,0,1663583600485,3865,3859,3852,3828,0,0,27,,,,,,,0,0,0,-43.00,-19.00,1004.00,-899.00,0.00,922.00,17,884.00,0.00,849.35,0.00,0.00,0.00,0,,,100,100,0,2,0,0,0,2,2,,,,,0.0,0.0,0.0,0.0,0.0,0.0,0
55.955137,-4.401926,88.40,0.00,0.00,84.93,88.40,88.40,0.00,84.94,11686,2022-09-19 10:33:20.589,2022-09-19 11:33:20.588,18,0,0,15.392,55.954469,-4.402580,0.00,0.00,0.00,4.00,-2.00,100.40,0,1,0,63,100,-7378,2085,15392,3076.50,11,Joystick,1,0,0,0,0,0,0,1663583600588,3865,3859,3852,3828,0,0,27,,,,,,,0,0,0,-40.00,-20.00,1004.00,-899.00,0.00,922.00,17,884.00,0.00,849.33,0.00,0.00,0.00,0,,,100,100,0,2,0,0,0,2,2,,,,,0.0,0.0,0.0,0.0,0.0,0.0,0
55.955137,-4.401926,88.40,0.00,0.00,84.93,88.40,88.40,0.00,84.94,11786,2022-09-19 10:33:20.690,2022-09-19 11:33:20.688,18,0,0,15.392,55.954469,-4.402580,0.00,0.00,0.00,4.00,-2.00,100.40,0,1,0,63,100,-7378,2085,15392,3076.50,11,Joystick,1,0,0,0,0,0,0,1663583600688,3865,3859,3852,3828,0,0,27,,,,,,,0,0,0,-40.00,-20.00,1004.00,-900.00,0.00,922.00,17,884.00,0.00,849.33,0.00,0.00,0.00,0,,,100,100,0,2,0,0,0,2,2,,,,,0.0,0.0,0.0,0.0,0.0,0.0,0
55.955137,-4.401926,88.40,0.00,0.00,84.91,88.40,88.40,0.00,84.94,11892,2022-09-19 10:33:20.795,2022-09-19 11:33:20.794,18,0,0,15.392,55.954469,-4.402580,0.00,0.00,0.00,3.50,-2.30,100.40,0,1,0,63,100,-7378,2085,15392,3076.50,11,Joystick,1,0,0,0,0,0,0,1663583600794,3865,3859,3852,3828,0,0,27,,,,,,,0,0,0,-35.00,-23.00,1004.00,-900.00,0.00,922.00,17,884.00,0.00,849.15,0.00,0.00,0.00,0,,,100,100,0,2,0,0,0,2,2,,,,,0.0,0.0,0.0,0.0,0.0,0.0,0
55.955137,-4.401926,88.40,0.00,0.00,84.92,88.40,88.40,0.00,84.94,11986,2022-09-19 10:33:20.889,2022-09-19 11:33:20.888,18,0,0,15.389,55.954469,-4.402580,0.00,0.00,0.00,3.40,-2.20,100.40,0,1,0,63,100,-7404,2083,15389,3076.50,11,Joystick,1,0,0,0,0,0,0,1663583600888,3865,3859,3852,3828,0,0,27,,,,,,,0,0,0,-34.00,-22.00,1004.00,-900.00,0.00,922.00,17,884.00,0.00,849.18,0.00,0.00,0.00,0,,,100,100,0,2,0,0,0,2,2,,,,,0.0,0.0,0.0,0.0,0.0,0.0,0
55.955137,-4.401926,88.40,0.00,0.00,84.92,88.40,88.40,0.00,84.94,12092,2022-09-19 10:33:20.994,2022-09-19 11:33:20.994,18,0,0,15.389,55.954469,-4.402580,0.00,0.00,0.00,3.50,-2.10,100.40,0,1,0,63,100,-7404,2083,15389,3076.50,11,Joystick,1,0,0,0,0,0,0,1663583600994,3865,3859,3852,3828,0,0,27,,,,,,,0,0,0,-35.00,-21.00,1004.00,-900.00,0.00,922.00,17,884.00,0.00,849.16,0.00,0.00,0.00,0,,,100,100,0,2,0,0,0,2,2,,,,,0.0,0.0,0.0,0.0,0.0,0.0,0
55.955137,-4.401926,88.40,0.00,0.00,84.92,88.40,88.40,0.00,84.94,12183,2022-09-19 10:33:21.085,2022-09-19 11:33:21.085,18,0,0,15.389,55.954469,-4.402580,0.00,0.00,0.00,3.50,-2.00,100.40,0,1,0,63,100,-7404,2083,15389,3076.50,11,Joystick,1,0,0,0,0,0,0,1663583601085,3865,3859,3852,3828,0,0,27,,,,,,,0,0,0,-35.00,-20.00,1004.00,-900.00,0.00,922.00,17,884.00,0.00,849.18,0.00,0.00,0.00,0,,,100,100,0,2,0,0,0,2,2,,,,,0.0,0.0,0.0,0.0,0.0,0.0,0
55.955137,-4.401926,88.40,0.00,0.00,84.92,88.40,88.40,0.00,84.94,12289,2022-09-19 10:33:21.192,2022-09-19 11:33:21.191,18,0,0,15.389,55.954469,-4.402580,0.00,0.00,0.00,3.50,-2.10,100.50,0,1,0,63,100,-7404,2083,15389,3076.50,11,Joystick,1,0,0,0,0,0,0,1663583601191,3865,3859,3852,3828,0,0,27,,,,,,,0,0,0,-35.00,-21.00,1005.00,-900.00,0.00,922.00,17,884.00,0.00,849.17,0.00,0.00,0.00,0,,,100,100,0,2,0,0,0,2,2,,,,,0.0,0.0,0.0,0.0,0.0,0.0,0
55.955137,-4.401926,88.40,0.00,0.00,84.90,88.40,88.40,0.00,84.94,12383,2022-09-19 10:33:21.285,2022-09-19 11:33:21.285,18,0,0,15.389,55.954469,-4.402580,0.00,0.00,0.00,3.40,-2.10,100.40,0,1,0,63,100,-7404,2083,15389,3076.50,11,Joystick,1,0,0,0,0,0,0,1663583601285,3865,3859,3852,3828,0,0,27,,,,,,,0,0,0,-34.00,-21.00,1004.00,-900.00,0.00,922.00,17,884.00,0.00,848.99,0.00,0.00,0.00,0,,,100,100,0,2,0,0,0,2,2,,,,,0.0,0.0,0.0,0.0,0.0,0.0,0
55.955137,-4.401926,88.40,0.00,0.00,84.90,88.40,88.40,0.00,84.94,12484,2022-09-19 10:33:21.387,2022-09-19 11:33:21.386,18,0,0,15.389,55.954469,-4.402580,0.00,0.00,0.00,3.50,-2.20,100.50,0,1,0,63,100,-7404,2083,15389,3076.50,11,Joystick,1,0,0,0,0,0,0,1663583601386,3865,3859,3852,3828,0,0,27,,,,,,,0,0,0,-35.00,-22.00,1005.00,-900.00,0.00,922.00,17,884.00,0.00,848.96,0.00,0.00,0.00,0,,,100,100,0,2,0,0,0,2,2,,,,,0.0,0.0,0.0,0.0,0.0,0.0,0
55.955137,-4.401926,88.40,0.00,0.00,84.89,88.40,88.40,0.00,84.94,12593,2022-09-19 10:33:21.495,2022-09-19 11:33:21.495,18,0,0,15.389,55.954469,-4.402580,0.00,0.00,0.00,3.50,-2.30,100.40,0,1,0,63,100,-7404,2083,15389,3076.50,11,Joystick,1,0,0,0,0,0,0,1663583601495,3865,3859,3852,3828,0,0,27,,,,,,,0,0,0,-35.00,-23.00,1004.00,-900.00,0.00,922.00,17,884.00,0.00,848.93,0.00,0.00,0.00,0,,,100,100,0,2,0,0,0,2,2,,,,,0.0,0.0,0.0,0.0,0.0,0.0,0
55.955137,-4.401926,88.40,0.00,0.00,84.89,88.40,88.40,0.00,84.94,12684,2022-09-19 10:33:21.587,2022-09-19 11:33:21.586,18,0,0,15.389,55.954469,-4.402580,0.00,0.00,0.00,3.40,-2.30,100.40,0,1,0,63,100,-7404,2083,15389,3076.50,11,Joystick,1,0,0,0,0,0,0,1663583601586,3865,3859,3852,3828,0,0,27,,,,,,,0,0,0,-34.00,-23.00,1004.00,-900.00,0.00,922.00,17,884.00,0.00,848.91,0.00,0.00,0.00,0,,,100,100,0,2,0,0,0,2,2,,,,,0.0,0.0,0.0,0.0,0.0,0.0,0
55.955137,-4.401927,88.40,0.00,0.00,84.89,88.40,88.40,0.00,84.94,12787,2022-09-19 10:33:21.690,2022-09-19 11:33:21.689,18,0,0,15.389,55.954469,-4.402580,0.00,0.00,0.00,3.30,-2.20,100.40,0,1,0,63,100,-7404,2083,15389,3076.50,11,Joystick,1,0,0,0,0,0,0,1663583601689,3865,3859,3852,3828,0,0,27,,,,,,,0,0,0,-33.00,-22.00,1004.00,-900.00,0.00,922.00,17,884.00,0.00,848.90,0.00,0.00,0.00,0,,,100,100,0,2,0,0,0,2,2,,,,,0.0,0.0,0.0,0.0,0.0,0.0,0
55.955137,-4.401927,88.40,0.00,0.00,84.89,88.40,88.40,0.00,84.94,12882,2022-09-19 10:33:21.784,2022-09-19 11:33:21.784,18,0,0,15.389,55.954469,-4.402580,0.00,0.00,0.00,3.30,-2.00,100.40,0,1,0,63,100,-7404,2083,15389,3076.50,11,Joystick,1,0,0,0,0,0,0,1663583601784,3865,3859,3852,3828,0,0,27,,,,,,,0,0,0,-33.00,-20.00,1004.00,-900.00,0.00,922.00,17,884.00,0.00,848.89,0.00,0.00,0.00,0,,,100,100,0,2,0,0,0,2,2,,,,,0.0,0.0,0.0,0.0,0.0,0.0,0
55.955137,-4.401927,88.40,0.00,0.00,84.87,88.40,88.40,0.00,84.94,12987,2022-09-19 10:33:21.889,2022-09-19 11:33:21.889,18,0,0,15.384,55.954469,-4.402580,0.00,0.00,0.00,3.30,-2.10,100.40,0,1,0,63,100,-7432,2081,15384,3076.50,11,Joystick,1,0,0,0,0,0,0,1663583601889,3865,3859,3852,3828,0,0,27,,,,,,,0,0,0,-33.00,-21.00,1004.00,-900.00,0.00,922.00,17,884.00,0.00,848.72,0.00,0.00,0.00,0,,,100,100,0,2,0,0,0,2,2,,,,,0.0,0.0,0.0,0.0,0.0,0.0,0
55.955137,-4.401927,88.40,0.00,0.00,84.87,88.40,88.40,0.00,84.94,13093,2022-09-19 10:33:21.996,2022-09-19 11:33:21.995,18,0,0,15.384,55.954469,-4.402580,0.00,0.00,0.00,3.30,-2.10,100.40,0,1,0,63,100,-7432,2081,15384,3076.50,11,Joystick,1,0,0,0,0,0,0,1663583601995,3865,3859,3852,3828,0,0,27,,,,,,,0,0,0,-33.00,-21.00,1004.00,-900.00,0.00,922.00,17,884.00,0.00,848.70,0.00,0.00,0.00,0,,,100,100,0,2,0,0,0,2,2,,,,,0.0,0.0,0.0,0.0,0.0,0.0,0
55.955137,-4.401927,88.40,0.00,0.00,84.87,88.40,88.40,0.00,84.94,13184,2022-09-19 10:33:22.087,2022-09-19 11:33:22.086,18,0,0,15.384,55.954469,-4.402580,0.00,0.00,0.00,3.30,-2.10,100.30,0,1,0,63,100,-7432,2081,15384,3076.50,11,Joystick,1,0,0,0,0,0,0,1663583602086,3865,3859,3852,3828,0,0,27,,,,,,,0,0,0,-33.00,-21.00,1003.00,-900.00,0.00,922.00,17,884.00,0.00,848.68,0.00,0.00,0.00,0,,,100,100,0,2,0,0,0,2,2,,,,,0.0,0.0,0.0,0.0,0.0,0.0,0
55.955137,-4.401927,88.40,0.00,0.00,84.87,88.40,88.40,0.00,84.94,13284,2022-09-19 10:33:22.187,2022-09-19 11:33:22.186,18,0,0,15.384,55.954469,-4.402580,0.00,0.00,0.00,3.40,-2.10,100.30,0,1,0,63,100,-7432,2081,15384,3076.50,11,Joystick,1,0,0,0,0,0,0,1663583602186,3865,3859,3852,3828,0,0,27,,,,,,,0,0,0,-34.00,-21.00,1003.00,-900.00,0.00,922.00,17,884.00,0.00,848.66,0.00,0.00,0.00,0,,,100,100,0,2,0,0,0,2,2,,,,,0.0,0.0,0.0,0.0,0.0,0.0,0
55.955137,-4.401927,88.40,0.00,0.00,84.87,88.40,88.40,0.00,84.94,13387,2022-09-19 10:33:22.289,2022-09-19 11:33:22.289,18,0,0,15.384,55.954469,-4.402580,0.00,0.00,0.00,3.40,-2.00,100.30,0,1,0,63,100,-7432,2081,15384,3076.50,11,Joystick,1,0,0,0,0,0,0,1663583602289,3865,3859,3852,3828,0,0,27,,,,,,,0,0,0,-34.00,-20.00,1003.00,-900.00,0.00,922.00,17,884.00,0.00,848.67,0.00,0.00,0.00,0,,,100,100,0,2,0,0,0,2,2,,,,,0.0,0.0,0.0,0.0,0.0,0.0,0
55.955137,-4.401927,88.40,0.00,0.00,84.87,88.40,88.40,0.00,84.94,13487,2022-09-19 10:33:22.390,2022-09-19 11:33:22.389,18,0,0,15.384,55.954469,-4.402580,0.00,0.00,0.00,3.40,-2.00,100.30,0,1,0,63,100,-7432,2081,15384,3076.50,11,Joystick,1,0,0,0,0,0,0,1663583602389,3865,3859,3852,3828,0,0,27,,,,,,,0,0,0,-34.00,-20.00,1003.00,-900.00,0.00,922.00,17,884.00,0.00,848.66,0.00,0.00,0.00,0,,,100,100,0,2,0,0,0,2,2,,,,,0.0,0.0,0.0,0.0,0.0,0.0,0
55.955137,-4.401927,88.40,0.00,0.00,84.86,88.40,88.40,0.00,84.94,13587,2022-09-19 10:33:22.489,2022-09-19 11:33:22.489,18,0,0,15.384,55.954469,-4.402580,0.00,0.00,0.00,3.30,-2.10,100.30,0,1,0,63,100,-7432,2081,15384,3076.50,11,Joystick,1,0,0,0,0,0,0,1663583602489,3865,3859,3852,3828,0,0,27,,,,,,,0,0,0,-33.00,-21.00,1003.00,-900.00,0.00,922.00,17,884.00,0.00,848.61,0.00,0.00,0.00,0,,,100,100,0,2,0,0,0,2,2,,,,,0.0,0.0,0.0,0.0,0.0,0.0,0
55.955137,-4.401927,88.40,0.00,0.00,84.86,88.40,88.40,0.00,84.94,13686,2022-09-19 10:33:22.588,2022-09-19 11:33:22.588,18,0,0,15.384,55.954469,-4.402580,0.00,0.00,0.00,3.30,-2.20,100.30,0,1,0,63,100,-7432,2081,15384,3076.50,11,Joystick,1,0,0,0,0,0,0,1663583602588,3865,3859,3852,3828,0,0,27,,,,,,,0,0,0,-33.00,-22.00,1003.00,-900.00,0.00,922.00,17,884.00,0.00,848.60,0.00,0.00,0.00,0,,,100,100,0,2,0,0,0,2,2,,,,,0.0,0.0,0.0,0.0,0.0,0.0,0
55.955137,-4.401928,88.40,0.00,0.00,84.86,88.40,88.40,0.00,84.94,13800,2022-09-19 10:33:22.703,2022-09-19 11:33:22.702,18,0,0,15.384,55.954469,-4.402580,0.00,0.00,0.00,3.20,-2.10,100.40,0,1,0,63,100,-7432,2081,15384,3076.50,11,Joystick,1,0,0,0,0,0,0,1663583602702,3865,3859,3852,3828,0,0,27,,,,,,,0,0,0,-32.00,-21.00,1004.00,-900.00,0.00,922.00,17,884.00,0.00,848.55,0.00,0.00,0.00,0,,,100,100,0,2,0,0,0,2,2,,,,,0.0,0.0,0.0,0.0,0.0,0.0,0
55.955137,-4.401928,88.40,0.00,0.00,84.85,88.40,88.40,0.00,84.94,13887,2022-09-19 10:33:22.790,2022-09-19 11:33:22.789,18,0,0,15.384,55.954469,-4.402580,0.00,0.00,0.00,3.30,-2.10,100.40,0,1,0,63,100,-7432,2081,15384,3076.50,11,Joystick,1,0,0,0,0,0,0,1663583602789,3865,3859,3852,3828,0,0,27,,,,,,,0,0,0,-33.00,-21.00,1004.00,-900.00,0.00,922.00,17,884.00,0.00,848.54,0.00,0.00,0.00,0,,,100,100,0,2,0,0,0,2,2,,,,,0.0,0.0,0.0,0.0,0.0,0.0,0
