latitude,longitude,altitude(m),ultrasonicHeight(m),speed(mps),distance(m),max_altitude(m),max_ascent(m),max_speed(mps),max_distance(m),time(millisecond),datetime(utc),datetime(local),satellites,pressure(Pa),temperature(F),voltage(v),home_latitude,home_longitude,velocityX(mps),velocityY(mps),velocityZ(mps),pitch(deg),roll(deg),yaw(deg),powerlevel,isflying,istakingphoto,remainPowerPercent,remainLifePercent,currentCurrent,currentElectricity,currentVoltage,batteryTemperature,dischargeCount,flightmode,isMotorsOn,isTakingVideo,Rc_elevator,Rc_aileron,Rc_throttle,Rc_rudder,Rc_gyro,timestamp,Battery_Cell1,Battery_Cell2,Battery_Cell3,Battery_Cell4,Battery_Cell5,Battery_Cell6,Dronetype,AppVersion,Planename,FlyControllerSerialNumber,RemoteSerialNumber,BatterySerialNumber,CENTER_BATTERY.productDate,CENTER_BATTERY.serialNo,CENTER_BATTERY.fullCapacity,CENTER_BATTERY.productDateRaw,pitchRaw,rollRaw,yawRaw,gimbalPitchRaw,gimbalRollRaw,gimbalYawRaw,flyState,altitudeRaw,speedRaw,distanceRaw,velocityXRaw,velocityYRaw,velocityZRaw,data_reuse,App_Tip,App_Warning,downlinkSignalQuality,uplinkSignalQuality,transmissionChannel,rcModeSwitch,rcHome,rcPause,rcTransform,rcJoystickMode,appMode,FlyControllerSerialNumber_legacy,RemoteSerialNumber_legacy,BatterySerialNumber_legacy,Battery2SerialNumber,frontAvoidDist,backAvoidDist,rightAvoidDist,leftAvoidDist,upAvoidDist,downAvoidDist,isBrakingToAvoid
55.955356,-4.402550,0.20,0.30,0.41,0.10,0.20,0.20,0.41,0.10,0,2022-09-24 11:29:30.020,2022-09-24 12:29:30.020,16,0,0,15.925,55.955356,-4.402549,-0.10,0.00,-0.40,-1.60,0.30,10.80,0,1,0,65,100,-4695,2134,15925,3069.50,12,TakeOff,1,0,0,0,0,0,0,1664018970020,3976,3971,3976,3964,0,0,27,Litchi_4.24.1-g,CJTMAVIC,163DFAS001K45C,0VECFAK0072T52,0P2AFAL5340E87,,0,0,0,16.00,3.00,108.00,0.00,0.00,123.00,11,2.00,4.12,1.01,-1.00,0.00,-4.00,0,,,100,100,0,2,0,0,0,2,0,,,,null,0.0,3.0,0.0,0.0,0.0,0.0,0
55.955355,-4.402551,0.20,0.30,0.41,0.12,0.20,0.20,0.41,0.12,86,2022-09-24 11:29:30.107,2022-09-24 12:29:30.106,16,0,0,15.925,55.955356,-4.402549,-0.10,0.00,-0.40,-2.00,0.70,10.70,0,1,0,65,100,-4695,2134,15925,3069.50,12,TakeOff,1,0,0,0,0,0,0,1664018970106,3976,3971,3976,3964,0,0,27,,,,,,,0,0,0,20.00,7.00,107.00,0.00,0.00,123.00,11,2.00,4.12,1.17,-1.00,0.00,-4.00,0,,,100,100,0,2,0,0,0,2,0,,,,,0.0,3.0,0.0,0.0,0.0,0.0,0
55.955355,-4.402551,0.20,0.30,0.41,0.12,0.20,0.20,0.41,0.12,96,2022-09-24 11:29:30.116,2022-09-24 12:29:30.116,16,0,0,15.925,55.955356,-4.402549,-0.10,0.00,-0.40,-2.00,0.70,10.70,0,1,0,65,100,-4695,2134,15925,3069.50,12,TakeOff,1,0,0,0,0,0,0,1664018970116,3976,3971,3976,3964,0,0,27,,,,,,,0,0,0,20.00,7.00,107.00,0.00,0.00,123.00,11,2.00,4.12,1.17,-1.00,0.00,-4.00,0,,,100,100,0,2,0,0,0,2,0,,,,,0.0,3.0,0.0,0.0,0.0,0.0,0
55.955355,-4.402551,0.30,0.40,0.41,0.15,0.30,0.30,0.41,0.15,195,2022-09-24 11:29:30.215,2022-09-24 12:29:30.215,16,0,0,15.925,55.955356,-4.402549,-0.10,0.00,-0.40,-2.60,0.60,10.60,0,1,0,65,100,-4695,2134,15925,3069.50,12,TakeOff,1,0,0,0,0,0,0,1664018970215,3976,3971,3976,3964,0,0,27,,,,,,,0,0,0,26.00,6.00,106.00,0.00,0.00,122.00,11,3.00,4.12,1.45,-1.00,0.00,-4.00,0,,,100,100,0,2,0,0,0,2,0,,,,,0.0,3.0,0.0,0.0,0.0,0.0,0
55.955355,-4.402551,0.30,0.40,0.41,0.15,0.30,0.30,0.41,0.15,197,2022-09-24 11:29:30.217,2022-09-24 12:29:30.217,16,0,0,15.925,55.955356,-4.402549,-0.10,0.00,-0.40,-2.60,0.60,10.60,0,1,0,65,100,-4695,2134,15925,3069.50,12,TakeOff,1,0,0,0,0,0,0,1664018970217,3976,3971,3976,3964,0,0,27,,,,,,,0,0,0,26.00,6.00,106.00,0.00,0.00,122.00,11,3.00,4.12,1.45,-1.00,0.00,-4.00,0,,,100,100,0,2,0,0,0,2,0,,,,,0.0,3.0,0.0,0.0,0.0,0.0,0
55.955355,-4.402551,0.30,0.50,0.41,0.16,0.30,0.30,0.41,0.16,299,2022-09-24 11:29:30.319,2022-09-24 12:29:30.319,16,0,0,15.925,55.955356,-4.402549,-0.10,0.00,-0.40,-3.20,0.50,10.70,0,1,0,65,100,-4695,2134,15925,3069.50,12,TakeOff,1,0,0,0,0,0,0,1664018970319,3976,3971,3976,3964,0,0,27,,,,,,,0,0,0,32.00,5.00,107.00,0.00,0.00,122.00,11,3.00,4.12,1.61,-1.00,0.00,-4.00,0,,,100,100,0,2,0,0,0,2,0,,,,,0.0,3.0,0.0,0.0,0.0,0.0,0
55.955355,-4.402551,0.30,0.50,0.41,0.16,0.30,0.30,0.41,0.16,301,2022-09-24 11:29:30.321,2022-09-24 12:29:30.321,16,0,0,15.925,55.955356,-4.402549,-0.10,0.00,-0.40,-3.20,0.50,10.70,0,1,0,65,100,-4695,2134,15925,3069.50,12,TakeOff,1,0,0,0,0,0,0,1664018970321,3976,3971,3976,3964,0,0,27,,,,,,,0,0,0,32.00,5.00,107.00,0.00,0.00,122.00,11,3.00,4.12,1.61,-1.00,0.00,-4.00,0,,,100,100,0,2,0,0,0,2,0,,,,,0.0,3.0,0.0,0.0,0.0,0.0,0
55.955355,-4.402551,0.40,0.50,0.51,0.19,0.40,0.40,0.51,0.19,395,2022-09-24 11:29:30.415,2022-09-24 12:29:30.415,17,0,0,15.925,55.955356,-4.402549,-0.10,0.00,-0.50,-3.60,0.20,10.80,0,1,0,65,100,-4695,2134,15925,3069.50,12,TakeOff,1,0,0,0,0,0,0,1664018970415,3976,3971,3976,3964,0,0,27,,,,,,,0,0,0,36.00,2.00,108.00,0.00,0.00,122.00,11,4.00,5.10,1.90,-1.00,0.00,-5.00,0,,,100,100,0,2,0,0,0,2,0,,,,,0.0,3.0,0.0,0.0,0.0,0.0,0
55.955355,-4.402551,0.40,0.50,0.51,0.19,0.40,0.40,0.51,0.19,396,2022-09-24 11:29:30.416,2022-09-24 12:29:30.416,17,0,0,15.925,55.955356,-4.402549,-0.10,0.00,-0.50,-3.60,0.20,10.80,0,1,0,65,100,-4695,2134,15925,3069.50,12,TakeOff,1,0,0,0,0,0,0,1664018970416,3976,3971,3976,3964,0,0,27,,,,,,,0,0,0,36.00,2.00,108.00,0.00,0.00,122.00,11,4.00,5.10,1.90,-1.00,0.00,-5.00,0,,,100,100,0,2,0,0,0,2,0,,,,,0.0,3.0,0.0,0.0,0.0,0.0,0
55.955355,-4.402551,0.40,0.50,0.51,0.20,0.40,0.40,0.51,0.20,495,2022-09-24 11:29:30.516,2022-09-24 12:29:30.515,17,0,0,15.925,55.955356,-4.402549,-0.10,0.00,-0.50,-3.50,0.00,10.90,0,1,0,65,100,-4695,2134,15925,3069.50,12,TakeOff,1,0,0,0,0,0,0,1664018970515,3976,3971,3976,3964,0,0,27,,,,,,,0,0,0,35.00,0.00,109.00,0.00,0.00,122.00,11,4.00,5.10,2.04,-1.00,0.00,-5.00,0,,,100,100,0,2,0,0,0,2,0,,,,,0.0,3.0,0.0,0.0,0.0,0.0,0
55.955355,-4.402551,0.40,0.50,0.51,0.20,0.40,0.40,0.51,0.20,497,2022-09-24 11:29:30.517,2022-09-24 12:29:30.517,17,0,0,15.925,55.955356,-4.402549,-0.10,0.00,-0.50,-3.50,0.00,10.90,0,1,0,65,100,-4695,2134,15925,3069.50,12,TakeOff,1,0,0,0,0,0,0,1664018970517,3976,3971,3976,3964,0,0,27,,,,,,,0,0,0,35.00,0.00,109.00,0.00,0.00,122.00,11,4.00,5.10,2.04,-1.00,0.00,-5.00,0,,,100,100,0,2,0,0,0,2,0,,,,,0.0,3.0,0.0,0.0,0.0,0.0,0
55.955355,-4.402552,0.50,0.60,0.51,0.22,0.50,0.50,0.51,0.22,595,2022-09-24 11:29:30.615,2022-09-24 12:29:30.615,17,0,0,15.925,55.955356,-4.402549,-0.10,0.00,-0.50,-3.40,0.00,11.00,0,1,0,65,100,-4695,2134,15925,3069.50,12,TakeOff,1,0,0,0,0,0,0,1664018970615,3953,3948,3950,3935,0,0,27,,,,,,,0,0,0,34.00,0.00,110.00,0.00,0.00,121.00,11,5.00,5.10,2.24,-1.00,0.00,-5.00,0,,,100,100,0,2,0,0,0,2,0,,,,,0.0,3.0,0.0,0.0,0.0,0.0,0
55.955355,-4.402552,0.50,0.60,0.51,0.22,0.50,0.50,0.51,0.22,598,2022-09-24 11:29:30.619,2022-09-24 12:29:30.618,17,0,0,15.925,55.955356,-4.402549,-0.10,0.00,-0.50,-3.40,0.00,11.00,0,1,0,65,100,-4695,2134,15925,3069.50,12,TakeOff,1,0,0,0,0,0,0,1664018970618,3953,3948,3950,3935,0,0,27,,,,,,,0,0,0,34.00,0.00,110.00,0.00,0.00,121.00,11,5.00,5.10,2.24,-1.00,0.00,-5.00,0,,,100,100,0,2,0,0,0,2,0,,,,,0.0,3.0,0.0,0.0,0.0,0.0,0
55.955355,-4.402552,0.50,0.70,0.50,0.23,0.50,0.50,0.51,0.23,685,2022-09-24 11:29:30.706,2022-09-24 12:29:30.705,17,0,0,15.785,55.955356,-4.402549,0.00,0.00,-0.50,-3.30,-0.10,10.90,0,1,0,65,100,-5806,2133,15785,3069.50,12,TakeOff,1,0,0,0,0,0,0,1664018970705,3953,3948,3950,3935,0,0,27,,,,,,,0,0,0,33.00,-1.00,109.00,0.00,0.00,121.00,11,5.00,5.00,2.35,0.00,0.00,-5.00,0,,,100,100,0,2,0,0,0,2,0,,,,,0.0,2.9,0.0,0.0,0.0,0.0,0
55.955355,-4.402552,0.50,0.70,0.50,0.23,0.50,0.50,0.51,0.23,746,2022-09-24 11:29:30.767,2022-09-24 12:29:30.767,17,0,0,15.785,55.955356,-4.402549,0.00,0.00,-0.50,-3.30,-0.10,10.90,0,1,0,65,100,-5806,2133,15785,3069.50,12,TakeOff,1,0,0,0,0,0,0,1664018970766,3953,3948,3950,3935,0,0,27,,,,,,,0,0,0,33.00,-1.00,109.00,0.00,0.00,121.00,11,5.00,5.00,2.35,0.00,0.00,-5.00,0,,,100,100,0,2,0,0,0,2,0,,,,,0.0,2.9,0.0,0.0,0.0,0.0,0
55.955354,-4.402552,0.60,0.70,0.50,0.25,0.60,0.60,0.51,0.25,780,2022-09-24 11:29:30.800,2022-09-24 12:29:30.800,17,0,0,15.785,55.955356,-4.402549,0.00,0.00,-0.50,-3.30,-0.60,10.70,0,1,0,65,100,-5806,2133,15785,3069.50,12,TakeOff,1,0,0,0,0,0,0,1664018970800,3953,3948,3950,3935,0,0,27,,,,,,,0,0,0,33.00,-6.00,107.00,0.00,0.00,121.00,11,6.00,5.00,2.51,0.00,0.00,-5.00,0,,,100,100,0,2,0,0,0,2,0,,,,,0.0,2.9,0.0,0.0,0.0,0.0,0
55.955354,-4.402552,0.60,0.70,0.50,0.25,0.60,0.60,0.51,0.25,781,2022-09-24 11:29:30.801,2022-09-24 12:29:30.801,17,0,0,15.785,55.955356,-4.402549,0.00,0.00,-0.50,-3.30,-0.60,10.70,0,1,0,65,100,-5806,2133,15785,3069.50,12,TakeOff,1,0,0,0,0,0,0,1664018970801,3953,3948,3950,3935,0,0,27,,,,,,,0,0,0,33.00,-6.00,107.00,0.00,0.00,121.00,11,6.00,5.00,2.51,0.00,0.00,-5.00,0,,,100,100,0,2,0,0,0,2,0,,,,,0.0,2.9,0.0,0.0,0.0,0.0,0
55.955354,-4.402552,0.60,0.80,0.50,0.26,0.60,0.60,0.51,0.26,881,2022-09-24 11:29:30.901,2022-09-24 12:29:30.901,17,0,0,15.785,55.955356,-4.402549,0.00,0.00,-0.50,-3.20,-0.50,10.60,0,1,0,65,100,-5806,2133,15785,3069.50,12,TakeOff,1,0,0,0,0,0,0,1664018970901,3953,3948,3950,3935,0,0,27,,,,,,,0,0,0,32.00,-5.00,106.00,0.00,0.00,121.00,11,6.00,5.00,2.61,0.00,0.00,-5.00,0,,,100,100,0,2,0,0,0,2,0,,,,,0.0,2.9,0.0,0.0,0.0,0.0,0
55.955354,-4.402552,0.60,0.80,0.50,0.26,0.60,0.60,0.51,0.26,882,2022-09-24 11:29:30.903,2022-09-24 12:29:30.902,17,0,0,15.785,55.955356,-4.402549,0.00,0.00,-0.50,-3.20,-0.50,10.60,0,1,0,65,100,-5806,2133,15785,3069.50,12,TakeOff,1,0,0,0,0,0,0,1664018970902,3953,3948,3950,3935,0,0,27,,,,,,,0,0,0,32.00,-5.00,106.00,0.00,0.00,121.00,11,6.00,5.00,2.61,0.00,0.00,-5.00,0,,,100,100,0,2,0,0,0,2,0,,,,,0.0,2.9,0.0,0.0,0.0,0.0,0
55.955354,-4.402552,0.70,0.80,0.50,0.25,0.70,0.70,0.51,0.26,987,2022-09-24 11:29:31.007,2022-09-24 12:29:31.007,17,0,0,15.785,55.955356,-4.402549,0.00,0.00,-0.50,-3.20,-0.60,10.60,0,1,0,65,100,-5806,2133,15785,3069.50,12,TakeOff,1,0,0,0,0,0,0,1664018971007,3953,3948,3950,3935,0,0,27,,,,,,,0,0,0,32.00,-6.00,106.00,0.00,0.00,121.00,11,7.00,5.00,2.52,0.00,0.00,-5.00,0,,,100,100,0,2,0,0,0,2,0,,,,,0.0,2.9,0.0,0.0,0.0,0.0,0
55.955354,-4.402552,0.70,0.80,0.50,0.25,0.70,0.70,0.51,0.26,990,2022-09-24 11:29:31.010,2022-09-24 12:29:31.010,17,0,0,15.785,55.955356,-4.402549,0.00,0.00,-0.50,-3.20,-0.60,10.60,0,1,0,65,100,-5806,2133,15785,3069.50,12,TakeOff,1,0,0,0,0,0,0,1664018971010,3953,3948,3950,3935,0,0,27,,,,,,,0,0,0,32.00,-6.00,106.00,0.00,0.00,121.00,11,7.00,5.00,2.52,0.00,0.00,-5.00,0,,,100,100,0,2,0,0,0,2,0,,,,,0.0,2.9,0.0,0.0,0.0,0.0,0
55.955354,-4.402552,0.70,0.90,0.50,0.26,0.70,0.70,0.51,0.26,1088,2022-09-24 11:29:31.108,2022-09-24 12:29:31.108,17,0,0,15.785,55.955356,-4.402549,0.00,0.00,-0.50,-3.00,-0.50,10.60,0,1,0,65,100,-5806,2133,15785,3069.50,12,TakeOff,1,0,0,0,0,0,0,1664018971108,3953,3948,3950,3935,0,0,27,,,,,,,0,0,0,30.00,-5.00,106.00,0.00,0.00,121.00,11,7.00,5.00,2.60,0.00,0.00,-5.00,0,,,100,100,0,2,0,0,0,2,0,,,,,0.0,2.9,0.0,0.0,0.0,0.0,0
55.955354,-4.402552,0.70,0.90,0.50,0.26,0.70,0.70,0.51,0.26,1089,2022-09-24 11:29:31.109,2022-09-24 12:29:31.109,17,0,0,15.785,55.955356,-4.402549,0.00,0.00,-0.50,-3.00,-0.50,10.60,0,1,0,65,100,-5806,2133,15785,3069.50,12,TakeOff,1,0,0,0,0,0,0,1664018971109,3953,3948,3950,3935,0,0,27,,,,,,,0,0,0,30.00,-5.00,106.00,0.00,0.00,121.00,11,7.00,5.00,2.60,0.00,0.00,-5.00,0,,,100,100,0,2,0,0,0,2,0,,,,,0.0,2.9,0.0,0.0,0.0,0.0,0
55.955354,-4.402552,0.80,1.00,0.50,0.26,0.80,0.80,0.51,0.26,1182,2022-09-24 11:29:31.202,2022-09-24 12:29:31.202,17,0,0,15.785,55.955356,-4.402549,0.00,0.00,-0.50,-2.70,0.00,10.60,0,1,0,65,100,-5806,2133,15785,3069.50,12,TakeOff,1,0,0,0,0,0,0,1664018971202,3953,3948,3950,3935,0,0,27,,,,,,,0,0,0,27.00,0.00,106.00,0.00,0.00,120.00,11,8.00,5.00,2.61,0.00,0.00,-5.00,0,,,100,100,0,2,0,0,0,2,0,,,,,0.0,0.0,0.0,0.0,0.0,0.0,0
55.955354,-4.402552,0.80,1.00,0.50,0.26,0.80,0.80,0.51,0.26,1183,2022-09-24 11:29:31.203,2022-09-24 12:29:31.203,17,0,0,15.785,55.955356,-4.402549,0.00,0.00,-0.50,-2.70,0.00,10.60,0,1,0,65,100,-5806,2133,15785,3069.50,12,TakeOff,1,0,0,0,0,0,0,1664018971203,3953,3948,3950,3935,0,0,27,,,,,,,0,0,0,27.00,0.00,106.00,0.00,0.00,120.00,11,8.00,5.00,2.61,0.00,0.00,-5.00,0,,,100,100,0,2,0,0,0,2,0,,,,,0.0,0.0,0.0,0.0,0.0,0.0,0
55.955354,-4.402552,0.80,1.00,0.40,0.27,0.80,0.80,0.51,0.27,1287,2022-09-24 11:29:31.307,2022-09-24 12:29:31.307,17,0,0,15.780,55.955356,-4.402549,0.00,0.00,-0.40,-2.80,0.10,10.70,0,1,0,65,100,-5806,2133,15780,3069.50,12,TakeOff,1,0,0,0,0,0,0,1664018971307,3953,3948,3950,3935,0,0,27,,,,,,,0,0,0,28.00,1.00,107.00,0.00,0.00,120.00,11,8.00,4.00,2.71,0.00,0.00,-4.00,0,,,100,100,0,2,0,0,0,2,0,,,,,0.0,0.0,0.0,0.0,0.0,0.0,0
55.955354,-4.402552,0.80,1.00,0.40,0.27,0.80,0.80,0.51,0.27,1288,2022-09-24 11:29:31.308,2022-09-24 12:29:31.308,17,0,0,15.780,55.955356,-4.402549,0.00,0.00,-0.40,-2.80,0.10,10.70,0,1,0,65,100,-5806,2133,15780,3069.50,12,TakeOff,1,0,0,0,0,0,0,1664018971308,3953,3948,3950,3935,0,0,27,,,,,,,0,0,0,28.00,1.00,107.00,0.00,0.00,120.00,11,8.00,4.00,2.71,0.00,0.00,-4.00,0,,,100,100,0,2,0,0,0,2,0,,,,,0.0,0.0,0.0,0.0,0.0,0.0,0
55.955354,-4.402552,0.90,1.10,0.40,0.27,0.90,0.90,0.51,0.27,1389,2022-09-24 11:29:31.410,2022-09-24 12:29:31.409,17,0,0,15.780,55.955356,-4.402549,0.00,0.00,-0.40,-3.00,0.40,10.70,0,1,0,65,100,-5806,2133,15780,3069.50,12,TakeOff,1,0,0,0,0,0,0,1664018971409,3953,3948,3950,3935,0,0,27,,,,,,,0,0,0,30.00,4.00,107.00,0.00,0.00,120.00,11,9.00,4.00,2.69,0.00,0.00,-4.00,0,,,100,100,0,2,0,0,0,2,0,,,,,0.0,0.0,0.0,0.0,0.0,0.0,0
55.955354,-4.402552,0.90,1.10,0.40,0.27,0.90,0.90,0.51,0.27,1390,2022-09-24 11:29:31.410,2022-09-24 12:29:31.410,17,0,0,15.780,55.955356,-4.402549,0.00,0.00,-0.40,-3.00,0.40,10.70,0,1,0,65,100,-5806,2133,15780,3069.50,12,TakeOff,1,0,0,0,0,0,0,1664018971410,3953,3948,3950,3935,0,0,27,,,,,,,0,0,0,30.00,4.00,107.00,0.00,0.00,120.00,11,9.00,4.00,2.69,0.00,0.00,-4.00,0,,,100,100,0,2,0,0,0,2,0,,,,,0.0,0.0,0.0,0.0,0.0,0.0,0
55.955354,-4.402552,0.90,1.10,0.40,0.28,0.90,0.90,0.51,0.28,1482,2022-09-24 11:29:31.502,2022-09-24 12:29:31.502,17,0,0,15.780,55.955356,-4.402549,0.00,0.00,-0.40,-3.30,0.50,10.70,0,1,0,65,100,-5806,2133,15780,3069.50,12,TakeOff,1,0,0,0,0,0,0,1664018971502,3953,3948,3950,3935,0,0,27,,,,,,,0,0,0,33.00,5.00,107.00,0.00,0.00,120.00,6,9.00,4.00,2.78,0.00,0.00,-4.00,0,,,100,100,0,2,0,0,0,2,0,,,,,0.0,0.0,0.0,0.0,0.0,0.0,0
55.955354,-4.402552,0.90,1.10,0.40,0.28,0.90,0.90,0.51,0.28,1485,2022-09-24 11:29:31.506,2022-09-24 12:29:31.505,17,0,0,15.780,55.955356,-4.402549,0.00,0.00,-0.40,-3.30,0.50,10.70,0,1,0,65,100,-5806,2133,15780,3069.50,12,P-GPS,1,0,0,0,0,0,0,1664018971505,3953,3948,3950,3935,0,0,27,,,,,,,0,0,0,33.00,5.00,107.00,0.00,0.00,120.00,6,9.00,4.00,2.78,0.00,0.00,-4.00,0,,,100,100,0,2,0,0,0,2,0,,,,,0.0,0.0,0.0,0.0,0.0,0.0,0
55.955354,-4.402552,1.00,1.20,0.30,0.28,1.00,1.00,0.51,0.28,1595,2022-09-24 11:29:31.616,2022-09-24 12:29:31.615,16,0,0,15.780,55.955356,-4.402549,0.00,0.00,-0.30,-3.70,0.20,10.70,0,1,0,65,100,-5806,2133,15780,3069.50,12,P-GPS,1,0,0,0,0,0,0,1664018971615,3953,3948,3950,3935,0,0,27,,,,,,,0,0,0,37.00,2.00,107.00,0.00,0.00,120.00,6,10.00,3.00,2.78,0.00,0.00,-3.00,0,,,100,100,0,2,0,0,0,2,0,,,,,0.0,0.0,0.0,0.0,0.0,0.0,0
55.955354,-4.402552,1.00,1.20,0.30,0.28,1.00,1.00,0.51,0.28,1596,2022-09-24 11:29:31.616,2022-09-24 12:29:31.616,16,0,0,15.780,55.955356,-4.402549,0.00,0.00,-0.30,-3.70,0.20,10.70,0,1,0,65,100,-5806,2133,15780,3069.50,12,P-GPS,1,0,0,0,0,0,0,1664018971616,3953,3948,3950,3935,0,0,27,,,,,,,0,0,0,37.00,2.00,107.00,0.00,0.00,120.00,6,10.00,3.00,2.78,0.00,0.00,-3.00,0,,,100,100,0,2,0,0,0,2,0,,,,,0.0,0.0,0.0,0.0,0.0,0.0,0
55.955354,-4.402552,1.00,1.20,0.20,0.29,1.00,1.00,0.51,0.29,1691,2022-09-24 11:29:31.711,2022-09-24 12:29:31.711,16,0,0,15.780,55.955356,-4.402549,0.00,0.00,-0.20,-4.00,0.20,10.70,0,1,0,65,100,-5806,2133,15780,3069.50,12,P-GPS,1,0,0,0,0,0,0,1664018971711,3953,3948,3950,3935,0,0,27,,,,,,,0,0,0,40.00,2.00,107.00,0.00,0.00,120.00,6,10.00,2.00,2.87,0.00,0.00,-2.00,0,,,100,100,0,2,0,0,0,2,0,,,,,0.0,0.0,0.0,0.0,0.0,0.0,0
55.955354,-4.402552,1.00,1.20,0.20,0.29,1.00,1.00,0.51,0.29,1749,2022-09-24 11:29:31.770,2022-09-24 12:29:31.770,16,0,0,15.780,55.955356,-4.402549,0.00,0.00,-0.20,-4.00,0.20,10.70,0,1,0,65,100,-5806,2133,15780,3069.50,12,P-GPS,1,0,0,0,0,0,0,1664018971769,3953,3948,3950,3935,0,0,27,,,,,,,0,0,0,40.00,2.00,107.00,0.00,0.00,120.00,6,10.00,2.00,2.87,0.00,0.00,-2.00,0,,,100,100,0,2,0,0,0,2,0,,,,,0.0,0.0,0.0,0.0,0.0,0.0,0
55.955354,-4.402552,1.00,1.20,0.10,0.30,1.00,1.00,0.51,0.30,1795,2022-09-24 11:29:31.815,2022-09-24 12:29:31.815,17,0,0,15.780,55.955356,-4.402549,0.00,0.00,-0.10,-3.90,0.50,10.80,0,1,0,65,100,-5806,2133,15780,3069.50,12,P-GPS,1,0,0,0,0,0,0,1664018971815,3953,3948,3950,3935,0,0,27,,,,,,,0,0,0,39.00,5.00,108.00,0.00,0.00,120.00,6,10.00,1.00,2.96,0.00,0.00,-1.00,0,,,100,100,0,2,0,0,0,2,0,,,,,0.0,0.0,0.0,0.0,0.0,0.0,0
55.955354,-4.402552,1.00,1.20,0.10,0.30,1.00,1.00,0.51,0.30,1796,2022-09-24 11:29:31.816,2022-09-24 12:29:31.816,17,0,0,15.780,55.955356,-4.402549,0.00,0.00,-0.10,-3.90,0.50,10.80,0,1,0,65,100,-5806,2133,15780,3069.50,12,P-GPS,1,0,0,0,0,0,0,1664018971816,3953,3948,3950,3935,0,0,27,,,,,,,0,0,0,39.00,5.00,108.00,0.00,0.00,120.00,6,10.00,1.00,2.96,0.00,0.00,-1.00,0,,,100,100,0,2,0,0,0,2,0,,,,,0.0,0.0,0.0,0.0,0.0,0.0,0
55.955354,-4.402552,1.00,1.20,0.00,0.30,1.00,1.00,0.51,0.30,1885,2022-09-24 11:29:31.905,2022-09-24 12:29:31.905,17,0,0,15.780,55.955356,-4.402549,0.00,0.00,0.00,-3.80,0.50,10.70,0,1,0,65,100,-5806,2133,15780,3069.50,12,P-GPS,1,0,0,0,0,0,0,1664018971905,3953,3948,3950,3935,0,0,27,,,,,,,0,0,0,38.00,5.00,107.00,0.00,0.00,120.00,6,10.00,0.00,3.03,0.00,0.00,0.00,0,,,100,100,0,2,0,0,0,2,0,,,,,0.0,0.0,0.0,0.0,0.0,0.0,0
55.955354,-4.402552,1.00,1.20,0.00,0.30,1.00,1.00,0.51,0.30,1888,2022-09-24 11:29:31.909,2022-09-24 12:29:31.908,17,0,0,15.780,55.955356,-4.402549,0.00,0.00,0.00,-3.80,0.50,10.70,0,1,0,65,100,-5806,2133,15780,3069.50,12,P-GPS,1,0,0,0,0,0,0,1664018971908,3953,3948,3950,3935,0,0,27,,,,,,,0,0,0,38.00,5.00,107.00,0.00,0.00,120.00,6,10.00,0.00,3.03,0.00,0.00,0.00,0,,,100,100,0,2,0,0,0,2,0,,,,,0.0,0.0,0.0,0.0,0.0,0.0,0
55.955354,-4.402552,1.00,1.20,0.00,0.29,1.00,1.00,0.51,0.30,1996,2022-09-24 11:29:32.016,2022-09-24 12:29:32.016,17,0,0,15.780,55.955356,-4.402549,0.00,0.00,0.00,-3.70,0.40,10.70,0,1,0,65,100,-5806,2133,15780,3069.50,12,P-GPS,1,0,0,0,0,0,0,1664018972016,3953,3948,3950,3935,0,0,27,,,,,,,0,0,0,37.00,4.00,107.00,0.00,0.00,120.00,6,10.00,0.00,2.91,0.00,0.00,0.00,0,,,100,100,0,2,0,0,0,2,0,,,,,0.0,0.0,0.0,0.0,0.0,0.0,0
55.955354,-4.402552,1.00,1.20,0.00,0.29,1.00,1.00,0.51,0.30,1997,2022-09-24 11:29:32.018,2022-09-24 12:29:32.017,17,0,0,15.780,55.955356,-4.402549,0.00,0.00,0.00,-3.70,0.40,10.70,0,1,0,65,100,-5806,2133,15780,3069.50,12,P-GPS,1,0,0,0,0,0,0,1664018972017,3953,3948,3950,3935,0,0,27,,,,,,,0,0,0,37.00,4.00,107.00,0.00,0.00,120.00,6,10.00,0.00,2.91,0.00,0.00,0.00,0,,,100,100,0,2,0,0,0,2,0,,,,,0.0,0.0,0.0,0.0,0.0,0.0,0
55.955354,-4.402552,1.00,1.20,0.00,0.29,1.00,1.00,0.51,0.30,2085,2022-09-24 11:29:32.105,2022-09-24 12:29:32.105,17,0,0,15.780,55.955356,-4.402549,0.00,0.00,0.00,-3.50,0.40,10.70,0,1,0,65,100,-5806,2133,15780,3069.50,12,P-GPS,1,0,0,0,43,0,0,1664018972105,3953,3948,3950,3935,0,0,27,,,,,,,0,0,0,35.00,4.00,107.00,0.00,0.00,120.00,6,10.00,0.00,2.95,0.00,0.00,0.00,0,,,100,100,0,2,0,0,0,2,0,,,,,0.0,0.0,0.0,0.0,0.0,0.0,0
55.955354,-4.402552,1.00,1.20,0.00,0.29,1.00,1.00,0.51,0.30,2086,2022-09-24 11:29:32.106,2022-09-24 12:29:32.106,17,0,0,15.780,55.955356,-4.402549,0.00,0.00,0.00,-3.50,0.40,10.70,0,1,0,65,100,-5806,2133,15780,3069.50,12,P-GPS,1,0,0,0,43,0,0,1664018972106,3953,3948,3950,3935,0,0,27,,,,,,,0,0,0,35.00,4.00,107.00,0.00,0.00,120.00,6,10.00,0.00,2.95,0.00,0.00,0.00,0,,,100,100,0,2,0,0,0,2,0,,,,,0.0,0.0,0.0,0.0,0.0,0.0,0
55.955354,-4.402552,1.00,1.20,0.00,0.28,1.00,1.00,0.51,0.30,2180,2022-09-24 11:29:32.201,2022-09-24 12:29:32.200,17,0,0,15.832,55.955356,-4.402549,0.00,0.00,0.00,-3.40,0.40,10.70,0,1,0,65,100,-6342,2129,15832,3070.50,12,P-GPS,1,0,0,0,170,0,0,1664018972200,3953,3948,3950,3935,0,0,27,,,,,,,0,0,0,34.00,4.00,107.00,0.00,0.00,120.00,6,10.00,0.00,2.78,0.00,0.00,0.00,0,,,100,100,0,2,0,0,0,2,0,,,,,0.0,0.0,0.0,0.0,0.0,0.0,0
55.955354,-4.402552,1.00,1.20,0.00,0.28,1.00,1.00,0.51,0.30,2184,2022-09-24 11:29:32.204,2022-09-24 12:29:32.204,17,0,0,15.832,55.955356,-4.402549,0.00,0.00,0.00,-3.40,0.40,10.70,0,1,0,65,100,-6342,2129,15832,3070.50,12,P-GPS,1,0,0,0,170,0,0,1664018972204,3953,3948,3950,3935,0,0,27,,,,,,,0,0,0,34.00,4.00,107.00,0.00,0.00,120.00,6,10.00,0.00,2.78,0.00,0.00,0.00,0,,,100,100,0,2,0,0,0,2,0,,,,,0.0,0.0,0.0,0.0,0.0,0.0,0
55.955354,-4.402552,1.00,1.20,0.00,0.28,1.00,1.00,0.51,0.30,2294,2022-09-24 11:29:32.314,2022-09-24 12:29:32.314,17,0,0,15.832,55.955356,-4.402549,0.00,0.00,0.00,-3.20,0.80,10.70,0,1,0,65,100,-6342,2129,15832,3070.50,12,P-GPS,1,0,0,0,330,0,0,1664018972314,3953,3948,3950,3935,0,0,27,,,,,,,0,0,0,32.00,8.00,107.00,0.00,0.00,120.00,6,10.00,0.00,2.79,0.00,0.00,0.00,0,,,100,100,0,2,0,0,0,2,0,,,,,0.0,0.0,0.0,0.0,0.0,0.0,0
55.955354,-4.402552,1.00,1.20,0.00,0.28,1.00,1.00,0.51,0.30,2295,2022-09-24 11:29:32.315,2022-09-24 12:29:32.315,17,0,0,15.832,55.955356,-4.402549,0.00,0.00,0.00,-3.20,0.80,10.70,0,1,0,65,100,-6342,2129,15832,3070.50,12,P-GPS,1,0,0,0,330,0,0,1664018972315,3953,3948,3950,3935,0,0,27,,,,,,,0,0,0,32.00,8.00,107.00,0.00,0.00,120.00,6,10.00,0.00,2.79,0.00,0.00,0.00,0,,,100,100,0,2,0,0,0,2,0,,,,,0.0,0.0,0.0,0.0,0.0,0.0,0
55.955354,-4.402552,1.00,1.30,0.30,0.27,1.00,1.00,0.51,0.30,2388,2022-09-24 11:29:32.408,2022-09-24 12:29:32.408,17,0,0,15.832,55.955356,-4.402549,0.00,0.00,-0.30,-2.90,0.70,10.60,0,1,0,65,100,-6342,2129,15832,3070.50,12,P-GPS,1,0,0,0,429,0,0,1664018972408,3953,3948,3950,3935,0,0,27,,,,,,,0,0,0,29.00,7.00,106.00,0.00,0.00,120.00,6,10.00,3.00,2.74,0.00,0.00,-3.00,0,,,100,100,0,2,0,0,0,2,0,,,,,0.0,0.0,0.0,0.0,0.0,0.0,0
55.955354,-4.402552,1.00,1.30,0.30,0.27,1.00,1.00,0.51,0.30,2389,2022-09-24 11:29:32.410,2022-09-24 12:29:32.409,17,0,0,15.832,55.955356,-4.402549,0.00,0.00,-0.30,-2.90,0.70,10.60,0,1,0,65,100,-6342,2129,15832,3070.50,12,P-GPS,1,0,0,0,429,0,0,1664018972409,3953,3948,3950,3935,0,0,27,,,,,,,0,0,0,29.00,7.00,106.00,0.00,0.00,120.00,6,10.00,3.00,2.74,0.00,0.00,-3.00,0,,,100,100,0,2,0,0,0,2,0,,,,,0.0,0.0,0.0,0.0,0.0,0.0,0
55.955354,-4.402552,1.10,1.30,0.70,0.27,1.10,1.10,0.70,0.30,2482,2022-09-24 11:29:32.503,2022-09-24 12:29:32.502,17,0,0,15.832,55.955356,-4.402549,0.00,0.00,-0.70,-2.70,0.30,10.60,0,1,0,65,100,-6342,2129,15832,3070.50,12,P-GPS,1,0,0,0,503,0,0,1664018972502,3953,3948,3950,3935,0,0,27,,,,,,,0,0,0,27.00,3.00,106.00,0.00,0.00,120.00,6,11.00,7.00,2.70,0.00,0.00,-7.00,0,,,100,100,0,2,0,0,0,2,0,,,,,0.0,0.0,0.0,0.0,0.0,0.0,0
55.955354,-4.402552,1.10,1.30,0.70,0.27,1.10,1.10,0.70,0.30,2484,2022-09-24 11:29:32.504,2022-09-24 12:29:32.504,17,0,0,15.832,55.955356,-4.402549,0.00,0.00,-0.70,-2.70,0.30,10.60,0,1,0,65,100,-6342,2129,15832,3070.50,12,P-GPS,1,0,0,0,503,0,0,1664018972504,3953,3948,3950,3935,0,0,27,,,,,,,0,0,0,27.00,3.00,106.00,0.00,0.00,120.00,6,11.00,7.00,2.70,0.00,0.00,-7.00,0,,,100,100,0,2,0,0,0,2,0,,,,,0.0,0.0,0.0,0.0,0.0,0.0,0
55.955354,-4.402552,1.20,1.40,1.10,0.26,1.20,1.20,1.10,0.30,2586,2022-09-24 11:29:32.606,2022-09-24 12:29:32.606,17,0,0,15.832,55.955356,-4.402549,0.00,0.00,-1.10,-2.60,0.00,10.50,0,1,0,65,100,-6342,2129,15832,3070.50,12,P-GPS,1,0,0,0,566,0,0,1664018972606,3953,3948,3950,3935,0,0,27,,,,,,,0,0,0,26.00,0.00,105.00,0.00,0.00,120.00,6,12.00,11.00,2.61,0.00,0.00,-11.00,0,,,100,100,0,2,0,0,0,2,0,,,,,0.0,0.0,0.0,0.0,0.0,0.0,0
55.955354,-4.402552,1.20,1.40,1.10,0.26,1.20,1.20,1.10,0.30,2587,2022-09-24 11:29:32.608,2022-09-24 12:29:32.607,17,0,0,15.832,55.955356,-4.402549,0.00,0.00,-1.10,-2.60,0.00,10.50,0,1,0,65,100,-6342,2129,15832,3070.50,12,P-GPS,1,0,0,0,566,0,0,1664018972607,3953,3948,3950,3935,0,0,27,,,,,,,0,0,0,26.00,0.00,105.00,0.00,0.00,120.00,6,12.00,11.00,2.61,0.00,0.00,-11.00,0,,,100,100,0,2,0,0,0,2,0,,,,,0.0,0.0,0.0,0.0,0.0,0.0,0
55.955354,-4.402552,1.30,1.60,1.60,0.26,1.30,1.30,1.60,0.30,2684,2022-09-24 11:29:32.705,2022-09-24 12:29:32.705,17,0,0,15.832,55.955356,-4.402549,0.00,0.00,-1.60,-2.80,-0.10,10.50,0,1,0,65,100,-6342,2129,15832,3070.50,12,P-GPS,1,0,0,0,627,0,0,1664018972704,3953,3948,3950,3935,0,0,27,,,,,,,0,0,0,28.00,-1.00,105.00,0.00,0.00,120.00,6,13.00,16.00,2.55,0.00,0.00,-16.00,0,,,100,100,0,2,0,0,0,2,0,,,,,0.0,0.0,0.0,0.0,0.0,0.0,0
55.955354,-4.402552,1.30,1.60,1.60,0.26,1.30,1.30,1.60,0.30,2688,2022-09-24 11:29:32.708,2022-09-24 12:29:32.708,17,0,0,15.832,55.955356,-4.402549,0.00,0.00,-1.60,-2.80,-0.10,10.50,0,1,0,65,100,-6342,2129,15832,3070.50,12,P-GPS,1,0,0,0,627,0,0,1664018972708,3953,3948,3950,3935,0,0,27,,,,,,,0,0,0,28.00,-1.00,105.00,0.00,0.00,120.00,6,13.00,16.00,2.55,0.00,0.00,-16.00,0,,,100,100,0,2,0,0,0,2,0,,,,,0.0,0.0,0.0,0.0,0.0,0.0,0
55.955354,-4.402552,1.50,1.80,2.10,0.25,1.50,1.50,2.10,0.30,2802,2022-09-24 11:29:32.822,2022-09-24 12:29:32.822,17,0,0,15.832,55.955356,-4.402549,0.00,0.00,-2.10,-3.10,-0.20,10.50,0,1,0,65,100,-6342,2129,15832,3070.50,12,P-GPS,1,0,0,0,660,0,0,1664018972822,3953,3948,3950,3935,0,0,27,,,,,,,0,0,0,31.00,-2.00,105.00,0.00,0.00,120.00,6,15.00,21.00,2.55,0.00,0.00,-21.00,0,,,100,100,0,2,0,0,0,2,0,,,,,0.0,0.0,0.0,0.0,0.0,0.0,0
55.955354,-4.402552,1.50,1.80,2.10,0.25,1.50,1.50,2.10,0.30,2849,2022-09-24 11:29:32.869,2022-09-24 12:29:32.869,17,0,0,15.832,55.955356,-4.402549,0.00,0.00,-2.10,-3.10,-0.20,10.50,0,1,0,65,100,-6342,2129,15832,3070.50,12,P-GPS,1,0,0,0,660,0,0,1664018972869,3953,3948,3950,3935,0,0,27,,,,,,,0,0,0,31.00,-2.00,105.00,0.00,0.00,120.00,6,15.00,21.00,2.55,0.00,0.00,-21.00,0,,,100,100,0,2,0,0,0,2,0,,,,,0.0,0.0,0.0,0.0,0.0,0.0,0
55.955354,-4.402552,1.80,2.00,2.60,0.25,1.80,1.80,2.60,0.30,2893,2022-09-24 11:29:32.913,2022-09-24 12:29:32.913,17,0,0,15.832,55.955356,-4.402549,0.00,0.00,-2.60,-3.10,-0.30,10.50,0,1,0,65,100,-6342,2129,15832,3070.50,12,P-GPS,1,0,0,0,660,0,0,1664018972913,3953,3948,3950,3935,0,0,27,,,,,,,0,0,0,31.00,-3.00,105.00,0.00,0.00,120.00,6,18.00,26.00,2.49,0.00,0.00,-26.00,0,,,100,100,0,2,0,0,0,2,0,,,,,0.0,0.0,0.0,0.0,0.0,0.0,0
55.955354,-4.402552,1.80,2.00,2.60,0.25,1.80,1.80,2.60,0.30,2894,2022-09-24 11:29:32.914,2022-09-24 12:29:32.914,17,0,0,15.832,55.955356,-4.402549,0.00,0.00,-2.60,-3.10,-0.30,10.50,0,1,0,65,100,-6342,2129,15832,3070.50,12,P-GPS,1,0,0,0,660,0,0,1664018972914,3953,3948,3950,3935,0,0,27,,,,,,,0,0,0,31.00,-3.00,105.00,0.00,0.00,120.00,6,18.00,26.00,2.49,0.00,0.00,-26.00,0,,,100,100,0,2,0,0,0,2,0,,,,,0.0,0.0,0.0,0.0,0.0,0.0,0
55.955354,-4.402551,2.00,2.30,3.10,0.25,2.00,2.00,3.10,0.30,2985,2022-09-24 11:29:33.005,2022-09-24 12:29:33.005,17,0,0,15.832,55.955356,-4.402549,0.00,0.00,-3.10,-3.00,-0.20,10.60,0,1,0,65,100,-6342,2129,15832,3070.50,12,P-GPS,1,0,0,0,660,0,0,1664018973005,3953,3948,3950,3935,0,0,27,,,,,,,0,0,0,30.00,-2.00,106.00,0.00,0.00,120.00,6,20.00,31.00,2.54,0.00,0.00,-31.00,0,,,100,100,0,2,0,0,0,2,0,,,,,0.0,0.0,0.0,0.0,0.0,0.0,0
55.955354,-4.402551,2.00,2.30,3.10,0.25,2.00,2.00,3.10,0.30,2986,2022-09-24 11:29:33.006,2022-09-24 12:29:33.006,17,0,0,15.832,55.955356,-4.402549,0.00,0.00,-3.10,-3.00,-0.20,10.60,0,1,0,65,100,-6342,2129,15832,3070.50,12,P-GPS,1,0,0,0,660,0,0,1664018973006,3953,3948,3950,3935,0,0,27,,,,,,,0,0,0,30.00,-2.00,106.00,0.00,0.00,120.00,6,20.00,31.00,2.54,0.00,0.00,-31.00,0,,,100,100,0,2,0,0,0,2,0,,,,,0.0,0.0,0.0,0.0,0.0,0.0,0
55.955354,-4.402551,2.40,2.60,3.40,0.25,2.40,2.40,3.40,0.30,3084,2022-09-24 11:29:33.104,2022-09-24 12:29:33.104,17,0,0,15.832,55.955356,-4.402549,0.00,0.00,-3.40,-2.80,0.00,10.60,0,1,0,65,100,-6342,2129,15832,3070.50,12,P-GPS,1,0,0,0,660,0,0,1664018973104,3953,3948,3950,3935,0,0,27,,,,,,,0,0,0,28.00,0.00,106.00,0.00,0.00,120.00,6,24.00,34.00,2.48,0.00,0.00,-34.00,0,,,100,100,0,2,0,0,0,2,0,,,,,0.0,0.0,0.0,0.0,0.0,0.0,0
55.955354,-4.402551,2.40,2.60,3.40,0.25,2.40,2.40,3.40,0.30,3087,2022-09-24 11:29:33.107,2022-09-24 12:29:33.107,17,0,0,15.832,55.955356,-4.402549,0.00,0.00,-3.40,-2.80,0.00,10.60,0,1,0,65,100,-6342,2129,15832,3070.50,12,P-GPS,1,0,0,0,660,0,0,1664018973107,3953,3948,3950,3935,0,0,27,,,,,,,0,0,0,28.00,0.00,106.00,0.00,0.00,120.00,6,24.00,34.00,2.48,0.00,0.00,-34.00,0,,,100,100,0,2,0,0,0,2,0,,,,,0.0,0.0,0.0,0.0,0.0,0.0,0
55.955355,-4.402552,2.70,3.00,3.70,0.21,2.70,2.70,3.70,0.30,3196,2022-09-24 11:29:33.216,2022-09-24 12:29:33.216,16,0,0,15.543,55.955356,-4.402549,0.00,0.00,-3.70,-2.50,0.00,10.70,0,1,0,65,100,-9264,2128,15543,3070.50,12,P-GPS,1,0,0,0,660,0,0,1664018973216,3953,3948,3950,3935,0,0,27,,,,,,,0,0,0,25.00,0.00,107.00,0.00,0.00,120.00,6,27.00,37.00,2.14,0.00,0.00,-37.00,0,,,100,100,0,2,0,0,0,2,0,,,,,0.0,0.0,0.0,0.0,0.0,0.0,0
55.955355,-4.402552,2.70,3.00,3.70,0.21,2.70,2.70,3.70,0.30,3197,2022-09-24 11:29:33.218,2022-09-24 12:29:33.217,16,0,0,15.543,55.955356,-4.402549,0.00,0.00,-3.70,-2.50,0.00,10.70,0,1,0,65,100,-9264,2128,15543,3070.50,12,P-GPS,1,0,0,0,660,0,0,1664018973217,3953,3948,3950,3935,0,0,27,,,,,,,0,0,0,25.00,0.00,107.00,0.00,0.00,120.00,6,27.00,37.00,2.14,0.00,0.00,-37.00,0,,,100,100,0,2,0,0,0,2,0,,,,,0.0,0.0,0.0,0.0,0.0,0.0,0
55.955355,-4.402552,3.10,3.40,3.90,0.21,3.10,3.10,3.90,0.30,3284,2022-09-24 11:29:33.304,2022-09-24 12:29:33.304,16,0,0,15.543,55.955356,-4.402549,0.00,0.00,-3.90,-2.50,0.00,10.60,0,1,0,65,100,-9264,2128,15543,3070.50,12,P-GPS,1,0,0,0,660,0,0,1664018973304,3953,3948,3950,3935,0,0,27,,,,,,,0,0,0,25.00,0.00,106.00,0.00,0.00,120.00,6,31.00,39.00,2.06,0.00,0.00,-39.00,0,,,100,100,0,2,0,0,0,2,0,,,,,0.0,0.0,0.0,0.0,0.0,0.0,0
55.955355,-4.402552,3.10,3.40,3.90,0.21,3.10,3.10,3.90,0.30,3285,2022-09-24 11:29:33.305,2022-09-24 12:29:33.305,16,0,0,15.543,55.955356,-4.402549,0.00,0.00,-3.90,-2.50,0.00,10.60,0,1,0,65,100,-9264,2128,15543,3070.50,12,P-GPS,1,0,0,0,660,0,0,1664018973305,3953,3948,3950,3935,0,0,27,,,,,,,0,0,0,25.00,0.00,106.00,0.00,0.00,120.00,6,31.00,39.00,2.06,0.00,0.00,-39.00,0,,,100,100,0,2,0,0,0,2,0,,,,,0.0,0.0,0.0,0.0,0.0,0.0,0
55.955355,-4.402551,3.50,3.80,3.90,0.19,3.50,3.50,3.90,0.30,3395,2022-09-24 11:29:33.415,2022-09-24 12:29:33.415,16,0,0,15.543,55.955356,-4.402549,0.00,0.00,-3.90,-2.50,-0.10,10.60,0,1,0,65,100,-9264,2128,15543,3070.50,12,P-GPS,1,0,0,0,660,0,0,1664018973415,3953,3948,3950,3935,0,0,27,,,,,,,0,0,0,25.00,-1.00,106.00,0.00,0.00,120.00,6,35.00,39.00,1.92,0.00,0.00,-39.00,0,,,100,100,0,2,0,0,0,2,0,,,,,0.0,0.0,0.0,0.0,0.0,0.0,0
55.955355,-4.402551,3.50,3.80,3.90,0.19,3.50,3.50,3.90,0.30,3397,2022-09-24 11:29:33.418,2022-09-24 12:29:33.417,16,0,0,15.543,55.955356,-4.402549,0.00,0.00,-3.90,-2.50,-0.10,10.60,0,1,0,65,100,-9264,2128,15543,3070.50,12,P-GPS,1,0,0,0,660,0,0,1664018973417,3953,3948,3950,3935,0,0,27,,,,,,,0,0,0,25.00,-1.00,106.00,0.00,0.00,120.00,6,35.00,39.00,1.92,0.00,0.00,-39.00,0,,,100,100,0,2,0,0,0,2,0,,,,,0.0,0.0,0.0,0.0,0.0,0.0,0
55.955355,-4.402551,3.90,4.20,4.00,0.19,3.90,3.90,4.00,0.30,3491,2022-09-24 11:29:33.511,2022-09-24 12:29:33.511,16,0,0,15.543,55.955356,-4.402549,0.00,0.00,-4.00,-2.70,-0.10,10.60,0,1,0,65,100,-9264,2128,15543,3070.50,12,P-GPS,1,0,0,0,660,0,0,1664018973511,3953,3948,3950,3935,0,0,27,,,,,,,0,0,0,27.00,-1.00,106.00,0.00,0.00,120.00,6,39.00,40.00,1.85,0.00,0.00,-40.00,0,,,100,100,0,2,0,0,0,2,0,,,,,0.0,0.0,0.0,0.0,0.0,0.0,0
55.955355,-4.402551,3.90,4.20,4.00,0.19,3.90,3.90,4.00,0.30,3493,2022-09-24 11:29:33.513,2022-09-24 12:29:33.513,16,0,0,15.543,55.955356,-4.402549,0.00,0.00,-4.00,-2.70,-0.10,10.60,0,1,0,65,100,-9264,2128,15543,3070.50,12,P-GPS,1,0,0,0,660,0,0,1664018973513,3953,3948,3950,3935,0,0,27,,,,,,,0,0,0,27.00,-1.00,106.00,0.00,0.00,120.00,6,39.00,40.00,1.85,0.00,0.00,-40.00,0,,,100,100,0,2,0,0,0,2,0,,,,,0.0,0.0,0.0,0.0,0.0,0.0,0
55.955355,-4.402551,4.40,4.60,4.00,0.16,4.40,4.40,4.00,0.30,3582,2022-09-24 11:29:33.602,2022-09-24 12:29:33.602,15,0,0,15.543,55.955356,-4.402549,0.00,0.00,-4.00,-2.60,-0.30,10.70,0,1,0,65,100,-9264,2128,15543,3070.50,12,P-GPS,1,0,0,0,660,0,0,1664018973602,3953,3948,3950,3935,0,0,27,,,,,,,0,0,0,26.00,-3.00,107.00,0.00,0.00,120.00,6,44.00,40.00,1.56,0.00,0.00,-40.00,0,,,100,100,0,2,0,0,0,2,0,,,,,0.0,0.0,0.0,0.0,0.0,0.0,0
55.955355,-4.402551,4.40,4.60,4.00,0.16,4.40,4.40,4.00,0.30,3583,2022-09-24 11:29:33.603,2022-09-24 12:29:33.603,15,0,0,15.543,55.955356,-4.402549,0.00,0.00,-4.00,-2.60,-0.30,10.70,0,1,0,65,100,-9264,2128,15543,3070.50,12,P-GPS,1,0,0,0,660,0,0,1664018973603,3953,3948,3950,3935,0,0,27,,,,,,,0,0,0,26.00,-3.00,107.00,0.00,0.00,120.00,6,44.00,40.00,1.56,0.00,0.00,-40.00,0,,,100,100,0,2,0,0,0,2,0,,,,,0.0,0.0,0.0,0.0,0.0,0.0,0
55.955355,-4.402551,4.80,5.00,4.00,0.15,4.80,4.80,4.00,0.30,3692,2022-09-24 11:29:33.713,2022-09-24 12:29:33.712,15,0,0,15.543,55.955356,-4.402549,0.00,0.00,-4.00,-2.50,-0.40,10.60,0,1,0,65,100,-9264,2128,15543,3070.50,12,P-GPS,1,0,0,0,660,0,0,1664018973712,3953,3948,3950,3935,0,0,27,,,,,,,0,0,0,25.00,-4.00,106.00,0.00,0.00,120.00,6,48.00,40.00,1.48,0.00,0.00,-40.00,0,,,100,100,0,2,0,0,0,2,0,,,,,0.0,0.0,0.0,0.0,0.0,0.0,0
55.955355,-4.402551,4.80,5.00,4.00,0.15,4.80,4.80,4.00,0.30,3697,2022-09-24 11:29:33.717,2022-09-24 12:29:33.717,15,0,0,15.543,55.955356,-4.402549,0.00,0.00,-4.00,-2.50,-0.40,10.60,0,1,0,65,100,-9264,2128,15543,3070.50,12,P-GPS,1,0,0,0,660,0,0,1664018973717,3953,3948,3950,3935,0,0,27,,,,,,,0,0,0,25.00,-4.00,106.00,0.00,0.00,120.00,6,48.00,40.00,1.48,0.00,0.00,-40.00,0,,,100,100,0,2,0,0,0,2,0,,,,,0.0,0.0,0.0,0.0,0.0,0.0,0
55.955355,-4.402552,5.20,5.40,4.00,0.16,5.20,5.20,4.00,0.30,3791,2022-09-24 11:29:33.811,2022-09-24 12:29:33.811,17,0,0,15.543,55.955356,-4.402549,0.00,0.00,-4.00,-2.70,-0.30,10.60,0,1,0,65,100,-9264,2128,15543,3070.50,12,P-GPS,1,0,0,0,660,0,0,1664018973811,3953,3948,3950,3935,0,0,27,,,,,,,0,0,0,27.00,-3.00,106.00,0.00,0.00,120.00,6,52.00,40.00,1.63,0.00,0.00,-40.00,0,,,100,100,0,2,0,0,0,2,0,,,,,0.0,0.0,0.0,0.0,0.0,0.0,0
55.955355,-4.402552,5.20,5.40,4.00,0.16,5.20,5.20,4.00,0.30,3794,2022-09-24 11:29:33.814,2022-09-24 12:29:33.814,17,0,0,15.543,55.955356,-4.402549,0.00,0.00,-4.00,-2.70,-0.30,10.60,0,1,0,65,100,-9264,2128,15543,3070.50,12,P-GPS,1,0,0,0,660,0,0,1664018973814,3953,3948,3950,3935,0,0,27,,,,,,,0,0,0,27.00,-3.00,106.00,0.00,0.00,120.00,6,52.00,40.00,1.63,0.00,0.00,-40.00,0,,,100,100,0,2,0,0,0,2,0,,,,,0.0,0.0,0.0,0.0,0.0,0.0,0
55.955356,-4.402552,5.60,5.70,4.00,0.16,5.60,5.60,4.00,0.30,3884,2022-09-24 11:29:33.905,2022-09-24 12:29:33.904,17,0,0,15.543,55.955356,-4.402549,0.00,0.00,-4.00,-2.90,-0.30,10.60,0,1,0,65,100,-9264,2128,15543,3070.50,12,P-GPS,1,0,0,0,660,0,0,1664018973904,3953,3948,3950,3935,0,0,27,,,,,,,0,0,0,29.00,-3.00,106.00,0.00,0.00,120.00,6,56.00,40.00,1.58,0.00,0.00,-40.00,0,,,100,100,0,2,0,0,0,2,0,,,,,0.0,0.0,0.0,0.0,0.0,0.0,0
55.955356,-4.402552,5.60,5.70,4.00,0.16,5.60,5.60,4.00,0.30,3951,2022-09-24 11:29:33.971,2022-09-24 12:29:33.971,17,0,0,15.543,55.955356,-4.402549,0.00,0.00,-4.00,-2.90,-0.30,10.60,0,1,0,65,100,-9264,2128,15543,3070.50,12,P-GPS,1,0,0,0,660,0,0,1664018973971,3953,3948,3950,3935,0,0,27,,,,,,,0,0,0,29.00,-3.00,106.00,0.00,0.00,120.00,6,56.00,40.00,1.58,0.00,0.00,-40.00,0,,,100,100,0,2,0,0,0,2,0,,,,,0.0,0.0,0.0,0.0,0.0,0.0,0
55.955355,-4.402551,6.00,6.10,4.00,0.18,6.00,6.00,4.00,0.30,3995,2022-09-24 11:29:34.016,2022-09-24 12:29:34.015,17,0,0,15.543,55.955356,-4.402549,0.00,0.00,-4.00,-2.90,-0.40,10.70,0,1,0,65,100,-9264,2128,15543,3070.50,12,P-GPS,1,0,0,0,660,0,0,1664018974015,3953,3948,3950,3935,0,0,27,,,,,,,0,0,0,29.00,-4.00,107.00,0.00,0.00,120.00,6,60.00,40.00,1.82,0.00,0.00,-40.00,0,,,100,100,0,2,0,0,0,2,0,,,,,0.0,0.0,0.0,0.0,0.0,0.0,0
55.955355,-4.402551,6.00,6.10,4.00,0.18,6.00,6.00,4.00,0.30,3997,2022-09-24 11:29:34.017,2022-09-24 12:29:34.017,17,0,0,15.543,55.955356,-4.402549,0.00,0.00,-4.00,-2.90,-0.40,10.70,0,1,0,65,100,-9264,2128,15543,3070.50,12,P-GPS,1,0,0,0,660,0,0,1664018974017,3953,3948,3950,3935,0,0,27,,,,,,,0,0,0,29.00,-4.00,107.00,0.00,0.00,120.00,6,60.00,40.00,1.82,0.00,0.00,-40.00,0,,,100,100,0,2,0,0,0,2,0,,,,,0.0,0.0,0.0,0.0,0.0,0.0,0
55.955355,-4.402551,6.40,6.50,4.00,0.18,6.40,6.40,4.00,0.30,4085,2022-09-24 11:29:34.106,2022-09-24 12:29:34.105,17,0,0,15.543,55.955356,-4.402549,0.00,0.00,-4.00,-2.70,-0.50,10.70,0,1,0,65,100,-9264,2128,15543,3070.50,12,P-GPS,1,0,0,0,660,0,0,1664018974105,3953,3948,3950,3935,0,0,27,,,,,,,0,0,0,27.00,-5.00,107.00,0.00,0.00,120.00,6,64.00,40.00,1.81,0.00,0.00,-40.00,0,,,100,100,0,2,0,0,0,2,0,,,,,0.0,0.0,0.0,0.0,0.0,0.0,0
55.955355,-4.402551,6.40,6.50,4.00,0.18,6.40,6.40,4.00,0.30,4087,2022-09-24 11:29:34.107,2022-09-24 12:29:34.107,17,0,0,15.543,55.955356,-4.402549,0.00,0.00,-4.00,-2.70,-0.50,10.70,0,1,0,65,100,-9264,2128,15543,3070.50,12,P-GPS,1,0,0,0,660,0,0,1664018974107,3953,3948,3950,3935,0,0,27,,,,,,,0,0,0,27.00,-5.00,107.00,0.00,0.00,120.00,6,64.00,40.00,1.81,0.00,0.00,-40.00,0,,,100,100,0,2,0,0,0,2,0,,,,,0.0,0.0,0.0,0.0,0.0,0.0,0
55.955355,-4.402551,6.80,6.90,4.00,0.17,6.80,6.80,4.00,0.30,4189,2022-09-24 11:29:34.210,2022-09-24 12:29:34.209,17,0,0,15.564,55.955356,-4.402549,0.00,0.00,-4.00,-2.70,-0.60,10.80,0,1,0,65,100,-11293,2124,15564,3071.50,12,P-GPS,1,0,0,0,660,0,0,1664018974209,3953,3948,3950,3935,0,0,27,,,,,,,0,0,0,27.00,-6.00,108.00,0.00,0.00,120.00,6,68.00,40.00,1.70,0.00,0.00,-40.00,0,,,100,100,0,2,0,0,0,2,0,,,,,0.0,0.0,0.0,0.0,0.0,0.0,0
55.955355,-4.402551,6.80,6.90,4.00,0.17,6.80,6.80,4.00,0.30,4193,2022-09-24 11:29:34.213,2022-09-24 12:29:34.213,17,0,0,15.564,55.955356,-4.402549,0.00,0.00,-4.00,-2.70,-0.60,10.80,0,1,0,65,100,-11293,2124,15564,3071.50,12,P-GPS,1,0,0,0,660,0,0,1664018974213,3953,3948,3950,3935,0,0,27,,,,,,,0,0,0,27.00,-6.00,108.00,0.00,0.00,120.00,6,68.00,40.00,1.70,0.00,0.00,-40.00,0,,,100,100,0,2,0,0,0,2,0,,,,,0.0,0.0,0.0,0.0,0.0,0.0,0
55.955355,-4.402551,7.20,7.30,4.00,0.17,7.20,7.20,4.00,0.30,4291,2022-09-24 11:29:34.311,2022-09-24 12:29:34.311,17,0,0,15.564,55.955356,-4.402549,0.00,0.00,-4.00,-3.10,-0.40,10.70,0,1,0,65,100,-11293,2124,15564,3071.50,12,P-GPS,1,0,0,0,660,0,0,1664018974311,3953,3948,3950,3935,0,0,27,,,,,,,0,0,0,31.00,-4.00,107.00,0.00,0.00,120.00,6,72.00,40.00,1.71,0.00,0.00,-40.00,0,,,100,100,0,2,0,0,0,2,0,,,,,0.0,0.0,0.0,0.0,0.0,0.0,0
55.955355,-4.402551,7.20,7.30,4.00,0.17,7.20,7.20,4.00,0.30,4297,2022-09-24 11:29:34.317,2022-09-24 12:29:34.317,17,0,0,15.564,55.955356,-4.402549,0.00,0.00,-4.00,-3.10,-0.40,10.70,0,1,0,65,100,-11293,2124,15564,3071.50,12,P-GPS,1,0,0,0,660,0,0,1664018974317,3953,3948,3950,3935,0,0,27,,,,,,,0,0,0,31.00,-4.00,107.00,0.00,0.00,120.00,6,72.00,40.00,1.71,0.00,0.00,-40.00,0,,,100,100,0,2,0,0,0,2,0,,,,,0.0,0.0,0.0,0.0,0.0,0.0,0
55.955355,-4.402551,7.60,7.70,4.00,0.17,7.60,7.60,4.00,0.30,4417,2022-09-24 11:29:34.438,2022-09-24 12:29:34.437,16,0,0,15.564,55.955356,-4.402549,0.00,0.00,-4.00,-3.50,-0.30,10.70,0,1,0,65,100,-11293,2124,15564,3071.50,12,P-GPS,1,0,0,0,660,0,0,1664018974437,3953,3948,3950,3935,0,0,27,,,,,,,0,0,0,35.00,-3.00,107.00,0.00,0.00,120.00,6,76.00,40.00,1.70,0.00,0.00,-40.00,0,,,100,100,0,2,0,0,0,2,0,,,,,0.0,0.0,0.0,0.0,0.0,0.0,0
55.955355,-4.402551,7.60,7.70,4.00,0.17,7.60,7.60,4.00,0.30,4421,2022-09-24 11:29:34.441,2022-09-24 12:29:34.441,16,0,0,15.564,55.955356,-4.402549,0.00,0.00,-4.00,-3.50,-0.30,10.70,0,1,0,65,100,-11293,2124,15564,3071.50,12,P-GPS,1,0,0,0,660,0,0,1664018974441,3953,3948,3950,3935,0,0,27,,,,,,,0,0,0,35.00,-3.00,107.00,0.00,0.00,120.00,6,76.00,40.00,1.70,0.00,0.00,-40.00,0,,,100,100,0,2,0,0,0,2,0,,,,,0.0,0.0,0.0,0.0,0.0,0.0,0
55.955355,-4.402551,8.40,8.50,4.00,0.16,8.40,8.40,4.00,0.30,4592,2022-09-24 11:29:34.612,2022-09-24 12:29:34.612,16,0,0,15.564,55.955356,-4.402549,0.00,0.00,-4.00,-4.20,0.00,10.70,0,1,0,65,100,-11293,2124,15564,3071.50,12,P-GPS,1,0,0,0,660,0,0,1664018974612,3953,3948,3950,3935,0,0,27,,,,,,,0,0,0,42.00,0.00,107.00,0.00,0.00,120.00,6,84.00,40.00,1.64,0.00,0.00,-40.00,0,,,100,100,0,2,0,0,0,2,0,,,,,0.0,0.0,0.0,0.0,0.0,0.0,0
55.955355,-4.402551,8.40,8.50,4.00,0.16,8.40,8.40,4.00,0.30,4594,2022-09-24 11:29:34.615,2022-09-24 12:29:34.614,16,0,0,15.564,55.955356,-4.402549,0.00,0.00,-4.00,-4.20,0.00,10.70,0,1,0,65,100,-11293,2124,15564,3071.50,12,P-GPS,1,0,0,0,660,0,0,1664018974614,3953,3948,3950,3935,0,0,27,,,,,,,0,0,0,42.00,0.00,107.00,0.00,0.00,120.00,6,84.00,40.00,1.64,0.00,0.00,-40.00,0,,,100,100,0,2,0,0,0,2,0,,,,,0.0,0.0,0.0,0.0,0.0,0.0,0
55.955355,-4.402551,8.80,8.90,4.00,0.16,8.80,8.80,4.00,0.30,4687,2022-09-24 11:29:34.707,2022-09-24 12:29:34.707,16,0,0,15.564,55.955356,-4.402549,0.00,0.00,-4.00,-4.00,0.00,10.70,0,1,0,65,100,-11293,2124,15564,3071.50,12,P-GPS,1,0,0,0,660,0,0,1664018974707,3953,3948,3950,3935,0,0,27,,,,,,,0,0,0,40.00,0.00,107.00,0.00,0.00,120.00,6,88.00,40.00,1.63,0.00,0.00,-40.00,0,,,100,100,0,2,0,0,0,2,0,,,,,0.0,0.0,0.0,0.0,0.0,0.0,0
55.955355,-4.402551,8.80,8.90,4.00,0.16,8.80,8.80,4.00,0.30,4688,2022-09-24 11:29:34.709,2022-09-24 12:29:34.708,16,0,0,15.564,55.955356,-4.402549,0.00,0.00,-4.00,-4.00,0.00,10.70,0,1,0,65,100,-11293,2124,15564,3071.50,12,P-GPS,1,0,0,0,660,0,0,1664018974708,3953,3948,3950,3935,0,0,27,,,,,,,0,0,0,40.00,0.00,107.00,0.00,0.00,120.00,6,88.00,40.00,1.63,0.00,0.00,-40.00,0,,,100,100,0,2,0,0,0,2,0,,,,,0.0,0.0,0.0,0.0,0.0,0.0,0
55.955355,-4.402551,9.20,9.30,4.00,0.16,9.20,9.20,4.00,0.30,4799,2022-09-24 11:29:34.819,2022-09-24 12:29:34.819,17,0,0,15.564,55.955356,-4.402549,0.00,0.00,-4.00,-3.70,0.00,10.70,0,1,0,65,100,-11293,2124,15564,3071.50,12,P-GPS,1,0,0,0,660,0,0,1664018974819,3953,3948,3950,3935,0,0,27,,,,,,,0,0,0,37.00,0.00,107.00,0.00,0.00,120.00,6,92.00,40.00,1.57,0.00,0.00,-40.00,0,,,100,100,0,2,0,0,0,2,0,,,,,0.0,0.0,0.0,0.0,0.0,0.0,0
55.955355,-4.402551,9.20,9.30,4.00,0.16,9.20,9.20,4.00,0.30,4800,2022-09-24 11:29:34.820,2022-09-24 12:29:34.820,17,0,0,15.564,55.955356,-4.402549,0.00,0.00,-4.00,-3.70,0.00,10.70,0,1,0,65,100,-11293,2124,15564,3071.50,12,P-GPS,1,0,0,0,660,0,0,1664018974820,3953,3948,3950,3935,0,0,27,,,,,,,0,0,0,37.00,0.00,107.00,0.00,0.00,120.00,6,92.00,40.00,1.57,0.00,0.00,-40.00,0,,,100,100,0,2,0,0,0,2,0,,,,,0.0,0.0,0.0,0.0,0.0,0.0,0
55.955355,-4.402551,9.60,9.70,4.00,0.15,9.60,9.60,4.00,0.30,4891,2022-09-24 11:29:34.911,2022-09-24 12:29:34.911,17,0,0,15.564,55.955356,-4.402549,0.00,0.00,-4.00,-3.50,0.00,10.70,0,1,0,65,100,-11293,2124,15564,3071.50,12,P-GPS,1,0,0,0,660,0,0,1664018974911,3953,3948,3950,3935,0,0,27,,,,,,,0,0,0,35.00,0.00,107.00,0.00,0.00,120.00,6,96.00,40.00,1.54,0.00,0.00,-40.00,0,,,100,100,0,2,0,0,0,2,0,,,,,0.0,0.0,0.0,0.0,0.0,0.0,0
55.955355,-4.402551,9.60,9.70,4.00,0.15,9.60,9.60,4.00,0.30,4956,2022-09-24 11:29:34.976,2022-09-24 12:29:34.976,17,0,0,15.564,55.955356,-4.402549,0.00,0.00,-4.00,-3.50,0.00,10.70,0,1,0,65,100,-11293,2124,15564,3071.50,12,P-GPS,1,0,0,0,660,0,0,1664018974976,3953,3948,3950,3935,0,0,27,,,,,,,0,0,0,35.00,0.00,107.00,0.00,0.00,120.00,6,96.00,40.00,1.54,0.00,0.00,-40.00,0,,,100,100,0,2,0,0,0,2,0,,,,,0.0,0.0,0.0,0.0,0.0,0.0,0
55.955355,-4.402550,10.00,10.10,4.00,0.18,10.00,10.00,4.00,0.30,4996,2022-09-24 11:29:35.016,2022-09-24 12:29:35.016,17,0,0,15.564,55.955356,-4.402549,0.00,0.00,-4.00,-3.40,0.00,10.70,0,1,0,65,100,-11293,2124,15564,3071.50,12,P-GPS,1,0,0,0,660,0,0,1664018975016,3953,3948,3950,3935,0,0,27,,,,,,,0,0,0,34.00,0.00,107.00,0.00,0.00,120.00,6,100.00,40.00,1.78,0.00,0.00,-40.00,0,,,100,100,0,2,0,0,0,2,0,,,,,0.0,0.0,0.0,0.0,0.0,0.0,0
55.955355,-4.402550,10.00,10.10,4.00,0.18,10.00,10.00,4.00,0.30,4996,2022-09-24 11:29:35.017,2022-09-24 12:29:35.016,17,0,0,15.564,55.955356,-4.402549,0.00,0.00,-4.00,-3.40,0.00,10.70,0,1,0,65,100,-11293,2124,15564,3071.50,12,P-GPS,1,0,0,0,660,0,0,1664018975016,3953,3948,3950,3935,0,0,27,,,,,,,0,0,0,34.00,0.00,107.00,0.00,0.00,120.00,6,100.00,40.00,1.78,0.00,0.00,-40.00,0,,,100,100,0,2,0,0,0,2,0,,,,,0.0,0.0,0.0,0.0,0.0,0.0,0
55.955355,-4.402550,10.40,10.50,4.00,0.18,10.40,10.40,4.00,0.30,5084,2022-09-24 11:29:35.104,2022-09-24 12:29:35.104,17,0,0,15.564,55.955356,-4.402549,0.00,0.00,-4.00,-3.40,0.00,10.70,0,1,0,65,100,-11293,2124,15564,3071.50,12,P-GPS,1,0,0,0,660,0,0,1664018975104,3953,3948,3950,3935,0,0,27,,,,,,,0,0,0,34.00,0.00,107.00,0.00,0.00,120.00,6,104.00,40.00,1.76,0.00,0.00,-40.00,0,,,100,100,0,2,0,0,0,2,0,,,,,0.0,0.0,0.0,0.0,0.0,0.0,0
55.955355,-4.402550,10.40,10.50,4.00,0.18,10.40,10.40,4.00,0.30,5086,2022-09-24 11:29:35.106,2022-09-24 12:29:35.106,17,0,0,15.564,55.955356,-4.402549,0.00,0.00,-4.00,-3.40,0.00,10.70,0,1,0,65,100,-11293,2124,15564,3071.50,12,P-GPS,1,0,0,0,660,0,0,1664018975106,3953,3948,3950,3935,0,0,27,,,,,,,0,0,0,34.00,0.00,107.00,0.00,0.00,120.00,6,104.00,40.00,1.76,0.00,0.00,-40.00,0,,,100,100,0,2,0,0,0,2,0,,,,,0.0,0.0,0.0,0.0,0.0,0.0,0
55.955355,-4.402550,10.80,10.90,4.00,0.17,10.80,10.80,4.00,0.30,5189,2022-09-24 11:29:35.210,2022-09-24 12:29:35.209,17,0,0,15.554,55.955356,-4.402549,0.00,0.00,-4.00,-3.30,-0.20,10.70,0,1,0,65,100,-9765,2121,15554,3071.50,12,P-GPS,1,0,0,0,660,0,0,1664018975209,3953,3948,3950,3935,0,0,27,,,,,,,0,0,0,33.00,-2.00,107.00,0.00,0.00,120.00,6,108.00,40.00,1.72,0.00,0.00,-40.00,0,,,100,100,0,2,0,0,0,2,0,,,,,0.0,0.0,0.0,0.0,0.0,0.0,0
55.955355,-4.402550,10.80,10.90,4.00,0.17,10.80,10.80,4.00,0.30,5190,2022-09-24 11:29:35.211,2022-09-24 12:29:35.210,17,0,0,15.554,55.955356,-4.402549,0.00,0.00,-4.00,-3.30,-0.20,10.70,0,1,0,65,100,-9765,2121,15554,3071.50,12,P-GPS,1,0,0,0,660,0,0,1664018975210,3953,3948,3950,3935,0,0,27,,,,,,,0,0,0,33.00,-2.00,107.00,0.00,0.00,120.00,6,108.00,40.00,1.72,0.00,0.00,-40.00,0,,,100,100,0,2,0,0,0,2,0,,,,,0.0,0.0,0.0,0.0,0.0,0.0,0
55.955355,-4.402550,11.20,11.30,4.00,0.17,11.20,11.20,4.00,0.30,5286,2022-09-24 11:29:35.306,2022-09-24 12:29:35.306,17,0,0,15.554,55.955356,-4.402549,0.00,0.00,-4.00,-3.20,-0.50,10.70,0,1,0,65,100,-9765,2121,15554,3071.50,12,P-GPS,1,0,0,0,660,0,0,1664018975306,3953,3948,3950,3935,0,0,27,,,,,,,0,0,0,32.00,-5.00,107.00,0.00,0.00,120.00,6,112.00,40.00,1.70,0.00,0.00,-40.00,0,,,100,100,0,2,0,0,0,2,0,,,,,0.0,0.0,0.0,0.0,0.0,0.0,0
55.955355,-4.402550,11.20,11.30,4.00,0.17,11.20,11.20,4.00,0.30,5290,2022-09-24 11:29:35.310,2022-09-24 12:29:35.310,17,0,0,15.554,55.955356,-4.402549,0.00,0.00,-4.00,-3.20,-0.50,10.70,0,1,0,65,100,-9765,2121,15554,3071.50,12,P-GPS,1,0,0,0,660,0,0,1664018975310,3953,3948,3950,3935,0,0,27,,,,,,,0,0,0,32.00,-5.00,107.00,0.00,0.00,120.00,6,112.00,40.00,1.70,0.00,0.00,-40.00,0,,,100,100,0,2,0,0,0,2,0,,,,,0.0,0.0,0.0,0.0,0.0,0.0,0
55.955355,-4.402550,11.60,11.70,3.90,0.17,11.60,11.60,4.00,0.30,5402,2022-09-24 11:29:35.422,2022-09-24 12:29:35.422,17,0,0,15.554,55.955356,-4.402549,0.00,0.00,-3.90,-3.20,-0.60,10.70,0,1,0,65,100,-9765,2121,15554,3071.50,12,P-GPS,1,0,0,0,660,0,0,1664018975422,3953,3948,3950,3935,0,0,27,,,,,,,0,0,0,32.00,-6.00,107.00,0.00,0.00,120.00,6,116.00,39.00,1.66,0.00,0.00,-39.00,0,,,100,100,0,2,0,0,0,2,0,,,,,0.0,0.0,0.0,0.0,0.0,0.0,0
55.955355,-4.402550,11.60,11.70,3.90,0.17,11.60,11.60,4.00,0.30,5403,2022-09-24 11:29:35.423,2022-09-24 12:29:35.423,17,0,0,15.554,55.955356,-4.402549,0.00,0.00,-3.90,-3.20,-0.60,10.70,0,1,0,65,100,-9765,2121,15554,3071.50,12,P-GPS,1,0,0,0,660,0,0,1664018975423,3953,3948,3950,3935,0,0,27,,,,,,,0,0,0,32.00,-6.00,107.00,0.00,0.00,120.00,6,116.00,39.00,1.66,0.00,0.00,-39.00,0,,,100,100,0,2,0,0,0,2,0,,,,,0.0,0.0,0.0,0.0,0.0,0.0,0
55.955355,-4.402550,12.00,12.10,3.90,0.16,12.00,12.00,4.00,0.30,5579,2022-09-24 11:29:35.600,2022-09-24 12:29:35.600,17,0,0,15.554,55.955356,-4.402549,0.00,0.00,-3.90,-3.30,-0.60,10.70,0,1,0,65,100,-9765,2121,15554,3071.50,12,P-GPS,1,0,0,0,660,0,0,1664018975599,3953,3948,3950,3935,0,0,27,,,,,,,0,0,0,33.00,-6.00,107.00,0.00,0.00,120.00,6,120.00,39.00,1.65,0.00,0.00,-39.00,0,,,100,100,0,2,0,0,0,2,0,,,,,0.0,0.0,0.0,0.0,0.0,0.0,0
55.955355,-4.402550,12.00,12.10,3.90,0.16,12.00,12.00,4.00,0.30,5582,2022-09-24 11:29:35.602,2022-09-24 12:29:35.602,17,0,0,15.554,55.955356,-4.402549,0.00,0.00,-3.90,-3.30,-0.60,10.70,0,1,0,65,100,-9765,2121,15554,3071.50,12,P-GPS,1,0,0,0,660,0,0,1664018975602,3953,3948,3950,3935,0,0,27,,,,,,,0,0,0,33.00,-6.00,107.00,0.00,0.00,120.00,6,120.00,39.00,1.65,0.00,0.00,-39.00,0,,,100,100,0,2,0,0,0,2,0,,,,,0.0,0.0,0.0,0.0,0.0,0.0,0
55.955355,-4.402550,12.80,0.00,3.90,0.15,12.80,12.80,4.00,0.30,5687,2022-09-24 11:29:35.708,2022-09-24 12:29:35.707,15,0,0,15.554,55.955356,-4.402549,0.00,0.00,-3.90,-3.50,-0.60,10.70,0,1,0,65,100,-9765,2121,15554,3071.50,12,P-GPS,1,0,0,0,660,0,0,1664018975707,3953,3948,3950,3935,0,0,27,,,,,,,0,0,0,35.00,-6.00,107.00,0.00,0.00,120.00,6,128.00,39.00,1.51,0.00,0.00,-39.00,0,,,100,100,0,2,0,0,0,2,0,,,,,0.0,0.0,0.0,0.0,0.0,0.0,0
55.955355,-4.402550,12.80,0.00,3.90,0.15,12.80,12.80,4.00,0.30,5689,2022-09-24 11:29:35.709,2022-09-24 12:29:35.709,15,0,0,15.554,55.955356,-4.402549,0.00,0.00,-3.90,-3.50,-0.60,10.70,0,1,0,65,100,-9765,2121,15554,3071.50,12,P-GPS,1,0,0,0,660,0,0,1664018975709,3953,3948,3950,3935,0,0,27,,,,,,,0,0,0,35.00,-6.00,107.00,0.00,0.00,120.00,6,128.00,39.00,1.51,0.00,0.00,-39.00,0,,,100,100,0,2,0,0,0,2,0,,,,,0.0,0.0,0.0,0.0,0.0,0.0,0
55.955355,-4.402550,13.20,0.00,3.90,0.15,13.20,13.20,4.00,0.30,5802,2022-09-24 11:29:35.823,2022-09-24 12:29:35.822,17,0,0,15.554,55.955356,-4.402549,0.00,0.00,-3.90,-3.50,-0.60,10.70,0,1,0,65,100,-9765,2121,15554,3071.50,12,P-GPS,1,0,0,0,660,0,0,1664018975822,3953,3948,3950,3935,0,0,27,,,,,,,0,0,0,35.00,-6.00,107.00,0.00,0.00,120.00,6,132.00,39.00,1.49,0.00,0.00,-39.00,0,,,100,100,0,2,0,0,0,2,0,,,,,0.0,0.0,0.0,0.0,0.0,0.0,0
55.955355,-4.402550,13.20,0.00,3.90,0.15,13.20,13.20,4.00,0.30,5805,2022-09-24 11:29:35.826,2022-09-24 12:29:35.826,17,0,0,15.554,55.955356,-4.402549,0.00,0.00,-3.90,-3.50,-0.60,10.70,0,1,0,65,100,-9765,2121,15554,3071.50,12,P-GPS,1,0,0,0,660,0,0,1664018975825,3953,3948,3950,3935,0,0,27,,,,,,,0,0,0,35.00,-6.00,107.00,0.00,0.00,120.00,6,132.00,39.00,1.49,0.00,0.00,-39.00,0,,,100,100,0,2,0,0,0,2,0,,,,,0.0,0.0,0.0,0.0,0.0,0.0,0
55.955355,-4.402550,13.60,0.00,3.90,0.15,13.60,13.60,4.00,0.30,5889,2022-09-24 11:29:35.909,2022-09-24 12:29:35.909,17,0,0,15.554,55.955356,-4.402549,0.00,0.00,-3.90,-3.40,-0.70,10.70,0,1,0,65,100,-9765,2121,15554,3071.50,12,P-GPS,1,0,0,0,660,0,0,1664018975909,3953,3948,3950,3935,0,0,27,,,,,,,0,0,0,34.00,-7.00,107.00,0.00,0.00,120.00,6,136.00,39.00,1.47,0.00,0.00,-39.00,0,,,100,100,0,2,0,0,0,2,0,,,,,0.0,0.0,0.0,0.0,0.0,0.0,0
55.955355,-4.402550,13.60,0.00,3.90,0.15,13.60,13.60,4.00,0.30,5891,2022-09-24 11:29:35.911,2022-09-24 12:29:35.911,17,0,0,15.554,55.955356,-4.402549,0.00,0.00,-3.90,-3.40,-0.70,10.70,0,1,0,65,100,-9765,2121,15554,3071.50,12,P-GPS,1,0,0,0,660,0,0,1664018975911,3953,3948,3950,3935,0,0,27,,,,,,,0,0,0,34.00,-7.00,107.00,0.00,0.00,120.00,6,136.00,39.00,1.47,0.00,0.00,-39.00,0,,,100,100,0,2,0,0,0,2,0,,,,,0.0,0.0,0.0,0.0,0.0,0.0,0
55.955355,-4.402550,14.00,0.00,3.90,0.15,14.00,14.00,4.00,0.30,5993,2022-09-24 11:29:36.014,2022-09-24 12:29:36.013,17,0,0,15.554,55.955356,-4.402549,0.00,0.00,-4.00,-3.20,-0.70,10.70,0,1,0,65,100,-9765,2121,15554,3071.50,12,P-GPS,1,0,0,0,660,0,0,1664018976013,3953,3948,3950,3935,0,0,27,,,,,,,0,0,0,32.00,-7.00,107.00,0.00,0.00,120.00,6,140.00,39.00,1.47,0.00,0.00,-40.00,0,,,100,100,0,2,0,0,0,2,0,,,,,0.0,0.0,0.0,0.0,0.0,0.0,0
55.955355,-4.402550,14.40,0.00,4.00,0.14,14.40,14.40,4.00,0.30,6099,2022-09-24 11:29:36.120,2022-09-24 12:29:36.119,17,0,0,15.554,55.955356,-4.402549,0.00,0.00,-4.00,-3.10,-0.70,10.70,0,1,0,65,100,-9765,2121,15554,3071.50,12,P-GPS,1,0,0,0,660,0,0,1664018976119,3953,3948,3950,3935,0,0,27,,,,,,,0,0,0,31.00,-7.00,107.00,0.00,0.00,120.00,6,144.00,40.00,1.45,0.00,0.00,-40.00,0,,,100,100,0,2,0,0,0,2,0,,,,,0.0,0.0,0.0,0.0,0.0,0.0,0
55.955355,-4.402550,14.40,0.00,4.00,0.14,14.40,14.40,4.00,0.30,6102,2022-09-24 11:29:36.122,2022-09-24 12:29:36.122,17,0,0,15.554,55.955356,-4.402549,0.00,0.00,-4.00,-3.10,-0.70,10.70,0,1,0,65,100,-9765,2121,15554,3071.50,12,P-GPS,1,0,0,0,660,0,0,1664018976122,3953,3948,3950,3935,0,0,27,,,,,,,0,0,0,31.00,-7.00,107.00,0.00,0.00,120.00,6,144.00,40.00,1.45,0.00,0.00,-40.00,0,,,100,100,0,2,0,0,0,2,0,,,,,0.0,0.0,0.0,0.0,0.0,0.0,0
55.955355,-4.402550,14.40,0.00,4.00,0.14,14.40,14.40,4.00,0.30,6104,2022-09-24 11:29:36.124,2022-09-24 12:29:36.124,17,0,0,15.554,55.955356,-4.402549,0.00,0.00,-4.00,-3.10,-0.70,10.70,0,1,0,65,100,-9765,2121,15554,3071.50,12,P-GPS,1,0,0,0,660,0,0,1664018976124,3953,3948,3950,3935,0,0,27,,,,,,,0,0,0,31.00,-7.00,107.00,0.00,0.00,120.00,6,144.00,40.00,1.45,0.00,0.00,-40.00,0,,,100,100,0,2,0,0,0,2,0,,,,,0.0,0.0,0.0,0.0,0.0,0.0,0
55.955355,-4.402550,14.80,0.00,4.00,0.13,14.80,14.80,4.00,0.30,6206,2022-09-24 11:29:36.226,2022-09-24 12:29:36.226,17,0,0,15.554,55.955356,-4.402549,0.00,0.00,-4.00,-3.10,-0.60,10.70,0,1,0,65,100,-9765,2121,15554,3071.50,12,P-GPS,1,0,0,0,660,0,0,1664018976226,3953,3948,3950,3935,0,0,27,,,,,,,0,0,0,31.00,-6.00,107.00,0.00,0.00,120.00,6,148.00,40.00,1.29,0.00,0.00,-40.00,0,,,100,100,0,2,0,0,0,2,0,,,,,0.0,0.0,0.0,0.0,0.0,0.0,0
55.955355,-4.402550,14.80,0.00,4.00,0.13,14.80,14.80,4.00,0.30,6208,2022-09-24 11:29:36.229,2022-09-24 12:29:36.228,17,0,0,15.554,55.955356,-4.402549,0.00,0.00,-4.00,-3.10,-0.60,10.70,0,1,0,65,100,-9765,2121,15554,3071.50,12,P-GPS,1,0,0,0,660,0,0,1664018976228,3953,3948,3950,3935,0,0,27,,,,,,,0,0,0,31.00,-6.00,107.00,0.00,0.00,120.00,6,148.00,40.00,1.29,0.00,0.00,-40.00,0,,,100,100,0,2,0,0,0,2,0,,,,,0.0,0.0,0.0,0.0,0.0,0.0,0
55.955355,-4.402550,15.60,0.00,3.90,0.13,15.60,15.60,4.00,0.30,6402,2022-09-24 11:29:36.423,2022-09-24 12:29:36.422,17,0,0,15.554,55.955356,-4.402549,0.00,0.00,-3.90,-3.30,-0.60,10.70,0,1,0,65,100,-9765,2121,15554,3071.50,12,P-GPS,1,0,0,0,660,0,-275,1664018976422,3953,3948,3950,3935,0,0,27,,,,,,,0,0,0,33.00,-6.00,107.00,-1.00,0.00,120.00,6,156.00,39.00,1.34,0.00,0.00,-39.00,0,,,100,100,0,2,0,0,0,2,0,,,,,0.0,0.0,0.0,0.0,0.0,0.0,0
55.955355,-4.402550,15.60,0.00,3.90,0.13,15.60,15.60,4.00,0.30,6405,2022-09-24 11:29:36.426,2022-09-24 12:29:36.425,17,0,0,15.554,55.955356,-4.402549,0.00,0.00,-3.90,-3.30,-0.60,10.70,0,1,0,65,100,-9765,2121,15554,3071.50,12,P-GPS,1,0,0,0,660,0,-275,1664018976425,3953,3948,3950,3935,0,0,27,,,,,,,0,0,0,33.00,-6.00,107.00,-1.00,0.00,120.00,6,156.00,39.00,1.34,0.00,0.00,-39.00,0,,,100,100,0,2,0,0,0,2,0,,,,,0.0,0.0,0.0,0.0,0.0,0.0,0
55.955355,-4.402550,16.00,0.00,3.90,0.13,16.00,16.00,4.00,0.30,6488,2022-09-24 11:29:36.508,2022-09-24 12:29:36.508,17,0,0,15.554,55.955356,-4.402549,0.00,0.00,-3.90,-3.20,-0.70,10.70,0,1,0,65,100,-9765,2121,15554,3071.50,12,P-GPS,1,0,0,0,660,0,-660,1664018976508,3953,3948,3950,3935,0,0,27,,,,,,,0,0,0,32.00,-7.00,107.00,-9.00,0.00,120.00,6,160.00,39.00,1.33,0.00,0.00,-39.00,0,,,100,100,0,2,0,0,0,2,0,,,,,0.0,0.0,0.0,0.0,0.0,0.0,0
55.955355,-4.402550,16.40,0.00,3.90,0.14,16.40,16.40,4.00,0.30,6589,2022-09-24 11:29:36.609,2022-09-24 12:29:36.609,17,0,0,15.554,55.955356,-4.402549,0.00,0.00,-3.90,-3.10,-0.80,10.70,0,1,0,65,100,-9765,2121,15554,3071.50,12,P-GPS,1,0,0,0,660,0,-660,1664018976609,3953,3948,3950,3935,0,0,27,,,,,,,0,0,0,31.00,-8.00,107.00,-22.00,0.00,120.00,6,164.00,39.00,1.37,0.00,0.00,-39.00,0,,,100,100,0,2,0,0,0,2,0,,,,,0.0,0.0,0.0,0.0,0.0,0.0,0
55.955355,-4.402550,16.40,0.00,3.90,0.14,16.40,16.40,4.00,0.30,6591,2022-09-24 11:29:36.611,2022-09-24 12:29:36.611,17,0,0,15.554,55.955356,-4.402549,0.00,0.00,-3.90,-3.10,-0.80,10.70,0,1,0,65,100,-9765,2121,15554,3071.50,12,P-GPS,1,0,0,0,660,0,-660,1664018976611,3953,3948,3950,3935,0,0,27,,,,,,,0,0,0,31.00,-8.00,107.00,-22.00,0.00,120.00,6,164.00,39.00,1.37,0.00,0.00,-39.00,0,,,100,100,0,2,0,0,0,2,0,,,,,0.0,0.0,0.0,0.0,0.0,0.0,0
55.955355,-4.402550,16.80,0.00,3.90,0.14,16.80,16.80,4.00,0.30,6692,2022-09-24 11:29:36.713,2022-09-24 12:29:36.712,17,0,0,15.538,55.955356,-4.402549,0.00,0.00,-3.90,-3.20,-0.70,10.70,0,1,0,65,100,-9674,2119,15538,3072.50,12,P-GPS,1,0,0,0,660,0,-660,1664018976712,3953,3948,3950,3935,0,0,27,,,,,,,0,0,0,32.00,-7.00,107.00,-40.00,0.00,120.00,6,168.00,39.00,1.37,0.00,0.00,-39.00,0,,,100,100,0,2,0,0,0,2,0,,,,,0.0,0.0,0.0,0.0,0.0,0.0,0
55.955355,-4.402550,16.80,0.00,3.90,0.14,16.80,16.80,4.00,0.30,6694,2022-09-24 11:29:36.714,2022-09-24 12:29:36.714,17,0,0,15.538,55.955356,-4.402549,0.00,0.00,-3.90,-3.20,-0.70,10.70,0,1,0,65,100,-9674,2119,15538,3072.50,12,P-GPS,1,0,0,0,660,0,-660,1664018976714,3953,3948,3950,3935,0,0,27,,,,,,,0,0,0,32.00,-7.00,107.00,-40.00,0.00,120.00,6,168.00,39.00,1.37,0.00,0.00,-39.00,0,,,100,100,0,2,0,0,0,2,0,,,,,0.0,0.0,0.0,0.0,0.0,0.0,0
55.955355,-4.402550,17.20,0.00,3.90,0.11,17.20,17.20,4.00,0.30,6791,2022-09-24 11:29:36.811,2022-09-24 12:29:36.811,17,0,0,15.538,55.955356,-4.402549,0.00,0.00,-3.90,-3.00,-0.50,10.70,0,1,0,65,100,-9674,2119,15538,3072.50,12,P-GPS,1,0,0,0,660,0,-660,1664018976811,3953,3948,3950,3935,0,0,27,,,,,,,0,0,0,30.00,-5.00,107.00,-63.00,0.00,120.00,6,172.00,39.00,1.07,0.00,0.00,-39.00,0,,,100,100,0,2,0,0,0,2,0,,,,,0.0,0.0,0.0,0.0,0.0,0.0,0
55.955355,-4.402550,17.20,0.00,3.90,0.11,17.20,17.20,4.00,0.30,6792,2022-09-24 11:29:36.812,2022-09-24 12:29:36.812,17,0,0,15.538,55.955356,-4.402549,0.00,0.00,-3.90,-3.00,-0.50,10.70,0,1,0,65,100,-9674,2119,15538,3072.50,12,P-GPS,1,0,0,0,660,0,-660,1664018976812,3953,3948,3950,3935,0,0,27,,,,,,,0,0,0,30.00,-5.00,107.00,-63.00,0.00,120.00,6,172.00,39.00,1.07,0.00,0.00,-39.00,0,,,100,100,0,2,0,0,0,2,0,,,,,0.0,0.0,0.0,0.0,0.0,0.0,0
55.955355,-4.402550,17.60,0.00,3.90,0.10,17.60,17.60,4.00,0.30,6892,2022-09-24 11:29:36.913,2022-09-24 12:29:36.913,17,0,0,15.538,55.955356,-4.402549,0.00,0.00,-3.90,-2.90,-0.20,10.70,0,1,0,65,100,-9674,2119,15538,3072.50,12,P-GPS,1,0,0,0,660,0,-660,1664018976912,3953,3948,3950,3935,0,0,27,,,,,,,0,0,0,29.00,-2.00,107.00,-87.00,0.00,120.00,6,176.00,39.00,1.05,0.00,0.00,-39.00,0,,,100,100,0,2,0,0,0,2,0,,,,,0.0,0.0,0.0,0.0,0.0,0.0,0
55.955355,-4.402550,17.60,0.00,3.90,0.10,17.60,17.60,4.00,0.30,6894,2022-09-24 11:29:36.914,2022-09-24 12:29:36.914,17,0,0,15.538,55.955356,-4.402549,0.00,0.00,-3.90,-2.90,-0.20,10.70,0,1,0,65,100,-9674,2119,15538,3072.50,12,P-GPS,1,0,0,0,660,0,-660,1664018976914,3953,3948,3950,3935,0,0,27,,,,,,,0,0,0,29.00,-2.00,107.00,-87.00,0.00,120.00,6,176.00,39.00,1.05,0.00,0.00,-39.00,0,,,100,100,0,2,0,0,0,2,0,,,,,0.0,0.0,0.0,0.0,0.0,0.0,0
55.955355,-4.402550,18.00,0.00,3.90,0.10,18.00,18.00,4.00,0.30,6991,2022-09-24 11:29:37.012,2022-09-24 12:29:37.011,17,0,0,15.538,55.955356,-4.402549,0.00,0.00,-3.90,-3.00,-0.10,10.70,0,1,0,65,100,-9674,2119,15538,3072.50,12,P-GPS,1,0,0,0,660,0,-660,1664018977011,3953,3948,3950,3935,0,0,27,,,,,,,0,0,0,30.00,-1.00,107.00,-110.00,0.00,120.00,6,180.00,39.00,0.96,0.00,0.00,-39.00,0,,,100,100,0,2,0,0,0,2,0,,,,,0.0,0.0,0.0,0.0,0.0,0.0,0
55.955355,-4.402550,18.00,0.00,3.90,0.10,18.00,18.00,4.00,0.30,6993,2022-09-24 11:29:37.013,2022-09-24 12:29:37.013,17,0,0,15.538,55.955356,-4.402549,0.00,0.00,-3.90,-3.00,-0.10,10.70,0,1,0,65,100,-9674,2119,15538,3072.50,12,P-GPS,1,0,0,0,660,0,-660,1664018977013,3953,3948,3950,3935,0,0,27,,,,,,,0,0,0,30.00,-1.00,107.00,-110.00,0.00,120.00,6,180.00,39.00,0.96,0.00,0.00,-39.00,0,,,100,100,0,2,0,0,0,2,0,,,,,0.0,0.0,0.0,0.0,0.0,0.0,0
55.955355,-4.402550,18.40,0.00,3.90,0.09,18.40,18.40,4.00,0.30,7107,2022-09-24 11:29:37.128,2022-09-24 12:29:37.127,17,0,0,15.538,55.955356,-4.402549,0.00,0.00,-3.90,-3.00,0.00,10.70,0,1,0,65,100,-9674,2119,15538,3072.50,12,P-GPS,1,0,0,0,660,0,-660,1664018977127,3953,3948,3950,3935,0,0,27,,,,,,,0,0,0,30.00,0.00,107.00,-134.00,0.00,120.00,6,184.00,39.00,0.94,0.00,0.00,-39.00,0,,,100,100,0,2,0,0,0,2,0,,,,,0.0,0.0,0.0,0.0,0.0,0.0,0
55.955355,-4.402550,18.80,0.00,3.90,0.10,18.80,18.80,4.00,0.30,7203,2022-09-24 11:29:37.224,2022-09-24 12:29:37.223,17,0,0,15.538,55.955356,-4.402549,0.00,0.00,-3.90,-3.20,-0.10,10.80,0,1,0,65,100,-9674,2119,15538,3072.50,12,P-GPS,1,0,0,0,660,0,-660,1664018977223,3953,3948,3950,3935,0,0,27,,,,,,,0,0,0,32.00,-1.00,108.00,-134.00,0.00,120.00,6,188.00,39.00,1.03,0.00,0.00,-39.00,0,,,100,100,0,2,0,0,0,2,0,,,,,0.0,0.0,0.0,0.0,0.0,0.0,0
55.955355,-4.402550,19.20,0.00,4.00,0.10,19.20,19.20,4.00,0.30,7291,2022-09-24 11:29:37.312,2022-09-24 12:29:37.311,17,0,0,15.538,55.955356,-4.402549,0.00,0.00,-4.00,-3.30,-0.20,10.80,0,1,0,65,100,-9674,2119,15538,3072.50,12,P-GPS,1,0,0,0,660,0,-660,1664018977311,3953,3948,3950,3935,0,0,27,,,,,,,0,0,0,33.00,-2.00,108.00,-181.00,0.00,120.00,6,192.00,40.00,1.03,0.00,0.00,-40.00,0,,,100,100,0,2,0,0,0,2,0,,,,,0.0,0.0,0.0,0.0,0.0,0.0,0
