latitude,longitude,altitude(m),ultrasonicHeight(m),speed(mps),distance(m),max_altitude(m),max_ascent(m),max_speed(mps),max_distance(m),time(millisecond),datetime(utc),datetime(local),satellites,pressure(Pa),temperature(F),voltage(v),home_latitude,home_longitude,velocityX(mps),velocityY(mps),velocityZ(mps),pitch(deg),roll(deg),yaw(deg),powerlevel,isflying,istakingphoto,remainPowerPercent,remainLifePercent,currentCurrent,currentElectricity,currentVoltage,batteryTemperature,dischargeCount,flightmode,isMotorsOn,isTakingVideo,Rc_elevator,Rc_aileron,Rc_throttle,Rc_rudder,Rc_gyro,timestamp,Battery_Cell1,Battery_Cell2,Battery_Cell3,Battery_Cell4,Battery_Cell5,Battery_Cell6,Dronetype,AppVersion,Planename,FlyControllerSerialNumber,RemoteSerialNumber,BatterySerialNumber,CENTER_BATTERY.productDate,CENTER_BATTERY.serialNo,CENTER_BATTERY.fullCapacity,CENTER_BATTERY.productDateRaw,pitchRaw,rollRaw,yawRaw,gimbalPitchRaw,gimbalRollRaw,gimbalYawRaw,flyState,altitudeRaw,speedRaw,distanceRaw,velocityXRaw,velocityYRaw,velocityZRaw,data_reuse,App_Tip,App_Warning,downlinkSignalQuality,uplinkSignalQuality,transmissionChannel,rcModeSwitch,rcHome,rcPause,rcTransform,rcJoystickMode,appMode,FlyControllerSerialNumber_legacy,RemoteSerialNumber_legacy,BatterySerialNumber_legacy,Battery2SerialNumber,frontAvoidDist,backAvoidDist,rightAvoidDist,leftAvoidDist,upAvoidDist,downAvoidDist,isBrakingToAvoid
55.954266,-4.401835,83.40,0.00,0.00,51.65,83.40,83.40,0.00,51.65,0,2022-09-19 10:25:53.485,2022-09-19 11:25:53.484,18,0,0,0.000,55.954469,-4.402580,0.00,0.00,0.00,3.20,-2.40,82.60,0,1,0,0,0,0,0,0,2731.50,0,P-GPS,1,0,0,0,0,0,0,1663583153484,0,0,0,0,0,0,27,Litchi_4.24.1-g,,,,null,,0,0,0,-32.00,-24.00,826.00,-900.00,0.00,744.00,6,834.00,0.00,516.51,0.00,0.00,0.00,0,,,100,100,0,2,0,0,0,2,0,,,,null,0.0,0.0,0.0,0.0,0.0,0.0,0
55.954266,-4.401835,83.40,0.00,0.00,51.65,83.40,83.40,0.00,51.65,104,2022-09-19 10:25:53.588,2022-09-19 11:25:53.588,18,0,0,0.000,55.954469,-4.402580,0.00,0.00,0.00,3.10,-2.40,82.60,0,1,0,0,0,0,0,0,2731.50,11,P-GPS,1,0,0,0,0,0,0,1663583153588,0,0,0,0,0,0,27,Litchi_4.24.1-g,,,,null,,0,0,0,-31.00,-24.00,826.00,-899.00,0.00,744.00,6,834.00,0.00,516.52,0.00,0.00,0.00,0,,,100,100,0,2,0,0,0,2,0,,,,null,0.0,0.0,0.0,0.0,0.0,0.0,0
55.954266,-4.401836,83.40,0.00,0.00,51.65,83.40,83.40,0.00,51.65,211,2022-09-19 10:25:53.695,2022-09-19 11:25:53.695,18,0,0,0.000,55.954469,-4.402580,0.00,0.00,0.00,3.10,-2.40,82.60,0,1,0,0,0,0,0,0,2731.50,11,P-GPS,1,0,0,0,0,0,0,1663583153695,0,0,0,0,0,0,27,Litchi_4.24.1-g,,,,null,,0,0,0,-31.00,-24.00,826.00,-900.00,0.00,744.00,6,834.00,0.00,516.47,0.00,0.00,0.00,0,,,100,100,0,2,0,0,0,2,0,,,,null,0.0,0.0,0.0,0.0,0.0,0.0,0
55.954266,-4.401836,83.40,0.00,0.00,51.65,83.40,83.40,0.00,51.65,300,2022-09-19 10:25:53.784,2022-09-19 11:25:53.784,18,0,0,0.000,55.954469,-4.402580,0.00,0.00,0.00,3.00,-2.40,82.60,0,1,0,0,0,0,0,0,2731.50,11,P-GPS,1,0,0,0,0,0,0,1663583153784,0,0,0,0,0,0,27,Litchi_4.24.1-g,CJTMAVIC,163DFAS001K45C,0VECFAK0072T52,0P2AFAL5340E87,,0,0,0,-30.00,-24.00,826.00,-900.00,0.00,744.00,6,834.00,0.00,516.47,0.00,0.00,0.00,0,,,100,100,0,2,0,0,0,2,0,,,,null,0.0,0.0,0.0,0.0,0.0,0.0,0
55.954266,-4.401836,83.40,0.00,0.00,51.63,83.40,83.40,0.00,51.65,406,2022-09-19 10:25:53.890,2022-09-19 11:25:53.890,18,0,0,0.000,55.954469,-4.402580,0.00,0.00,0.00,2.90,-2.50,82.60,0,1,0,0,0,0,0,0,2731.50,11,P-GPS,1,0,0,0,0,0,0,1663583153890,0,0,0,0,0,0,27,,,,,,,0,0,0,-29.00,-25.00,826.00,-900.00,0.00,744.00,6,834.00,0.00,516.30,0.00,0.00,0.00,0,,,100,100,0,2,0,0,0,2,0,,,,,0.0,0.0,0.0,0.0,0.0,0.0,0
55.954266,-4.401836,83.40,0.00,0.00,51.63,83.40,83.40,0.00,51.65,499,2022-09-19 10:25:53.984,2022-09-19 11:25:53.983,18,0,0,0.000,55.954469,-4.402580,0.00,0.00,0.00,3.00,-2.50,82.60,0,1,0,0,0,0,0,0,2731.50,11,P-GPS,1,0,0,0,0,0,0,1663583153983,0,0,0,0,0,0,27,,,,,,,0,0,0,-30.00,-25.00,826.00,-899.00,0.00,744.00,6,834.00,0.00,516.29,0.00,0.00,0.00,0,,,100,100,0,2,0,0,0,2,0,,,,,0.0,0.0,0.0,0.0,0.0,0.0,0
55.954266,-4.401836,83.40,0.00,0.00,51.62,83.40,83.40,0.00,51.65,614,2022-09-19 10:25:54.098,2022-09-19 11:25:54.098,18,0,0,0.000,55.954469,-4.402580,0.00,0.00,0.00,3.10,-2.30,82.60,0,1,0,0,0,0,0,0,2731.50,11,P-GPS,1,0,0,0,0,0,0,1663583154098,0,0,0,0,0,0,27,,,,,,,0,0,0,-31.00,-23.00,826.00,-899.00,0.00,744.00,6,834.00,0.00,516.24,0.00,0.00,0.00,0,,,100,100,0,2,0,0,0,2,0,,,,,0.0,0.0,0.0,0.0,0.0,0.0,0
55.954266,-4.401836,83.40,0.00,0.00,51.62,83.40,83.40,0.00,51.65,700,2022-09-19 10:25:54.184,2022-09-19 11:25:54.184,18,0,0,0.000,55.954469,-4.402580,0.00,0.00,0.00,3.30,-2.10,82.60,0,1,0,0,0,0,0,0,2731.50,11,P-GPS,1,0,0,0,0,0,0,1663583154184,0,0,0,0,0,0,27,,,,,,,0,0,0,-33.00,-21.00,826.00,-899.00,0.00,744.00,6,834.00,0.00,516.23,0.00,0.00,0.00,0,,,100,100,0,2,0,0,0,2,0,,,,,0.0,0.0,0.0,0.0,0.0,0.0,0
55.954266,-4.401836,83.40,0.00,0.00,51.63,83.40,83.40,0.00,51.65,801,2022-09-19 10:25:54.285,2022-09-19 11:25:54.285,18,0,0,0.000,55.954469,-4.402580,0.00,0.00,0.00,3.40,-2.30,82.60,0,1,0,0,0,0,0,0,2731.50,11,P-GPS,1,0,0,0,0,0,0,1663583154285,0,0,0,0,0,0,27,,,,,,,0,0,0,-34.00,-23.00,826.00,-900.00,0.00,744.00,6,834.00,0.00,516.26,0.00,0.00,0.00,0,,,100,100,0,2,0,0,0,2,0,,,,,0.0,0.0,0.0,0.0,0.0,0.0,0
55.954266,-4.401836,83.40,0.00,0.00,51.63,83.40,83.40,0.00,51.65,900,2022-09-19 10:25:54.385,2022-09-19 11:25:54.384,18,0,0,0.000,55.954469,-4.402580,0.00,0.00,0.00,3.30,-2.40,82.60,0,1,0,0,0,0,0,0,2731.50,11,P-GPS,1,0,0,0,0,0,0,1663583154384,0,0,0,0,0,0,27,,,,,,,0,0,0,-33.00,-24.00,826.00,-900.00,0.00,744.00,6,834.00,0.00,516.25,0.00,0.00,0.00,0,,,100,100,0,2,0,0,0,2,0,,,,,0.0,0.0,0.0,0.0,0.0,0.0,0
55.954266,-4.401836,83.40,0.00,0.00,51.61,83.40,83.40,0.00,51.65,1028,2022-09-19 10:25:54.513,2022-09-19 11:25:54.512,18,0,0,15.837,55.954469,-4.402580,0.00,0.00,0.00,3.30,-2.40,82.60,0,1,0,90,100,-7286,2993,15837,2980.50,11,P-GPS,1,0,0,0,0,0,0,1663583154512,0,0,0,0,0,0,27,,,,,,,0,0,0,-33.00,-24.00,826.00,-900.00,0.00,744.00,6,834.00,0.00,516.11,0.00,0.00,0.00,0,,,100,100,0,2,0,0,0,2,0,,,,,0.0,0.0,0.0,0.0,0.0,0.0,0
55.954266,-4.401836,83.40,0.00,0.00,51.61,83.40,83.40,0.00,51.65,1145,2022-09-19 10:25:54.629,2022-09-19 11:25:54.629,18,0,0,15.837,55.954469,-4.402580,0.00,0.00,0.00,3.20,-2.40,82.60,0,1,0,90,100,-7286,2993,15837,2980.50,11,P-GPS,1,0,0,0,0,0,0,1663583154629,0,0,0,0,0,0,27,,,,,,,0,0,0,-32.00,-24.00,826.00,-900.00,0.00,744.00,6,834.00,0.00,516.09,0.00,0.00,0.00,0,,,100,100,0,2,0,0,0,2,0,,,,,0.0,0.0,0.0,0.0,0.0,0.0,0
55.954266,-4.401836,83.40,0.00,0.00,51.60,83.40,83.40,0.00,51.65,1303,2022-09-19 10:25:54.788,2022-09-19 11:25:54.787,18,0,0,15.837,55.954469,-4.402580,0.00,0.00,0.00,3.20,-2.20,82.60,0,1,0,90,100,-7286,2993,15837,2980.50,11,P-GPS,1,0,0,0,0,0,0,1663583154787,0,0,0,0,0,0,27,,,,,,,0,0,0,-32.00,-22.00,826.00,-899.00,0.00,744.00,6,834.00,0.00,516.01,0.00,0.00,0.00,0,,,100,100,0,2,0,0,0,2,0,,,,,0.0,0.0,0.0,0.0,0.0,0.0,0
55.954266,-4.401836,83.40,0.00,0.00,51.60,83.40,83.40,0.00,51.65,1412,2022-09-19 10:25:54.897,2022-09-19 11:25:54.896,18,0,0,15.837,55.954469,-4.402580,0.00,0.00,0.00,3.10,-2.20,82.60,0,1,0,90,100,-7286,2993,15837,2980.50,11,P-GPS,1,0,0,0,0,0,0,1663583154896,0,0,0,0,0,0,27,,,,,,,0,0,0,-31.00,-22.00,826.00,-900.00,0.00,744.00,6,834.00,0.00,515.96,0.00,0.00,0.00,0,,,100,100,0,2,0,0,0,2,0,,,,,0.0,0.0,0.0,0.0,0.0,0.0,0
55.954266,-4.401836,83.40,0.00,0.00,51.59,83.40,83.40,0.00,51.65,1505,2022-09-19 10:25:54.991,2022-09-19 11:25:54.989,18,0,0,15.837,55.954469,-4.402580,0.00,0.00,0.00,3.10,-2.20,82.60,0,1,0,90,100,-7286,2993,15837,2980.50,11,P-GPS,1,0,0,0,0,0,0,1663583154989,0,0,0,0,0,0,27,,,,,,,0,0,0,-31.00,-22.00,826.00,-900.00,0.00,744.00,6,834.00,0.00,515.94,0.00,0.00,0.00,0,,,100,100,0,2,0,0,0,2,0,,,,,0.0,0.0,0.0,0.0,0.0,0.0,0
55.954267,-4.401836,83.40,0.00,0.00,51.59,83.40,83.40,0.00,51.65,1618,2022-09-19 10:25:55.103,2022-09-19 11:25:55.102,18,0,0,15.837,55.954469,-4.402580,0.00,0.00,0.00,3.00,-2.20,82.70,0,1,0,90,100,-7286,2993,15837,2980.50,11,P-GPS,1,0,0,0,0,0,0,1663583155102,0,0,0,0,0,0,27,,,,,,,0,0,0,-30.00,-22.00,827.00,-900.00,0.00,744.00,6,834.00,0.00,515.92,0.00,0.00,0.00,0,,,100,100,0,2,0,0,0,2,0,,,,,0.0,0.0,0.0,0.0,0.0,0.0,0
55.954267,-4.401836,83.40,0.00,0.00,51.58,83.40,83.40,0.00,51.65,1815,2022-09-19 10:25:55.299,2022-09-19 11:25:55.299,18,0,0,15.837,55.954469,-4.402580,0.00,0.00,0.00,3.10,-2.00,82.60,0,1,0,90,100,-7286,2993,15837,2980.50,11,P-GPS,1,0,0,0,0,0,0,1663583155299,0,0,0,0,0,0,27,,,,,,,0,0,0,-31.00,-20.00,826.00,-899.00,0.00,744.00,6,834.00,0.00,515.81,0.00,0.00,0.00,0,,,100,100,0,2,0,0,0,2,0,,,,,0.0,0.0,0.0,0.0,0.0,0.0,0
55.954267,-4.401836,83.40,0.00,0.00,51.58,83.40,83.40,0.00,51.65,1915,2022-09-19 10:25:55.400,2022-09-19 11:25:55.399,18,0,0,15.837,55.954469,-4.402580,0.00,0.00,0.00,3.10,-2.10,82.60,0,1,0,90,100,-7286,2993,15837,2980.50,11,P-GPS,1,0,0,0,0,0,0,1663583155399,0,0,0,0,0,0,27,,,,,,,0,0,0,-31.00,-21.00,826.00,-900.00,0.00,744.00,6,834.00,0.00,515.80,0.00,0.00,0.00,0,,,100,100,0,2,0,0,0,2,0,,,,,0.0,0.0,0.0,0.0,0.0,0.0,0
55.954267,-4.401837,83.40,0.00,0.00,51.58,83.40,83.40,0.00,51.65,2011,2022-09-19 10:25:55.496,2022-09-19 11:25:55.495,18,0,0,15.850,55.954469,-4.402580,0.00,0.00,0.00,3.10,-2.20,82.60,0,1,0,90,100,-7222,2991,15850,2980.50,11,P-GPS,1,0,0,0,0,0,0,1663583155495,0,0,0,0,0,0,27,,,,,,,0,0,0,-31.00,-22.00,826.00,-900.00,0.00,744.00,6,834.00,0.00,515.79,0.00,0.00,0.00,0,,,100,100,0,2,0,0,0,2,0,,,,,0.0,0.0,0.0,0.0,0.0,0.0,0
55.954267,-4.401837,83.40,0.00,0.00,51.58,83.40,83.40,0.00,51.65,2102,2022-09-19 10:25:55.586,2022-09-19 11:25:55.586,18,0,0,15.850,55.954469,-4.402580,0.00,0.00,0.00,3.20,-2.20,82.60,0,1,0,90,100,-7222,2991,15850,2980.50,11,P-GPS,1,0,0,0,0,0,0,1663583155586,0,0,0,0,0,0,27,,,,,,,0,0,0,-32.00,-22.00,826.00,-900.00,0.00,744.00,6,834.00,0.00,515.78,0.00,0.00,0.00,0,,,100,100,0,2,0,0,0,2,0,,,,,0.0,0.0,0.0,0.0,0.0,0.0,0
55.954267,-4.401837,83.40,0.00,0.00,51.58,83.40,83.40,0.00,51.65,2213,2022-09-19 10:25:55.698,2022-09-19 11:25:55.697,18,0,0,15.850,55.954469,-4.402580,0.00,0.00,0.00,3.20,-2.10,82.60,0,1,0,90,100,-7222,2991,15850,2980.50,11,P-GPS,1,0,0,0,0,0,0,1663583155697,0,0,0,0,0,0,27,,,,,,,0,0,0,-32.00,-21.00,826.00,-900.00,0.00,744.00,6,834.00,0.00,515.76,0.00,0.00,0.00,0,,,100,100,0,2,0,0,0,2,0,,,,,0.0,0.0,0.0,0.0,0.0,0.0,0
55.954267,-4.401837,83.40,0.00,0.00,51.58,83.40,83.40,0.00,51.65,2305,2022-09-19 10:25:55.790,2022-09-19 11:25:55.789,18,0,0,15.850,55.954469,-4.402580,0.00,0.00,0.00,3.20,-2.10,82.60,0,1,0,90,100,-7222,2991,15850,2980.50,11,P-GPS,1,0,0,0,0,0,0,1663583155789,0,0,0,0,0,0,27,,,,,,,0,0,0,-32.00,-21.00,826.00,-899.00,0.00,744.00,6,834.00,0.00,515.76,0.00,0.00,0.00,0,,,100,100,0,2,0,0,0,2,0,,,,,0.0,0.0,0.0,0.0,0.0,0.0,0
55.954267,-4.401837,83.40,0.00,0.00,51.57,83.40,83.40,0.00,51.65,2403,2022-09-19 10:25:55.887,2022-09-19 11:25:55.887,18,0,0,15.850,55.954469,-4.402580,0.00,0.00,0.00,3.20,-2.20,82.50,0,1,0,90,100,-7222,2991,15850,2980.50,11,P-GPS,1,0,0,0,0,0,0,1663583155887,0,0,0,0,0,0,27,,,,,,,0,0,0,-32.00,-22.00,825.00,-900.00,0.00,744.00,6,834.00,0.00,515.71,0.00,0.00,0.00,0,,,100,100,0,2,0,0,0,2,0,,,,,0.0,0.0,0.0,0.0,0.0,0.0,0
55.954267,-4.401837,83.40,0.00,0.00,51.57,83.40,83.40,0.00,51.65,2504,2022-09-19 10:25:55.989,2022-09-19 11:25:55.988,18,0,0,15.850,55.954469,-4.402580,0.00,0.00,0.00,3.30,-2.30,82.50,0,1,0,90,100,-7222,2991,15850,2980.50,11,P-GPS,1,0,0,0,0,0,0,1663583155988,0,0,0,0,0,0,27,,,,,,,0,0,0,-33.00,-23.00,825.00,-899.00,0.00,744.00,6,834.00,0.00,515.71,0.00,0.00,0.00,0,,,100,100,0,2,0,0,0,2,0,,,,,0.0,0.0,0.0,0.0,0.0,0.0,0
55.954266,-4.401837,83.40,0.00,0.00,51.58,83.40,83.40,0.00,51.65,2608,2022-09-19 10:25:56.092,2022-09-19 11:25:56.092,18,0,0,15.850,55.954469,-4.402580,0.00,0.00,0.00,3.30,-2.30,82.50,0,1,0,90,100,-7222,2991,15850,2980.50,11,P-GPS,1,0,0,0,0,0,0,1663583156092,0,0,0,0,0,0,27,,,,,,,0,0,0,-33.00,-23.00,825.00,-899.00,0.00,744.00,6,834.00,0.00,515.82,0.00,0.00,0.00,0,,,100,100,0,2,0,0,0,2,0,,,,,0.0,0.0,0.0,0.0,0.0,0.0,0
55.954266,-4.401837,83.40,0.00,0.00,51.58,83.40,83.40,0.00,51.65,2704,2022-09-19 10:25:56.188,2022-09-19 11:25:56.188,18,0,0,15.850,55.954469,-4.402580,0.00,0.00,0.00,3.30,-2.30,82.50,0,1,0,90,100,-7222,2991,15850,2980.50,11,P-GPS,1,0,0,0,0,0,0,1663583156188,0,0,0,0,0,0,27,,,,,,,0,0,0,-33.00,-23.00,825.00,-899.00,0.00,744.00,6,834.00,0.00,515.83,0.00,0.00,0.00,0,,,100,100,0,2,0,0,0,2,0,,,,,0.0,0.0,0.0,0.0,0.0,0.0,0
55.954266,-4.401837,83.30,0.00,0.00,51.57,83.40,83.40,0.00,51.65,2805,2022-09-19 10:25:56.289,2022-09-19 11:25:56.289,18,0,0,15.850,55.954469,-4.402580,0.00,0.00,0.00,3.20,-2.30,82.50,0,1,0,90,100,-7222,2991,15850,2980.50,11,P-GPS,1,0,0,0,0,0,0,1663583156289,0,0,0,0,0,0,27,,,,,,,0,0,0,-32.00,-23.00,825.00,-899.00,0.00,744.00,6,833.00,0.00,515.74,0.00,0.00,0.00,0,,,100,100,0,2,0,0,0,2,0,,,,,0.0,0.0,0.0,0.0,0.0,0.0,0
55.954266,-4.401837,83.30,0.00,0.00,51.57,83.40,83.40,0.00,51.65,2905,2022-09-19 10:25:56.389,2022-09-19 11:25:56.389,18,0,0,15.850,55.954469,-4.402580,0.00,0.00,0.00,3.20,-2.20,82.50,0,1,0,90,100,-7222,2991,15850,2980.50,11,P-GPS,1,0,0,0,0,0,0,1663583156389,0,0,0,0,0,0,27,,,,,,,0,0,0,-32.00,-22.00,825.00,-900.00,0.00,744.00,6,833.00,0.00,515.73,0.00,0.00,0.00,0,,,100,100,0,2,0,0,0,2,0,,,,,0.0,0.0,0.0,0.0,0.0,0.0,0
55.954266,-4.401837,83.30,0.00,0.00,51.57,83.40,83.40,0.00,51.65,3008,2022-09-19 10:25:56.492,2022-09-19 11:25:56.492,18,0,0,15.840,55.954469,-4.402580,0.00,0.00,0.00,3.10,-2.20,82.50,0,1,0,90,100,-7307,2989,15840,2981.50,11,P-GPS,1,0,0,0,0,0,0,1663583156492,0,0,0,0,0,0,27,,,,,,,0,0,0,-31.00,-22.00,825.00,-900.00,0.00,744.00,6,833.00,0.00,515.73,0.00,0.00,0.00,0,,,100,100,0,2,0,0,0,2,0,,,,,0.0,0.0,0.0,0.0,0.0,0.0,0
55.954266,-4.401837,83.30,0.00,0.00,51.57,83.40,83.40,0.00,51.65,3105,2022-09-19 10:25:56.589,2022-09-19 11:25:56.589,18,0,0,15.840,55.954469,-4.402580,0.00,0.00,0.00,3.10,-2.20,82.60,0,1,0,90,100,-7307,2989,15840,2981.50,11,P-GPS,1,0,0,0,0,0,0,1663583156589,0,0,0,0,0,0,27,,,,,,,0,0,0,-31.00,-22.00,826.00,-900.00,0.00,744.00,6,833.00,0.00,515.73,0.00,0.00,0.00,0,,,100,100,0,2,0,0,0,2,0,,,,,0.0,0.0,0.0,0.0,0.0,0.0,0
55.954266,-4.401837,83.30,0.00,0.00,51.58,83.40,83.40,0.00,51.65,3201,2022-09-19 10:25:56.686,2022-09-19 11:25:56.685,18,0,0,15.840,55.954469,-4.402580,0.00,0.00,0.00,3.10,-2.20,82.60,0,1,0,90,100,-7307,2989,15840,2981.50,11,P-GPS,1,0,0,0,0,0,0,1663583156685,0,0,0,0,0,0,27,,,,,,,0,0,0,-31.00,-22.00,826.00,-899.00,0.00,744.00,6,833.00,0.00,515.81,0.00,0.00,0.00,0,,,100,100,0,2,0,0,0,2,0,,,,,0.0,0.0,0.0,0.0,0.0,0.0,0
55.954266,-4.401837,83.30,0.00,0.00,51.58,83.40,83.40,0.00,51.65,3304,2022-09-19 10:25:56.789,2022-09-19 11:25:56.788,18,0,0,15.840,55.954469,-4.402580,0.00,0.00,0.00,3.10,-2.30,82.60,0,1,0,90,100,-7307,2989,15840,2981.50,11,P-GPS,1,0,0,0,0,0,0,1663583156788,0,0,0,0,0,0,27,,,,,,,0,0,0,-31.00,-23.00,826.00,-899.00,0.00,744.00,6,833.00,0.00,515.82,0.00,0.00,0.00,0,,,100,100,0,2,0,0,0,2,0,,,,,0.0,0.0,0.0,0.0,0.0,0.0,0
55.954266,-4.401837,83.30,0.00,0.00,51.57,83.40,83.40,0.00,51.65,3416,2022-09-19 10:25:56.900,2022-09-19 11:25:56.900,18,0,0,15.840,55.954469,-4.402580,0.00,0.00,0.00,3.20,-2.20,82.60,0,1,0,90,100,-7307,2989,15840,2981.50,11,P-GPS,1,0,0,0,0,0,0,1663583156900,0,0,0,0,0,0,27,,,,,,,0,0,0,-32.00,-22.00,826.00,-899.00,0.00,744.00,6,833.00,0.00,515.74,0.00,0.00,0.00,0,,,100,100,0,2,0,0,0,2,0,,,,,0.0,0.0,0.0,0.0,0.0,0.0,0
55.954266,-4.401837,83.30,0.00,0.00,51.57,83.40,83.40,0.00,51.65,3504,2022-09-19 10:25:56.989,2022-09-19 11:25:56.988,18,0,0,15.840,55.954469,-4.402580,0.00,0.00,0.00,3.50,-2.00,82.60,0,1,0,90,100,-7307,2989,15840,2981.50,11,P-GPS,1,0,0,0,0,0,0,1663583156988,0,0,0,0,0,0,27,,,,,,,0,0,0,-35.00,-20.00,826.00,-899.00,0.00,744.00,6,833.00,0.00,515.75,0.00,0.00,0.00,0,,,100,100,0,2,0,0,0,2,0,,,,,0.0,0.0,0.0,0.0,0.0,0.0,0
55.954266,-4.401837,83.30,0.00,0.00,51.58,83.40,83.40,0.00,51.65,3605,2022-09-19 10:25:57.089,2022-09-19 11:25:57.089,18,0,0,15.840,55.954469,-4.402580,0.00,0.00,0.00,3.60,-1.90,82.70,0,1,0,90,100,-7307,2989,15840,2981.50,11,P-GPS,1,0,0,0,0,0,0,1663583157089,0,0,0,0,0,0,27,,,,,,,0,0,0,-36.00,-19.00,827.00,-899.00,0.00,744.00,6,833.00,0.00,515.76,0.00,0.00,0.00,0,,,100,100,0,2,0,0,0,2,0,,,,,0.0,0.0,0.0,0.0,0.0,0.0,0
55.954266,-4.401837,83.30,0.00,0.00,51.58,83.40,83.40,0.00,51.65,3703,2022-09-19 10:25:57.187,2022-09-19 11:25:57.187,18,0,0,15.840,55.954469,-4.402580,0.00,0.00,0.00,3.80,-1.80,82.70,0,1,0,90,100,-7307,2989,15840,2981.50,11,P-GPS,1,0,0,0,0,0,0,1663583157187,0,0,0,0,0,0,27,,,,,,,0,0,0,-38.00,-18.00,827.00,-899.00,0.00,744.00,6,833.00,0.00,515.78,0.00,0.00,0.00,0,,,100,100,0,2,0,0,0,2,0,,,,,0.0,0.0,0.0,0.0,0.0,0.0,0
55.954266,-4.401837,83.30,0.00,0.00,51.58,83.40,83.40,0.00,51.65,3810,2022-09-19 10:25:57.294,2022-09-19 11:25:57.294,18,0,0,15.840,55.954469,-4.402580,0.00,0.00,0.00,4.00,-1.60,82.60,0,1,0,90,100,-7307,2989,15840,2981.50,11,P-GPS,1,0,0,0,0,0,0,1663583157294,0,0,0,0,0,0,27,,,,,,,0,0,0,-40.00,-16.00,826.00,-899.00,0.00,744.00,6,833.00,0.00,515.80,0.00,0.00,0.00,0,,,100,100,0,2,0,0,0,2,0,,,,,0.0,0.0,0.0,0.0,0.0,0.0,0
55.954266,-4.401837,83.30,0.00,0.00,51.58,83.40,83.40,0.00,51.65,3902,2022-09-19 10:25:57.387,2022-09-19 11:25:57.386,18,0,0,15.840,55.954469,-4.402580,0.00,0.00,0.00,4.20,-1.50,82.60,0,1,0,90,100,-7307,2989,15840,2981.50,11,P-GPS,1,0,0,0,0,0,0,1663583157386,0,0,0,0,0,0,27,,,,,,,0,0,0,-42.00,-15.00,826.00,-899.00,0.00,744.00,6,833.00,0.00,515.82,0.00,0.00,0.00,0,,,100,100,0,2,0,0,0,2,0,,,,,0.0,0.0,0.0,0.0,0.0,0.0,0
55.954266,-4.401837,83.30,0.00,0.00,51.58,83.40,83.40,0.00,51.65,4001,2022-09-19 10:25:57.485,2022-09-19 11:25:57.485,18,0,0,15.843,55.954469,-4.402580,0.00,0.00,0.00,4.40,-1.60,82.60,0,1,0,90,100,-7292,2987,15843,2981.50,11,P-GPS,1,0,0,0,0,0,0,1663583157485,0,0,0,0,0,0,27,,,,,,,0,0,0,-44.00,-16.00,826.00,-899.00,0.00,744.00,6,833.00,0.00,515.81,0.00,0.00,0.00,0,,,100,100,0,2,0,0,0,2,0,,,,,0.0,0.0,0.0,0.0,0.0,0.0,0
55.954266,-4.401837,83.30,0.00,0.00,51.58,83.40,83.40,0.00,51.65,4116,2022-09-19 10:25:57.601,2022-09-19 11:25:57.600,18,0,0,15.843,55.954469,-4.402580,0.00,0.00,0.00,4.30,-1.50,82.70,0,1,0,90,100,-7292,2987,15843,2981.50,11,P-GPS,1,0,0,0,0,0,0,1663583157600,0,0,0,0,0,0,27,,,,,,,0,0,0,-43.00,-15.00,827.00,-899.00,0.00,744.00,6,833.00,0.00,515.83,0.00,0.00,0.00,0,,,100,100,0,2,0,0,0,2,0,,,,,0.0,0.0,0.0,0.0,0.0,0.0,0
55.954267,-4.401837,83.30,0.00,0.00,51.58,83.40,83.40,0.00,51.65,4213,2022-09-19 10:25:57.697,2022-09-19 11:25:57.697,18,0,0,15.843,55.954469,-4.402580,0.00,0.00,0.00,4.30,-1.70,82.70,0,1,0,90,100,-7292,2987,15843,2981.50,11,P-GPS,1,0,0,0,0,0,0,1663583157697,0,0,0,0,0,0,27,,,,,,,0,0,0,-43.00,-17.00,827.00,-899.00,0.00,744.00,6,833.00,0.00,515.81,0.00,0.00,0.00,0,,,100,100,0,2,0,0,0,2,0,,,,,0.0,0.0,0.0,0.0,0.0,0.0,0
55.954267,-4.401837,83.30,0.00,0.00,51.58,83.40,83.40,0.00,51.65,4303,2022-09-19 10:25:57.788,2022-09-19 11:25:57.787,18,0,0,15.843,55.954469,-4.402580,0.00,0.00,0.00,4.20,-1.60,82.70,0,1,0,90,100,-7292,2987,15843,2981.50,11,P-GPS,1,0,0,0,0,0,0,1663583157787,0,0,0,0,0,0,27,,,,,,,0,0,0,-42.00,-16.00,827.00,-899.00,0.00,744.00,6,833.00,0.00,515.82,0.00,0.00,0.00,0,,,100,100,0,2,0,0,0,2,0,,,,,0.0,0.0,0.0,0.0,0.0,0.0,0
55.954266,-4.401837,83.30,0.00,0.00,51.59,83.40,83.40,0.00,51.65,4399,2022-09-19 10:25:57.884,2022-09-19 11:25:57.883,18,0,0,15.843,55.954469,-4.402580,0.00,0.00,0.00,4.20,-1.70,82.70,0,1,0,90,100,-7292,2987,15843,2981.50,11,P-GPS,1,0,0,0,0,0,0,1663583157883,0,0,0,0,0,0,27,,,,,,,0,0,0,-42.00,-17.00,827.00,-899.00,0.00,744.00,6,833.00,0.00,515.86,0.00,0.00,0.00,0,,,100,100,0,2,0,0,0,2,0,,,,,0.0,0.0,0.0,0.0,0.0,0.0,0
55.954266,-4.401837,83.30,0.00,0.00,51.59,83.40,83.40,0.00,51.65,4501,2022-09-19 10:25:57.985,2022-09-19 11:25:57.985,18,0,0,15.843,55.954469,-4.402580,0.00,0.00,0.00,4.30,-1.60,82.70,0,1,0,90,100,-7292,2987,15843,2981.50,11,P-GPS,1,0,0,0,0,0,0,1663583157985,3974,3957,3958,3955,0,0,27,,,,,,,0,0,0,-43.00,-16.00,827.00,-899.00,0.00,744.00,6,833.00,0.00,515.88,0.00,0.00,0.00,0,,,100,100,0,2,0,0,0,2,0,,,,,0.0,0.0,0.0,0.0,0.0,0.0,0
55.954267,-4.401836,83.30,0.00,0.00,51.59,83.40,83.40,0.00,51.65,4604,2022-09-19 10:25:58.088,2022-09-19 11:25:58.088,18,0,0,15.843,55.954469,-4.402580,0.00,0.00,0.00,4.40,-1.60,82.70,0,1,0,90,100,-7292,2987,15843,2981.50,11,P-GPS,1,0,0,0,0,0,0,1663583158088,3974,3957,3958,3955,0,0,27,,,,,,,0,0,0,-44.00,-16.00,827.00,-899.00,0.00,744.00,6,833.00,0.00,515.85,0.00,0.00,0.00,0,,,100,100,0,2,0,0,0,2,2,,,,,0.0,0.0,0.0,0.0,0.0,0.0,0
55.954267,-4.401836,83.30,0.00,0.00,51.59,83.40,83.40,0.00,51.65,4704,2022-09-19 10:25:58.188,2022-09-19 11:25:58.188,18,0,0,15.843,55.954469,-4.402580,0.00,0.00,0.00,4.60,-1.40,82.70,0,1,0,90,100,-7292,2987,15843,2981.50,11,P-GPS,1,0,0,0,0,0,0,1663583158188,3974,3957,3958,3955,0,0,27,,,,,,,0,0,0,-46.00,-14.00,827.00,-899.00,0.00,744.00,6,833.00,0.00,515.87,0.00,0.00,0.00,0,,,100,100,0,2,0,0,0,2,2,,,,,0.0,0.0,0.0,0.0,0.0,0.0,0
55.954267,-4.401836,83.30,0.00,0.00,51.59,83.40,83.40,0.00,51.65,4814,2022-09-19 10:25:58.298,2022-09-19 11:25:58.298,18,0,0,15.843,55.954469,-4.402580,0.00,0.00,0.00,4.70,-1.40,82.70,0,1,0,90,100,-7292,2987,15843,2981.50,11,P-GPS,1,0,0,0,0,0,0,1663583158298,3974,3957,3958,3955,0,0,27,,,,,,,0,0,0,-47.00,-14.00,827.00,-899.00,0.00,744.00,6,833.00,0.00,515.86,0.00,0.00,0.00,0,,,100,100,0,2,0,0,0,2,2,,,,,0.0,0.0,0.0,0.0,0.0,0.0,0
55.954267,-4.401836,83.40,0.00,0.00,51.59,83.40,83.40,0.00,51.65,4900,2022-09-19 10:25:58.385,2022-09-19 11:25:58.385,18,0,0,15.843,55.954469,-4.402580,0.00,0.00,0.00,4.70,-1.60,82.60,0,1,0,90,100,-7292,2987,15843,2981.50,11,P-GPS,1,0,0,0,0,0,0,1663583158384,3974,3957,3958,3955,0,0,27,,,,,,,0,0,0,-47.00,-16.00,826.00,-899.00,0.00,744.00,6,834.00,0.00,515.88,0.00,0.00,0.00,0,,,100,100,0,2,0,0,0,2,2,,,,,0.0,0.0,0.0,0.0,0.0,0.0,0
55.954267,-4.401836,83.40,0.00,0.00,51.59,83.40,83.40,0.00,51.65,5001,2022-09-19 10:25:58.485,2022-09-19 11:25:58.485,18,0,0,15.844,55.954469,-4.402580,0.00,0.00,0.00,4.70,-1.70,82.60,0,1,0,90,100,-7223,2985,15844,2981.50,11,P-GPS,1,0,0,0,0,0,0,1663583158485,3974,3957,3958,3955,0,0,27,,,,,,,0,0,0,-47.00,-17.00,826.00,-899.00,0.00,744.00,6,834.00,0.00,515.87,0.00,0.00,0.00,0,,,100,100,0,2,0,0,0,2,2,,,,,0.0,0.0,0.0,0.0,0.0,0.0,0
55.954267,-4.401836,83.40,0.00,0.00,51.59,83.40,83.40,0.00,51.65,5114,2022-09-19 10:25:58.599,2022-09-19 11:25:58.598,18,0,0,15.844,55.954469,-4.402580,0.00,0.00,0.00,4.70,-1.80,82.60,0,1,0,90,100,-7223,2985,15844,2981.50,11,P-GPS,1,0,0,0,0,0,0,1663583158598,3974,3957,3958,3955,0,0,27,,,,,,,0,0,0,-47.00,-18.00,826.00,-899.00,0.00,744.00,6,834.00,0.00,515.89,0.00,0.00,0.00,0,,,100,100,0,2,0,0,0,2,2,,,,,0.0,0.0,0.0,0.0,0.0,0.0,0
55.954267,-4.401836,83.40,0.00,0.00,51.59,83.40,83.40,0.00,51.65,5202,2022-09-19 10:25:58.687,2022-09-19 11:25:58.686,18,0,0,15.844,55.954469,-4.402580,0.00,0.00,0.00,4.60,-1.90,82.60,0,1,0,90,100,-7223,2985,15844,2981.50,11,P-GPS,1,0,0,0,0,0,0,1663583158686,3974,3957,3958,3955,0,0,27,,,,,,,0,0,0,-46.00,-19.00,826.00,-899.00,0.00,744.00,6,834.00,0.00,515.87,0.00,0.00,0.00,0,,,100,100,0,2,0,0,0,2,2,,,,,0.0,0.0,0.0,0.0,0.0,0.0,0
55.954267,-4.401836,83.40,0.00,0.00,51.59,83.40,83.40,0.00,51.65,5309,2022-09-19 10:25:58.794,2022-09-19 11:25:58.793,18,0,0,15.844,55.954469,-4.402580,0.00,0.00,0.00,4.60,-1.90,82.60,0,1,0,90,100,-7223,2985,15844,2981.50,11,P-GPS,1,0,0,0,0,0,0,1663583158793,3974,3957,3958,3955,0,0,27,,,,,,,0,0,0,-46.00,-19.00,826.00,-899.00,0.00,744.00,6,834.00,0.00,515.88,0.00,0.00,0.00,0,,,100,100,0,2,0,0,0,2,2,,,,,0.0,0.0,0.0,0.0,0.0,0.0,0
55.954267,-4.401836,83.40,0.00,0.00,51.60,83.40,83.40,0.00,51.65,5412,2022-09-19 10:25:58.896,2022-09-19 11:25:58.896,18,0,0,15.844,55.954469,-4.402580,0.00,0.00,0.00,4.70,-1.80,82.60,0,1,0,90,100,-7223,2985,15844,2981.50,11,P-GPS,1,0,0,0,0,0,0,1663583158896,3974,3957,3958,3955,0,0,27,,,,,,,0,0,0,-47.00,-18.00,826.00,-899.00,0.00,744.00,6,834.00,0.00,516.01,0.00,0.00,0.00,0,,,100,100,0,2,0,0,0,2,2,,,,,0.0,0.0,0.0,0.0,0.0,0.0,0
55.954267,-4.401836,83.40,0.00,0.00,51.60,83.40,83.40,0.00,51.65,5515,2022-09-19 10:25:59.000,2022-09-19 11:25:58.999,18,0,0,15.844,55.954469,-4.402580,0.00,0.00,0.00,4.80,-1.70,82.70,0,1,0,90,100,-7223,2985,15844,2981.50,11,P-GPS,1,0,0,0,0,0,0,1663583158999,3974,3957,3958,3955,0,0,27,,,,,,,0,0,0,-48.00,-17.00,827.00,-899.00,0.00,744.00,6,834.00,0.00,516.03,0.00,0.00,0.00,0,,,100,100,0,2,0,0,0,2,2,,,,,0.0,0.0,0.0,0.0,0.0,0.0,0
55.954267,-4.401836,83.40,0.00,0.00,51.59,83.40,83.40,0.00,51.65,5612,2022-09-19 10:25:59.097,2022-09-19 11:25:59.096,18,0,0,15.844,55.954469,-4.402580,0.00,0.00,0.00,4.80,-1.70,82.70,0,1,0,90,100,-7223,2985,15844,2981.50,11,P-GPS,1,0,0,0,0,0,0,1663583159096,3974,3957,3958,3955,0,0,27,,,,,,,0,0,0,-48.00,-17.00,827.00,-899.00,0.00,744.00,6,834.00,0.00,515.91,0.00,0.00,0.00,0,,,100,100,0,2,0,0,0,2,2,,,,,0.0,0.0,0.0,0.0,0.0,0.0,0
55.954267,-4.401836,83.40,0.00,0.00,51.59,83.40,83.40,0.00,51.65,5712,2022-09-19 10:25:59.196,2022-09-19 11:25:59.196,18,0,0,15.844,55.954469,-4.402580,0.00,0.00,0.00,4.80,-1.80,82.60,0,1,0,90,100,-7223,2985,15844,2981.50,11,P-GPS,1,0,0,0,0,0,0,1663583159196,3974,3957,3958,3955,0,0,27,,,,,,,0,0,0,-48.00,-18.00,826.00,-899.00,0.00,744.00,6,834.00,0.00,515.91,0.00,0.00,0.00,0,,,100,100,0,2,0,0,0,2,2,,,,,0.0,0.0,0.0,0.0,0.0,0.0,0
55.954267,-4.401836,83.40,0.00,0.00,51.60,83.40,83.40,0.00,51.65,5811,2022-09-19 10:25:59.295,2022-09-19 11:25:59.295,18,0,0,15.844,55.954469,-4.402580,0.00,0.00,0.00,4.60,-1.80,82.60,0,1,0,90,100,-7223,2985,15844,2981.50,11,P-GPS,1,0,0,0,0,0,0,1663583159295,3974,3957,3958,3955,0,0,27,,,,,,,0,0,0,-46.00,-18.00,826.00,-900.00,0.00,744.00,6,834.00,0.00,515.98,0.00,0.00,0.00,0,,,100,100,0,2,0,0,0,2,2,,,,,0.0,0.0,0.0,0.0,0.0,0.0,0
55.954267,-4.401836,83.30,0.00,0.00,51.60,83.40,83.40,0.00,51.65,5910,2022-09-19 10:25:59.394,2022-09-19 11:25:59.394,18,0,0,15.844,55.954469,-4.402580,0.00,0.00,0.00,4.60,-1.80,82.70,0,1,0,90,100,-7223,2985,15844,2981.50,11,P-GPS,1,0,0,0,0,0,0,1663583159394,3974,3957,3958,3955,0,0,27,,,,,,,0,0,0,-46.00,-18.00,827.00,-899.00,0.00,744.00,6,833.00,0.00,515.99,0.00,0.00,0.00,0,,,100,100,0,2,0,0,0,2,2,,,,,0.0,0.0,0.0,0.0,0.0,0.0,0
55.954267,-4.401836,83.30,0.00,0.00,51.60,83.40,83.40,0.00,51.65,6010,2022-09-19 10:25:59.494,2022-09-19 11:25:59.494,18,0,0,15.859,55.954469,-4.402580,0.00,0.00,0.00,4.50,-1.90,82.70,0,1,0,90,100,-7083,2983,15859,2982.50,11,P-GPS,1,0,0,0,0,0,0,1663583159494,3974,3957,3958,3955,0,0,27,,,,,,,0,0,0,-45.00,-19.00,827.00,-899.00,0.00,744.00,6,833.00,0.00,516.04,0.00,0.00,0.00,0,,,100,100,0,2,0,0,0,2,2,,,,,0.0,0.0,0.0,0.0,0.0,0.0,0
55.954267,-4.401836,83.30,0.00,0.00,51.61,83.40,83.40,0.00,51.65,6105,2022-09-19 10:25:59.590,2022-09-19 11:25:59.589,18,0,0,15.859,55.954469,-4.402580,0.00,0.00,0.00,4.60,-2.00,82.70,0,1,0,90,100,-7083,2983,15859,2982.50,11,P-GPS,1,0,0,0,0,0,0,1663583159589,3974,3957,3958,3955,0,0,27,,,,,,,0,0,0,-46.00,-20.00,827.00,-899.00,0.00,744.00,6,833.00,0.00,516.05,0.00,0.00,0.00,0,,,100,100,0,2,0,0,0,2,2,,,,,0.0,0.0,0.0,0.0,0.0,0.0,0
55.954267,-4.401836,83.40,0.00,0.00,51.60,83.40,83.40,0.00,51.65,6211,2022-09-19 10:25:59.695,2022-09-19 11:25:59.695,18,0,0,15.859,55.954469,-4.402580,0.00,0.00,0.00,4.70,-2.10,82.70,0,1,0,90,100,-7083,2983,15859,2982.50,11,P-GPS,1,0,0,0,0,0,0,1663583159695,3974,3957,3958,3955,0,0,27,,,,,,,0,0,0,-47.00,-21.00,827.00,-899.00,0.00,744.00,6,834.00,0.00,516.03,0.00,0.00,0.00,0,,,100,100,0,2,0,0,0,2,2,,,,,0.0,0.0,0.0,0.0,0.0,0.0,0
55.954267,-4.401836,83.30,0.00,0.00,51.60,83.40,83.40,0.00,51.65,6312,2022-09-19 10:25:59.797,2022-09-19 11:25:59.796,18,0,0,15.859,55.954469,-4.402580,0.00,0.00,0.00,4.60,-2.10,82.80,0,1,0,90,100,-7083,2983,15859,2982.50,11,P-GPS,1,0,0,0,0,0,0,1663583159796,3974,3957,3958,3955,0,0,27,,,,,,,0,0,0,-46.00,-21.00,828.00,-899.00,0.00,744.00,6,833.00,0.00,516.03,0.00,0.00,0.00,0,,,100,100,0,2,0,0,0,2,2,,,,,0.0,0.0,0.0,0.0,0.0,0.0,0
55.954267,-4.401836,83.30,0.00,0.00,51.60,83.40,83.40,0.00,51.65,6402,2022-09-19 10:25:59.886,2022-09-19 11:25:59.886,18,0,0,15.859,55.954469,-4.402580,0.00,0.00,0.00,4.50,-2.00,82.70,0,1,0,90,100,-7083,2983,15859,2982.50,11,P-GPS,1,0,0,0,0,0,0,1663583159886,3974,3957,3958,3955,0,0,27,,,,,,,0,0,0,-45.00,-20.00,827.00,-899.00,0.00,744.00,6,833.00,0.00,516.01,0.00,0.00,0.00,0,,,100,100,0,2,0,0,0,2,2,,,,,0.0,0.0,0.0,0.0,0.0,0.0,0
55.954267,-4.401836,83.30,0.00,0.00,51.60,83.40,83.40,0.00,51.65,6515,2022-09-19 10:25:59.999,2022-09-19 11:25:59.999,18,0,0,15.859,55.954469,-4.402580,0.00,0.00,0.00,4.60,-1.90,82.70,0,1,0,90,100,-7083,2983,15859,2982.50,11,P-GPS,1,0,0,0,0,0,0,1663583159999,3974,3957,3958,3955,0,0,27,,,,,,,0,0,0,-46.00,-19.00,827.00,-899.00,0.00,744.00,6,833.00,0.00,516.01,0.00,0.00,0.00,0,,,100,100,0,2,0,0,0,2,2,,,,,0.0,0.0,0.0,0.0,0.0,0.0,0
55.954267,-4.401836,83.30,0.00,0.00,51.60,83.40,83.40,0.00,51.65,6622,2022-09-19 10:26:00.106,2022-09-19 11:26:00.106,18,0,0,15.859,55.954469,-4.402580,0.00,0.00,0.00,4.60,-1.90,82.60,0,1,0,90,100,-7083,2983,15859,2982.50,11,P-GPS,1,0,0,0,0,0,0,1663583160106,3974,3957,3958,3955,0,0,27,,,,,,,0,0,0,-46.00,-19.00,826.00,-899.00,0.00,744.00,6,833.00,0.00,515.98,0.00,0.00,0.00,0,,,100,100,0,2,0,0,0,2,2,,,,,0.0,0.0,0.0,0.0,0.0,0.0,0
55.954267,-4.401836,83.30,0.00,0.00,51.60,83.40,83.40,0.00,51.65,6700,2022-09-19 10:26:00.184,2022-09-19 11:26:00.184,18,0,0,15.859,55.954469,-4.402580,0.00,0.00,0.00,4.30,-2.00,82.60,0,1,0,90,100,-7083,2983,15859,2982.50,11,P-GPS,1,0,0,0,0,0,0,1663583160184,3974,3957,3958,3955,0,0,27,,,,,,,0,0,0,-43.00,-20.00,826.00,-899.00,0.00,744.00,6,833.00,0.00,515.97,0.00,0.00,0.00,0,,,100,100,0,2,0,0,0,2,2,,,,,0.0,0.0,0.0,0.0,0.0,0.0,0
55.954267,-4.401836,83.30,0.00,0.00,51.59,83.40,83.40,0.00,51.65,6816,2022-09-19 10:26:00.301,2022-09-19 11:26:00.300,18,0,0,15.859,55.954469,-4.402580,0.00,0.00,0.00,4.10,-1.90,82.60,0,1,0,90,100,-7083,2983,15859,2982.50,11,P-GPS,1,0,0,0,0,0,0,1663583160300,3974,3957,3958,3955,0,0,27,,,,,,,0,0,0,-41.00,-19.00,826.00,-900.00,0.00,744.00,6,833.00,0.00,515.89,0.00,0.00,0.00,0,,,100,100,0,2,0,0,0,2,2,,,,,0.0,0.0,0.0,0.0,0.0,0.0,0
55.954267,-4.401836,83.40,0.00,0.00,51.59,83.40,83.40,0.00,51.65,6999,2022-09-19 10:26:00.483,2022-09-19 11:26:00.483,18,0,0,15.874,55.954469,-4.402580,0.00,0.00,0.00,4.60,-2.00,82.70,0,1,0,90,100,-7015,2981,15874,2982.50,11,P-GPS,1,0,0,0,0,0,0,1663583160483,3974,3957,3958,3955,0,0,27,,,,,,,0,0,0,-46.00,-20.00,827.00,-899.00,0.00,744.00,6,834.00,0.00,515.92,0.00,0.00,0.00,0,,,100,100,0,2,0,0,0,2,2,,,,,0.0,0.0,0.0,0.0,0.0,0.0,0
55.954267,-4.401836,83.40,0.00,0.00,51.59,83.40,83.40,0.00,51.65,7100,2022-09-19 10:26:00.584,2022-09-19 11:26:00.584,18,0,0,15.874,55.954469,-4.402580,0.00,0.00,0.00,4.80,-1.90,82.70,0,1,0,90,100,-7015,2981,15874,2982.50,11,P-GPS,1,0,0,0,0,0,0,1663583160584,3974,3957,3958,3955,0,0,27,,,,,,,0,0,0,-48.00,-19.00,827.00,-899.00,0.00,744.00,6,834.00,0.00,515.92,0.00,0.00,0.00,0,,,100,100,0,2,0,0,0,2,2,,,,,0.0,0.0,0.0,0.0,0.0,0.0,0
55.954267,-4.401836,83.40,0.00,0.00,51.58,83.40,83.40,0.00,51.65,7199,2022-09-19 10:26:00.683,2022-09-19 11:26:00.683,18,0,0,15.874,55.954469,-4.402580,0.00,0.00,0.00,4.70,-1.80,82.60,0,1,0,90,100,-7015,2981,15874,2982.50,11,P-GPS,1,0,0,0,0,0,0,1663583160683,3974,3957,3958,3955,0,0,27,,,,,,,0,0,0,-47.00,-18.00,826.00,-899.00,0.00,744.00,6,834.00,0.00,515.80,0.00,0.00,0.00,0,,,100,100,0,2,0,0,0,2,2,,,,,0.0,0.0,0.0,0.0,0.0,0.0,0
55.954267,-4.401836,83.40,0.00,0.00,51.58,83.40,83.40,0.00,51.65,7299,2022-09-19 10:26:00.784,2022-09-19 11:26:00.783,18,0,0,15.874,55.954469,-4.402580,0.00,0.00,0.00,4.60,-1.80,82.70,0,1,0,90,100,-7015,2981,15874,2982.50,11,P-GPS,1,0,0,0,0,0,0,1663583160783,3974,3957,3958,3955,0,0,27,,,,,,,0,0,0,-46.00,-18.00,827.00,-899.00,0.00,744.00,6,834.00,0.00,515.79,0.00,0.00,0.00,0,,,100,100,0,2,0,0,0,2,2,,,,,0.0,0.0,0.0,0.0,0.0,0.0,0
55.954267,-4.401836,83.30,0.00,0.00,51.58,83.40,83.40,0.00,51.65,7415,2022-09-19 10:26:00.900,2022-09-19 11:26:00.899,18,0,0,15.874,55.954469,-4.402580,0.00,0.00,0.00,4.60,-1.80,82.60,0,1,0,90,100,-7015,2981,15874,2982.50,11,P-GPS,1,0,0,0,0,0,0,1663583160899,3974,3957,3958,3955,0,0,27,,,,,,,0,0,0,-46.00,-18.00,826.00,-899.00,0.00,744.00,6,833.00,0.00,515.82,0.00,0.00,0.00,0,,,100,100,0,2,0,0,0,2,2,,,,,0.0,0.0,0.0,0.0,0.0,0.0,0
55.954267,-4.401836,83.40,0.00,0.00,51.58,83.40,83.40,0.00,51.65,7503,2022-09-19 10:26:00.989,2022-09-19 11:26:00.987,18,0,0,15.874,55.954469,-4.402580,0.00,0.00,0.00,4.80,-1.80,82.60,0,1,0,90,100,-7015,2981,15874,2982.50,11,P-GPS,1,0,0,0,0,0,0,1663583160987,3974,3957,3958,3955,0,0,27,,,,,,,0,0,0,-48.00,-18.00,826.00,-899.00,0.00,744.00,6,834.00,0.00,515.82,0.00,0.00,0.00,0,,,100,100,0,2,0,0,0,2,2,,,,,0.0,0.0,0.0,0.0,0.0,0.0,0
55.954267,-4.401836,83.40,0.00,0.00,51.57,83.40,83.40,0.00,51.65,7613,2022-09-19 10:26:01.098,2022-09-19 11:26:01.097,18,0,0,15.874,55.954469,-4.402580,0.00,0.00,0.00,4.80,-1.90,82.60,0,1,0,90,100,-7015,2981,15874,2982.50,11,P-GPS,1,0,0,0,0,0,0,1663583161097,3974,3957,3958,3955,0,0,27,,,,,,,0,0,0,-48.00,-19.00,826.00,-899.00,0.00,744.00,6,834.00,0.00,515.67,0.00,0.00,0.00,0,,,100,100,0,2,0,0,0,2,2,,,,,0.0,0.0,0.0,0.0,0.0,0.0,0
55.954267,-4.401836,83.40,0.00,0.00,51.56,83.40,83.40,0.00,51.65,7702,2022-09-19 10:26:01.186,2022-09-19 11:26:01.186,18,0,0,15.874,55.954469,-4.402580,0.00,0.00,0.00,4.80,-1.90,82.50,0,1,0,90,100,-7015,2981,15874,2982.50,11,P-GPS,1,0,0,0,0,0,0,1663583161186,3974,3957,3958,3955,0,0,27,,,,,,,0,0,0,-48.00,-19.00,825.00,-900.00,0.00,744.00,6,834.00,0.00,515.65,0.00,0.00,0.00,0,,,100,100,0,2,0,0,0,2,2,,,,,0.0,0.0,0.0,0.0,0.0,0.0,0
55.954267,-4.401836,83.40,0.00,0.00,51.57,83.40,83.40,0.00,51.65,7806,2022-09-19 10:26:01.291,2022-09-19 11:26:01.290,18,0,0,15.874,55.954469,-4.402580,0.00,0.00,0.00,4.50,-1.60,82.60,0,1,0,90,100,-7015,2981,15874,2982.50,11,P-GPS,1,0,0,0,0,0,0,1663583161290,3974,3957,3958,3955,0,0,27,,,,,,,0,0,0,-45.00,-16.00,826.00,-899.00,0.00,744.00,6,834.00,0.00,515.75,0.00,0.00,0.00,0,,,100,100,0,2,0,0,0,2,2,,,,,0.0,0.0,0.0,0.0,0.0,0.0,0
55.954267,-4.401836,83.40,0.00,0.00,51.57,83.40,83.40,0.00,51.65,7902,2022-09-19 10:26:01.386,2022-09-19 11:26:01.386,18,0,0,15.874,55.954469,-4.402580,0.00,0.00,0.00,4.40,-1.40,82.60,0,1,0,90,100,-7015,2981,15874,2982.50,11,P-GPS,1,0,0,0,0,0,0,1663583161386,3974,3957,3958,3955,0,0,27,,,,,,,0,0,0,-44.00,-14.00,826.00,-900.00,0.00,744.00,6,834.00,0.00,515.73,0.00,0.00,0.00,0,,,100,100,0,2,0,0,0,2,2,,,,,0.0,0.0,0.0,0.0,0.0,0.0,0
55.954267,-4.401836,83.40,0.00,0.00,51.57,83.40,83.40,0.00,51.65,8014,2022-09-19 10:26:01.498,2022-09-19 11:26:01.498,18,0,0,15.870,55.954469,-4.402580,0.00,0.00,0.00,4.60,-1.50,82.60,0,1,0,90,100,-7064,2979,15870,2982.50,11,P-GPS,1,0,0,0,0,0,0,1663583161498,3974,3957,3958,3955,0,0,27,,,,,,,0,0,0,-46.00,-15.00,826.00,-899.00,0.00,744.00,6,834.00,0.00,515.73,0.00,0.00,0.00,0,,,100,100,0,2,0,0,0,2,2,,,,,0.0,0.0,0.0,0.0,0.0,0.0,0
55.954267,-4.401836,83.40,0.00,0.00,51.57,83.40,83.40,0.00,51.65,8140,2022-09-19 10:26:01.625,2022-09-19 11:26:01.625,18,0,0,15.870,55.954469,-4.402580,0.00,0.00,0.00,4.40,-1.50,82.60,0,1,0,90,100,-7064,2979,15870,2982.50,11,P-GPS,1,0,0,0,0,0,0,1663583161624,3974,3957,3958,3955,0,0,27,,,,,,,0,0,0,-44.00,-15.00,826.00,-900.00,0.00,744.00,6,834.00,0.00,515.71,0.00,0.00,0.00,0,,,100,100,0,2,0,0,0,2,2,,,,,0.0,0.0,0.0,0.0,0.0,0.0,0
55.954267,-4.401836,83.40,0.00,0.00,51.58,83.40,83.40,0.00,51.65,8299,2022-09-19 10:26:01.783,2022-09-19 11:26:01.783,18,0,0,15.870,55.954469,-4.402580,0.00,0.00,0.00,4.40,-1.20,82.60,0,1,0,90,100,-7064,2979,15870,2982.50,11,P-GPS,1,0,0,0,0,0,0,1663583161783,3974,3957,3958,3955,0,0,27,,,,,,,0,0,0,-44.00,-12.00,826.00,-899.00,0.00,744.00,6,834.00,0.00,515.81,0.00,0.00,0.00,0,,,100,100,0,2,0,0,0,2,2,,,,,0.0,0.0,0.0,0.0,0.0,0.0,0
55.954267,-4.401836,83.40,0.00,0.00,51.57,83.40,83.40,0.00,51.65,8424,2022-09-19 10:26:01.909,2022-09-19 11:26:01.909,18,0,0,15.870,55.954469,-4.402580,0.00,0.00,0.00,4.40,-1.00,82.70,0,1,0,90,100,-7064,2979,15870,2982.50,11,P-GPS,1,0,0,0,0,0,0,1663583161908,3974,3957,3958,3955,0,0,27,,,,,,,0,0,0,-44.00,-10.00,827.00,-900.00,0.00,744.00,6,834.00,0.00,515.75,0.00,0.00,0.00,0,,,100,100,0,2,0,0,0,2,2,,,,,0.0,0.0,0.0,0.0,0.0,0.0,0
55.954267,-4.401836,83.40,0.00,0.00,51.58,83.40,83.40,0.00,51.65,8612,2022-09-19 10:26:02.097,2022-09-19 11:26:02.096,18,0,0,15.870,55.954469,-4.402580,0.00,0.00,0.00,4.30,-0.90,82.70,0,1,0,90,100,-7064,2979,15870,2982.50,11,P-GPS,1,0,0,0,0,0,0,1663583162096,3974,3957,3958,3955,0,0,27,,,,,,,0,0,0,-43.00,-9.00,827.00,-900.00,0.00,744.00,6,834.00,0.00,515.79,0.00,0.00,0.00,0,,,100,100,0,2,0,0,0,2,2,,,,,0.0,0.0,0.0,0.0,0.0,0.0,0
55.954267,-4.401836,83.40,0.00,0.00,51.58,83.40,83.40,0.00,51.65,8700,2022-09-19 10:26:02.184,2022-09-19 11:26:02.184,18,0,0,15.870,55.954469,-4.402580,0.00,0.00,0.00,4.40,-1.00,82.70,0,1,0,90,100,-7064,2979,15870,2982.50,11,P-GPS,1,0,0,0,0,0,0,1663583162184,3974,3957,3958,3955,0,0,27,,,,,,,0,0,0,-44.00,-10.00,827.00,-899.00,0.00,744.00,6,834.00,0.00,515.80,0.00,0.00,0.00,0,,,100,100,0,2,0,0,0,2,2,,,,,0.0,0.0,0.0,0.0,0.0,0.0,0
55.954267,-4.401836,83.40,0.00,0.00,51.57,83.40,83.40,0.00,51.65,8800,2022-09-19 10:26:02.284,2022-09-19 11:26:02.284,18,0,0,15.870,55.954469,-4.402580,0.00,0.00,0.00,4.50,-1.10,82.70,0,1,0,90,100,-7064,2979,15870,2982.50,11,P-GPS,1,0,0,0,0,0,0,1663583162284,3974,3957,3958,3955,0,0,27,,,,,,,0,0,0,-45.00,-11.00,827.00,-899.00,0.00,744.00,6,834.00,0.00,515.67,0.00,0.00,0.00,0,,,100,100,0,2,0,0,0,2,2,,,,,0.0,0.0,0.0,0.0,0.0,0.0,0
55.954267,-4.401836,83.40,0.00,0.00,51.57,83.40,83.40,0.00,51.65,8904,2022-09-19 10:26:02.388,2022-09-19 11:26:02.388,18,0,0,15.870,55.954469,-4.402580,0.00,0.00,0.00,4.70,-1.30,82.70,0,1,0,90,100,-7064,2979,15870,2982.50,11,P-GPS,1,0,0,0,0,0,0,1663583162388,3974,3957,3958,3955,0,0,27,,,,,,,0,0,0,-47.00,-13.00,827.00,-899.00,0.00,744.00,6,834.00,0.00,515.68,0.00,0.00,0.00,0,,,100,100,0,2,0,0,0,2,2,,,,,0.0,0.0,0.0,0.0,0.0,0.0,0
55.954267,-4.401836,83.40,0.00,0.00,51.57,83.40,83.40,0.00,51.65,9005,2022-09-19 10:26:02.489,2022-09-19 11:26:02.489,18,0,0,15.892,55.954469,-4.402580,0.00,0.00,0.00,4.80,-1.30,82.60,0,1,0,90,100,-6943,2977,15892,2983.50,11,P-GPS,1,0,0,0,0,0,0,1663583162489,3974,3957,3958,3955,0,0,27,,,,,,,0,0,0,-48.00,-13.00,826.00,-899.00,0.00,744.00,6,834.00,0.00,515.70,0.00,0.00,0.00,0,,,100,100,0,2,0,0,0,2,2,,,,,0.0,0.0,0.0,0.0,0.0,0.0,0
55.954267,-4.401836,83.30,0.00,0.00,51.57,83.40,83.40,0.00,51.65,9099,2022-09-19 10:26:02.584,2022-09-19 11:26:02.583,18,0,0,15.892,55.954469,-4.402580,0.00,0.00,0.00,5.20,-0.90,82.70,0,1,0,90,100,-6943,2977,15892,2983.50,11,P-GPS,1,0,0,0,0,0,0,1663583162583,3974,3957,3958,3955,0,0,27,,,,,,,0,0,0,-52.00,-9.00,827.00,-899.00,0.00,744.00,17,833.00,0.00,515.70,0.00,0.00,0.00,0,,,100,100,0,2,0,0,0,2,2,,,,,0.0,0.0,0.0,0.0,0.0,0.0,0
55.954267,-4.401836,83.40,0.00,0.00,51.57,83.40,83.40,0.00,51.65,9215,2022-09-19 10:26:02.700,2022-09-19 11:26:02.699,18,0,0,15.892,55.954469,-4.402580,0.00,0.00,0.00,5.00,-0.80,82.70,0,1,0,90,100,-6943,2977,15892,2983.50,11,Joystick,1,0,0,0,0,0,0,1663583162699,3974,3957,3958,3955,0,0,27,,,,,,,0,0,0,-50.00,-8.00,827.00,-899.00,0.00,744.00,17,834.00,0.00,515.69,0.00,0.00,0.00,0,,,100,100,0,2,0,0,0,2,2,,,,,0.0,0.0,0.0,0.0,0.0,0.0,0
55.954267,-4.401836,83.40,0.00,0.00,51.57,83.40,83.40,0.00,51.65,9304,2022-09-19 10:26:02.788,2022-09-19 11:26:02.788,18,0,0,15.892,55.954469,-4.402580,0.00,0.00,0.00,4.60,-1.00,82.80,0,1,0,90,100,-6943,2977,15892,2983.50,11,Joystick,1,0,0,0,0,0,0,1663583162788,3974,3957,3958,3955,0,0,27,,,,,,,0,0,0,-46.00,-10.00,828.00,-900.00,0.00,744.00,17,834.00,0.00,515.68,0.00,0.00,0.00,0,,,100,100,0,2,0,0,0,2,2,,,,,0.0,0.0,0.0,0.0,0.0,0.0,0
55.954267,-4.401836,83.40,0.00,0.00,51.56,83.40,83.40,0.00,51.65,9410,2022-09-19 10:26:02.895,2022-09-19 11:26:02.894,18,0,0,15.892,55.954469,-4.402580,0.00,0.00,0.00,4.50,-1.10,82.70,0,1,0,90,100,-6943,2977,15892,2983.50,11,Joystick,1,0,0,0,0,0,0,1663583162894,3974,3957,3958,3955,0,0,27,,,,,,,0,0,0,-45.00,-11.00,827.00,-900.00,0.00,744.00,17,834.00,0.00,515.58,0.00,0.00,0.00,0,,,100,100,0,2,0,0,0,2,2,,,,,0.0,0.0,0.0,0.0,0.0,0.0,0
55.954267,-4.401836,83.40,0.00,0.00,51.56,83.40,83.40,0.00,51.65,9507,2022-09-19 10:26:02.992,2022-09-19 11:26:02.991,18,0,0,15.892,55.954469,-4.402580,0.00,0.00,0.00,4.40,-1.20,82.70,0,1,0,90,100,-6943,2977,15892,2983.50,11,Joystick,1,0,0,0,0,0,0,1663583162991,3974,3957,3958,3955,0,0,27,,,,,,,0,0,0,-44.00,-12.00,827.00,-900.00,0.00,744.00,17,834.00,0.00,515.55,0.00,0.00,0.00,0,,,100,100,0,2,0,0,0,2,2,,,,,0.0,0.0,0.0,0.0,0.0,0.0,0
55.954267,-4.401837,83.40,0.00,0.00,51.55,83.40,83.40,0.00,51.65,9604,2022-09-19 10:26:03.089,2022-09-19 11:26:03.088,18,0,0,15.892,55.954469,-4.402580,0.00,0.00,0.00,4.30,-1.10,82.70,0,1,0,90,100,-6943,2977,15892,2983.50,11,Joystick,1,0,0,0,0,0,0,1663583163088,3974,3957,3958,3955,0,0,27,,,,,,,0,0,0,-43.00,-11.00,827.00,-900.00,0.00,744.00,17,834.00,0.00,515.48,0.00,0.00,0.00,0,,,100,100,0,2,0,0,0,2,2,,,,,0.0,0.0,0.0,0.0,0.0,0.0,0
55.954267,-4.401837,83.40,0.00,0.00,51.55,83.40,83.40,0.00,51.65,9703,2022-09-19 10:26:03.188,2022-09-19 11:26:03.187,18,0,0,15.892,55.954469,-4.402580,0.00,0.00,0.00,4.20,-1.00,82.70,0,1,0,90,100,-6943,2977,15892,2983.50,11,Joystick,1,0,0,0,0,0,0,1663583163187,3974,3957,3958,3955,0,0,27,,,,,,,0,0,0,-42.00,-10.00,827.00,-900.00,0.00,744.00,17,834.00,0.00,515.45,0.00,0.00,0.00,0,,,100,100,0,2,0,0,0,2,2,,,,,0.0,0.0,0.0,0.0,0.0,0.0,0
55.954267,-4.401837,83.40,0.00,0.00,51.53,83.40,83.40,0.00,51.65,9802,2022-09-19 10:26:03.287,2022-09-19 11:26:03.286,18,0,0,15.892,55.954469,-4.402580,0.00,0.00,0.00,4.00,-1.10,82.60,0,1,0,90,100,-6943,2977,15892,2983.50,11,Joystick,1,0,0,0,0,0,0,1663583163286,3974,3957,3958,3955,0,0,27,,,,,,,0,0,0,-40.00,-11.00,826.00,-900.00,0.00,744.00,17,834.00,0.00,515.33,0.00,0.00,0.00,0,,,100,100,0,2,0,0,0,2,2,,,,,0.0,0.0,0.0,0.0,0.0,0.0,0
55.954267,-4.401837,83.40,0.00,0.00,51.53,83.40,83.40,0.00,51.65,9903,2022-09-19 10:26:03.388,2022-09-19 11:26:03.387,18,0,0,15.892,55.954469,-4.402580,0.00,0.00,0.00,3.80,-1.30,82.70,0,1,0,90,100,-6943,2977,15892,2983.50,11,Joystick,1,0,0,0,0,0,0,1663583163387,3974,3957,3958,3955,0,0,27,,,,,,,0,0,0,-38.00,-13.00,827.00,-900.00,0.00,744.00,17,834.00,0.00,515.30,0.00,0.00,0.00,0,,,100,100,0,2,0,0,0,2,2,,,,,0.0,0.0,0.0,0.0,0.0,0.0,0
55.954267,-4.401837,83.40,0.00,0.00,51.50,83.40,83.40,0.00,51.65,10009,2022-09-19 10:26:03.494,2022-09-19 11:26:03.493,18,0,0,15.870,55.954469,-4.402580,0.00,0.00,0.00,3.80,-1.20,82.70,0,1,0,90,100,-6965,2975,15870,2983.50,11,Joystick,1,0,0,0,0,0,0,1663583163493,3974,3957,3958,3955,0,0,27,,,,,,,0,0,0,-38.00,-12.00,827.00,-900.00,0.00,744.00,17,834.00,0.00,515.04,0.00,0.00,0.00,0,,,100,100,0,2,0,0,0,2,2,,,,,0.0,0.0,0.0,0.0,0.0,0.0,0
55.954267,-4.401837,83.40,0.00,0.00,51.50,83.40,83.40,0.00,51.65,10101,2022-09-19 10:26:03.585,2022-09-19 11:26:03.585,18,0,0,15.870,55.954469,-4.402580,0.00,0.00,0.00,3.80,-1.40,82.70,0,1,0,90,100,-6965,2975,15870,2983.50,11,Joystick,1,0,0,0,0,0,0,1663583163585,3974,3957,3958,3955,0,0,27,,,,,,,0,0,0,-38.00,-14.00,827.00,-899.00,0.00,744.00,17,834.00,0.00,515.00,0.00,0.00,0.00,0,,,100,100,0,2,0,0,0,2,2,,,,,0.0,0.0,0.0,0.0,0.0,0.0,0
55.954267,-4.401838,83.40,0.00,0.00,51.50,83.40,83.40,0.00,51.65,10237,2022-09-19 10:26:03.721,2022-09-19 11:26:03.721,18,0,0,15.870,55.954469,-4.402580,0.00,0.00,0.00,3.90,-1.30,82.70,0,1,0,90,100,-6965,2975,15870,2983.50,11,Joystick,1,0,0,0,0,0,0,1663583163721,3974,3957,3958,3955,0,0,27,,,,,,,0,0,0,-39.00,-13.00,827.00,-900.00,0.00,744.00,17,834.00,0.00,515.02,0.00,0.00,0.00,0,,,100,100,0,2,0,0,0,2,2,,,,,0.0,0.0,0.0,0.0,0.0,0.0,0
55.954267,-4.401838,83.40,0.00,0.00,51.49,83.40,83.40,0.00,51.65,10410,2022-09-19 10:26:03.895,2022-09-19 11:26:03.894,18,0,0,15.870,55.954469,-4.402580,0.00,0.00,0.00,4.00,-0.80,82.70,0,1,0,90,100,-6965,2975,15870,2983.50,11,Joystick,1,0,0,0,0,0,0,1663583163894,3974,3957,3958,3955,0,0,27,,,,,,,0,0,0,-40.00,-8.00,827.00,-900.00,0.00,744.00,17,834.00,0.00,514.91,0.00,0.00,0.00,0,,,100,100,0,2,0,0,0,2,2,,,,,0.0,0.0,0.0,0.0,0.0,0.0,0
55.954267,-4.401838,83.40,0.00,0.00,51.49,83.40,83.40,0.00,51.65,10504,2022-09-19 10:26:03.989,2022-09-19 11:26:03.988,18,0,0,15.870,55.954469,-4.402580,0.00,0.00,0.00,4.10,-0.90,82.70,0,1,0,90,100,-6965,2975,15870,2983.50,11,Joystick,1,0,0,0,0,0,0,1663583163988,3974,3957,3958,3955,0,0,27,,,,,,,0,0,0,-41.00,-9.00,827.00,-900.00,0.00,744.00,17,834.00,0.00,514.89,0.00,0.00,0.00,0,,,100,100,0,2,0,0,0,2,2,,,,,0.0,0.0,0.0,0.0,0.0,0.0,0
55.954267,-4.401838,83.40,0.00,0.00,51.49,83.40,83.40,0.00,51.65,10605,2022-09-19 10:26:04.089,2022-09-19 11:26:04.089,18,0,0,15.870,55.954469,-4.402580,0.00,0.00,0.00,4.20,-0.90,82.70,0,1,0,90,100,-6965,2975,15870,2983.50,11,Joystick,1,0,0,0,0,0,0,1663583164089,3974,3957,3958,3955,0,0,27,,,,,,,0,0,0,-42.00,-9.00,827.00,-900.00,0.00,744.00,17,834.00,0.00,514.90,0.00,0.00,0.00,0,,,100,100,0,2,0,0,0,2,2,,,,,0.0,0.0,0.0,0.0,0.0,0.0,0
55.954267,-4.401838,83.40,0.00,0.00,51.49,83.40,83.40,0.00,51.65,10707,2022-09-19 10:26:04.192,2022-09-19 11:26:04.191,18,0,0,15.870,55.954469,-4.402580,0.00,0.00,0.00,4.20,-0.80,82.70,0,1,0,90,100,-6965,2975,15870,2983.50,11,Joystick,1,0,0,0,0,0,0,1663583164191,3974,3957,3958,3955,0,0,27,,,,,,,0,0,0,-42.00,-8.00,827.00,-900.00,0.00,744.00,17,834.00,0.00,514.89,0.00,0.00,0.00,0,,,100,100,0,2,0,0,0,2,2,,,,,0.0,0.0,0.0,0.0,0.0,0.0,0
55.954267,-4.401838,83.40,0.00,0.00,51.50,83.40,83.40,0.00,51.65,10805,2022-09-19 10:26:04.289,2022-09-19 11:26:04.289,18,0,0,15.870,55.954469,-4.402580,0.00,0.00,0.00,4.30,-1.00,82.70,0,1,0,90,100,-6965,2975,15870,2983.50,11,Joystick,1,0,0,0,0,0,0,1663583164289,3974,3957,3958,3955,0,0,27,,,,,,,0,0,0,-43.00,-10.00,827.00,-899.00,0.00,744.00,17,834.00,0.00,514.98,0.00,0.00,0.00,0,,,100,100,0,2,0,0,0,2,2,,,,,0.0,0.0,0.0,0.0,0.0,0.0,0
55.954267,-4.401838,83.40,0.00,0.00,51.50,83.40,83.40,0.00,51.65,10901,2022-09-19 10:26:04.386,2022-09-19 11:26:04.385,18,0,0,15.870,55.954469,-4.402580,0.00,0.00,0.00,4.40,-1.10,82.70,0,1,0,90,100,-6965,2975,15870,2983.50,11,Joystick,1,0,0,0,0,0,0,1663583164385,3974,3957,3958,3955,0,0,27,,,,,,,0,0,0,-44.00,-11.00,827.00,-899.00,0.00,744.00,17,834.00,0.00,514.98,0.00,0.00,0.00,0,,,100,100,0,2,0,0,0,2,2,,,,,0.0,0.0,0.0,0.0,0.0,0.0,0
55.954267,-4.401838,83.50,0.00,0.00,51.50,83.50,83.50,0.00,51.65,11009,2022-09-19 10:26:04.493,2022-09-19 11:26:04.493,18,0,0,15.891,55.954469,-4.402580,0.00,0.00,0.00,4.30,-1.10,82.70,0,1,0,90,100,-6921,2973,15891,2983.50,11,Joystick,1,0,0,0,0,0,0,1663583164493,3974,3957,3958,3955,0,0,27,,,,,,,0,0,0,-43.00,-11.00,827.00,-899.00,0.00,744.00,17,835.00,0.00,515.01,0.00,0.00,0.00,0,,,100,100,0,2,0,0,0,2,2,,,,,0.0,0.0,0.0,0.0,0.0,0.0,0
55.954267,-4.401838,83.50,0.00,0.00,51.50,83.50,83.50,0.00,51.65,11103,2022-09-19 10:26:04.588,2022-09-19 11:26:04.587,18,0,0,15.891,55.954469,-4.402580,0.00,0.00,0.00,4.10,-1.10,82.70,0,1,0,90,100,-6921,2973,15891,2983.50,11,Joystick,1,0,0,0,0,0,0,1663583164587,3974,3957,3958,3955,0,0,27,,,,,,,0,0,0,-41.00,-11.00,827.00,-900.00,0.00,744.00,17,835.00,0.00,515.01,0.00,0.00,0.00,0,,,100,100,0,2,0,0,0,2,2,,,,,0.0,0.0,0.0,0.0,0.0,0.0,0
55.954267,-4.401838,83.50,0.00,0.00,51.50,83.50,83.50,0.00,51.65,11211,2022-09-19 10:26:04.695,2022-09-19 11:26:04.695,18,0,0,15.891,55.954469,-4.402580,0.00,0.00,0.00,3.90,-1.00,82.70,0,1,0,90,100,-6921,2973,15891,2983.50,11,Joystick,1,0,0,0,0,0,0,1663583164695,3974,3957,3958,3955,0,0,27,,,,,,,0,0,0,-39.00,-10.00,827.00,-900.00,0.00,744.00,17,835.00,0.00,515.00,0.00,0.00,0.00,0,,,100,100,0,2,0,0,0,2,2,,,,,0.0,0.0,0.0,0.0,0.0,0.0,0
55.954267,-4.401838,83.50,0.00,0.00,51.50,83.50,83.50,0.00,51.65,11303,2022-09-19 10:26:04.787,2022-09-19 11:26:04.787,18,0,0,15.891,55.954469,-4.402580,0.00,0.00,0.00,3.90,-1.20,82.70,0,1,0,90,100,-6921,2973,15891,2983.50,11,Joystick,1,0,0,0,0,0,0,1663583164787,3974,3957,3958,3955,0,0,27,,,,,,,0,0,0,-39.00,-12.00,827.00,-900.00,0.00,744.00,17,835.00,0.00,515.01,0.00,0.00,0.00,0,,,100,100,0,2,0,0,0,2,2,,,,,0.0,0.0,0.0,0.0,0.0,0.0,0
55.954267,-4.401838,83.50,0.00,0.00,51.50,83.50,83.50,0.00,51.65,11400,2022-09-19 10:26:04.884,2022-09-19 11:26:04.884,18,0,0,15.891,55.954469,-4.402580,0.00,0.00,0.00,4.10,-1.50,82.70,0,1,0,90,100,-6921,2973,15891,2983.50,11,Joystick,1,0,0,0,0,0,0,1663583164884,3974,3957,3958,3955,0,0,27,,,,,,,0,0,0,-41.00,-15.00,827.00,-899.00,0.00,744.00,17,835.00,0.00,514.95,0.00,0.00,0.00,0,,,100,100,0,2,0,0,0,2,2,,,,,0.0,0.0,0.0,0.0,0.0,0.0,0
55.954267,-4.401838,83.50,0.00,0.00,51.50,83.50,83.50,0.00,51.65,11503,2022-09-19 10:26:04.988,2022-09-19 11:26:04.988,18,0,0,15.891,55.954469,-4.402580,0.00,0.00,0.00,4.20,-1.70,82.70,0,1,0,90,100,-6921,2973,15891,2983.50,11,Joystick,1,0,0,0,0,0,0,1663583164987,3974,3957,3958,3955,0,0,27,,,,,,,0,0,0,-42.00,-17.00,827.00,-899.00,0.00,744.00,17,835.00,0.00,514.97,0.00,0.00,0.00,0,,,100,100,0,2,0,0,0,2,2,,,,,0.0,0.0,0.0,0.0,0.0,0.0,0
55.954267,-4.401838,83.50,0.00,0.00,51.50,83.50,83.50,0.00,51.65,11601,2022-09-19 10:26:05.085,2022-09-19 11:26:05.085,18,0,0,15.891,55.954469,-4.402580,0.00,0.00,0.00,4.30,-1.80,82.70,0,1,0,90,100,-6921,2973,15891,2983.50,11,Joystick,1,0,0,0,0,0,0,1663583165085,3974,3957,3958,3955,0,0,27,,,,,,,0,0,0,-43.00,-18.00,827.00,-900.00,0.00,744.00,17,835.00,0.00,515.00,0.00,0.00,0.00,0,,,100,100,0,2,0,0,0,2,2,,,,,0.0,0.0,0.0,0.0,0.0,0.0,0
55.954267,-4.401838,83.50,0.00,0.00,51.50,83.50,83.50,0.00,51.65,11703,2022-09-19 10:26:05.188,2022-09-19 11:26:05.187,18,0,0,15.891,55.954469,-4.402580,0.00,0.00,0.00,4.40,-2.00,82.70,0,1,0,90,100,-6921,2973,15891,2983.50,11,Joystick,1,0,0,0,0,0,0,1663583165187,3974,3957,3958,3955,0,0,27,,,,,,,0,0,0,-44.00,-20.00,827.00,-900.00,0.00,744.00,17,835.00,0.00,515.02,0.00,0.00,0.00,0,,,100,100,0,2,0,0,0,2,2,,,,,0.0,0.0,0.0,0.0,0.0,0.0,0
55.954267,-4.401838,83.50,0.00,0.00,51.50,83.50,83.50,0.00,51.65,11799,2022-09-19 10:26:05.283,2022-09-19 11:26:05.283,18,0,0,15.891,55.954469,-4.402580,0.00,0.00,0.00,4.40,-2.10,82.70,0,1,0,90,100,-6921,2973,15891,2983.50,11,Joystick,1,0,0,0,0,0,0,1663583165283,3974,3957,3958,3955,0,0,27,,,,,,,0,0,0,-44.00,-21.00,827.00,-899.00,0.00,744.00,17,835.00,0.00,515.00,0.00,0.00,0.00,0,,,100,100,0,2,0,0,0,2,2,,,,,0.0,0.0,0.0,0.0,0.0,0.0,0
55.954267,-4.401838,83.50,0.00,0.00,51.50,83.50,83.50,0.00,51.65,11908,2022-09-19 10:26:05.392,2022-09-19 11:26:05.392,18,0,0,15.891,55.954469,-4.402580,0.00,0.00,0.00,4.20,-2.00,82.70,0,1,0,90,100,-6921,2973,15891,2983.50,11,Joystick,1,0,0,0,0,0,0,1663583165392,3974,3957,3958,3955,0,0,27,,,,,,,0,0,0,-42.00,-20.00,827.00,-900.00,0.00,744.00,17,835.00,0.00,515.01,0.00,0.00,0.00,0,,,100,100,0,2,0,0,0,2,2,,,,,0.0,0.0,0.0,0.0,0.0,0.0,0
55.954266,-4.401838,83.50,0.00,0.00,51.50,83.50,83.50,0.00,51.65,12001,2022-09-19 10:26:05.486,2022-09-19 11:26:05.485,18,0,0,15.888,55.954469,-4.402580,0.00,0.00,0.00,4.20,-2.00,82.70,0,1,0,90,100,-6960,2971,15888,2984.50,11,Joystick,1,0,0,0,0,0,0,1663583165485,3974,3957,3958,3955,0,0,27,,,,,,,0,0,0,-42.00,-20.00,827.00,-900.00,0.00,744.00,17,835.00,0.00,515.02,0.00,0.00,0.00,0,,,100,100,0,2,0,0,0,2,2,,,,,0.0,0.0,0.0,0.0,0.0,0.0,0
55.954266,-4.401838,83.50,0.00,0.00,51.50,83.50,83.50,0.00,51.65,12101,2022-09-19 10:26:05.586,2022-09-19 11:26:05.585,18,0,0,15.888,55.954469,-4.402580,0.00,0.00,0.00,4.10,-1.90,82.70,0,1,0,90,100,-6960,2971,15888,2984.50,11,Joystick,1,0,0,0,0,0,0,1663583165585,3974,3957,3958,3955,0,0,27,,,,,,,0,0,0,-41.00,-19.00,827.00,-900.00,0.00,744.00,17,835.00,0.00,515.02,0.00,0.00,0.00,0,,,100,100,0,2,0,0,0,2,2,,,,,0.0,0.0,0.0,0.0,0.0,0.0,0
55.954266,-4.401838,83.60,0.00,0.00,51.50,83.60,83.60,0.00,51.65,12217,2022-09-19 10:26:05.701,2022-09-19 11:26:05.701,18,0,0,15.888,55.954469,-4.402580,0.00,0.00,0.00,4.00,-1.80,82.60,0,1,0,90,100,-6960,2971,15888,2984.50,11,Joystick,1,0,0,0,0,0,0,1663583165701,3974,3957,3958,3955,0,0,27,,,,,,,0,0,0,-40.00,-18.00,826.00,-900.00,0.00,744.00,17,836.00,0.00,514.96,0.00,0.00,0.00,0,,,100,100,0,2,0,0,0,2,2,,,,,0.0,0.0,0.0,0.0,0.0,0.0,0
55.954266,-4.401838,83.60,0.00,0.00,51.50,83.60,83.60,0.00,51.65,12304,2022-09-19 10:26:05.789,2022-09-19 11:26:05.788,18,0,0,15.888,55.954469,-4.402580,0.00,0.00,0.00,4.00,-1.50,82.60,0,1,0,90,100,-6960,2971,15888,2984.50,11,Joystick,1,0,0,0,0,0,0,1663583165788,3974,3957,3958,3955,0,0,27,,,,,,,0,0,0,-40.00,-15.00,826.00,-899.00,0.00,744.00,17,836.00,0.00,514.96,0.00,0.00,0.00,0,,,100,100,0,2,0,0,0,2,2,,,,,0.0,0.0,0.0,0.0,0.0,0.0,0
55.954266,-4.401838,83.60,0.00,0.00,51.50,83.60,83.60,0.00,51.65,12409,2022-09-19 10:26:05.893,2022-09-19 11:26:05.893,18,0,0,15.888,55.954469,-4.402580,0.00,0.00,0.00,4.00,-1.50,82.70,0,1,0,90,100,-6960,2971,15888,2984.50,11,Joystick,1,0,0,0,0,0,0,1663583165893,3974,3957,3958,3955,0,0,27,,,,,,,0,0,0,-40.00,-15.00,827.00,-900.00,0.00,744.00,17,836.00,0.00,515.01,0.00,0.00,0.00,0,,,100,100,0,2,0,0,0,2,2,,,,,0.0,0.0,0.0,0.0,0.0,0.0,0
55.954266,-4.401838,83.60,0.00,0.00,51.50,83.60,83.60,0.00,51.65,12497,2022-09-19 10:26:05.982,2022-09-19 11:26:05.981,18,0,0,15.888,55.954469,-4.402580,0.00,0.00,0.00,4.30,-1.70,82.70,0,1,0,90,100,-6960,2971,15888,2984.50,11,Joystick,1,0,0,0,0,0,0,1663583165981,3974,3957,3958,3955,0,0,27,,,,,,,0,0,0,-43.00,-17.00,827.00,-899.00,0.00,744.00,17,836.00,0.00,515.01,0.00,0.00,0.00,0,,,100,100,0,2,0,0,0,2,2,,,,,0.0,0.0,0.0,0.0,0.0,0.0,0
55.954266,-4.401838,83.60,0.00,0.00,51.50,83.60,83.60,0.00,51.65,12619,2022-09-19 10:26:06.103,2022-09-19 11:26:06.103,18,0,0,15.888,55.954469,-4.402580,0.00,0.00,0.00,4.60,-1.60,82.60,0,1,0,90,100,-6960,2971,15888,2984.50,11,Joystick,1,0,0,0,0,0,0,1663583166103,3974,3957,3958,3955,0,0,27,,,,,,,0,0,0,-46.00,-16.00,826.00,-899.00,0.00,744.00,17,836.00,0.00,515.02,0.00,0.00,0.00,0,,,100,100,0,2,0,0,0,2,2,,,,,0.0,0.0,0.0,0.0,0.0,0.0,0
55.954266,-4.401838,83.50,0.00,0.00,51.50,83.60,83.60,0.00,51.65,12705,2022-09-19 10:26:06.190,2022-09-19 11:26:06.189,18,0,0,15.888,55.954469,-4.402580,0.00,0.00,0.00,4.70,-1.50,82.60,0,1,0,90,100,-6960,2971,15888,2984.50,11,Joystick,1,0,0,0,0,0,0,1663583166189,3974,3957,3958,3955,0,0,27,,,,,,,0,0,0,-47.00,-15.00,826.00,-899.00,0.00,744.00,17,835.00,0.00,515.03,0.00,0.00,0.00,0,,,100,100,0,2,0,0,0,2,2,,,,,0.0,0.0,0.0,0.0,0.0,0.0,0
55.954266,-4.401838,83.50,0.00,0.00,51.51,83.60,83.60,0.00,51.65,12809,2022-09-19 10:26:06.294,2022-09-19 11:26:06.293,18,0,0,15.888,55.954469,-4.402580,0.00,0.00,0.00,4.50,-1.50,82.60,0,1,0,90,100,-6960,2971,15888,2984.50,11,Joystick,1,0,0,0,0,0,0,1663583166293,3974,3957,3958,3955,0,0,27,,,,,,,0,0,0,-45.00,-15.00,826.00,-900.00,0.00,744.00,17,835.00,0.00,515.11,0.00,0.00,0.00,0,,,100,100,0,2,0,0,0,2,2,,,,,0.0,0.0,0.0,0.0,0.0,0.0,0
55.954266,-4.401838,83.50,0.00,0.00,51.51,83.60,83.60,0.00,51.65,12903,2022-09-19 10:26:06.388,2022-09-19 11:26:06.387,18,0,0,15.888,55.954469,-4.402580,0.00,0.00,0.00,4.40,-1.50,82.60,0,1,0,90,100,-6960,2971,15888,2984.50,11,Joystick,1,0,0,0,0,0,0,1663583166387,3974,3957,3958,3955,0,0,27,,,,,,,0,0,0,-44.00,-15.00,826.00,-900.00,0.00,744.00,17,835.00,0.00,515.12,0.00,0.00,0.00,0,,,100,100,0,2,0,0,0,2,2,,,,,0.0,0.0,0.0,0.0,0.0,0.0,0
55.954266,-4.401838,83.50,0.00,0.00,51.52,83.60,83.60,0.00,51.65,13013,2022-09-19 10:26:06.497,2022-09-19 11:26:06.497,18,0,0,15.900,55.954469,-4.402580,0.00,0.00,0.00,4.40,-1.50,82.60,0,1,0,90,100,-6919,2969,15900,2984.50,11,Joystick,1,0,0,0,0,0,0,1663583166497,3974,3957,3958,3955,0,0,27,,,,,,,0,0,0,-44.00,-15.00,826.00,-900.00,0.00,744.00,17,835.00,0.00,515.16,0.00,0.00,0.00,0,,,100,100,0,2,0,0,0,2,2,,,,,0.0,0.0,0.0,0.0,0.0,0.0,0
55.954266,-4.401838,83.60,0.00,0.00,51.52,83.60,83.60,0.00,51.65,13102,2022-09-19 10:26:06.586,2022-09-19 11:26:06.586,18,0,0,15.900,55.954469,-4.402580,0.00,0.00,0.00,4.20,-1.50,82.60,0,1,0,90,100,-6919,2969,15900,2984.50,11,Joystick,1,0,0,0,0,0,0,1663583166586,3974,3957,3958,3955,0,0,27,,,,,,,0,0,0,-42.00,-15.00,826.00,-900.00,0.00,744.00,17,836.00,0.00,515.17,0.00,0.00,0.00,0,,,100,100,0,2,0,0,0,2,2,,,,,0.0,0.0,0.0,0.0,0.0,0.0,0
55.954266,-4.401838,83.60,0.00,0.00,51.52,83.60,83.60,0.00,51.65,13212,2022-09-19 10:26:06.696,2022-09-19 11:26:06.696,18,0,0,15.900,55.954469,-4.402580,0.00,0.00,0.00,4.00,-1.60,82.70,0,1,0,90,100,-6919,2969,15900,2984.50,11,Joystick,1,0,0,0,0,0,0,1663583166696,3974,3957,3958,3955,0,0,27,,,,,,,0,0,0,-40.00,-16.00,827.00,-900.00,0.00,744.00,17,836.00,0.00,515.22,0.00,0.00,0.00,0,,,100,100,0,2,0,0,0,2,2,,,,,0.0,0.0,0.0,0.0,0.0,0.0,0
55.954266,-4.401838,83.50,0.00,0.00,51.52,83.60,83.60,0.00,51.65,13304,2022-09-19 10:26:06.789,2022-09-19 11:26:06.788,18,0,0,15.900,55.954469,-4.402580,0.00,0.00,0.00,3.90,-1.70,82.70,0,1,0,90,100,-6919,2969,15900,2984.50,11,Joystick,1,0,0,0,0,0,0,1663583166788,3974,3957,3958,3955,0,0,27,,,,,,,0,0,0,-39.00,-17.00,827.00,-900.00,0.00,744.00,17,835.00,0.00,515.25,0.00,0.00,0.00,0,,,100,100,0,2,0,0,0,2,2,,,,,0.0,0.0,0.0,0.0,0.0,0.0,0
55.954266,-4.401838,83.60,0.00,0.00,51.53,83.60,83.60,0.00,51.65,13403,2022-09-19 10:26:06.887,2022-09-19 11:26:06.887,18,0,0,15.900,55.954469,-4.402580,0.00,0.00,0.00,4.00,-1.80,82.70,0,1,0,90,100,-6919,2969,15900,2984.50,11,Joystick,1,0,0,0,0,0,0,1663583166887,3974,3957,3958,3955,0,0,27,,,,,,,0,0,0,-40.00,-18.00,827.00,-899.00,0.00,744.00,17,836.00,0.00,515.32,0.00,0.00,0.00,0,,,100,100,0,2,0,0,0,2,2,,,,,0.0,0.0,0.0,0.0,0.0,0.0,0
55.954266,-4.401838,83.50,0.00,0.00,51.54,83.60,83.60,0.00,51.65,13499,2022-09-19 10:26:06.986,2022-09-19 11:26:06.983,18,0,0,15.900,55.954469,-4.402580,0.00,0.00,0.00,4.20,-2.00,82.70,0,1,0,90,100,-6919,2969,15900,2984.50,11,Joystick,1,0,0,0,0,0,0,1663583166983,3974,3957,3958,3955,0,0,27,,,,,,,0,0,0,-42.00,-20.00,827.00,-899.00,0.00,744.00,17,835.00,0.00,515.36,0.00,0.00,0.00,0,,,100,100,0,2,0,0,0,2,2,,,,,0.0,0.0,0.0,0.0,0.0,0.0,0
55.954266,-4.401838,83.50,0.00,0.00,51.53,83.60,83.60,0.00,51.65,13601,2022-09-19 10:26:07.086,2022-09-19 11:26:07.085,18,0,0,15.900,55.954469,-4.402580,0.00,0.00,0.00,4.40,-2.00,82.70,0,1,0,90,100,-6919,2969,15900,2984.50,11,Joystick,1,0,0,0,0,0,0,1663583167085,3974,3957,3958,3955,0,0,27,,,,,,,0,0,0,-44.00,-20.00,827.00,-899.00,0.00,744.00,17,835.00,0.00,515.33,0.00,0.00,0.00,0,,,100,100,0,2,0,0,0,2,2,,,,,0.0,0.0,0.0,0.0,0.0,0.0,0
55.954266,-4.401838,83.60,0.00,0.00,51.54,83.60,83.60,0.00,51.65,13701,2022-09-19 10:26:07.185,2022-09-19 11:26:07.185,18,0,0,15.900,55.954469,-4.402580,0.00,0.00,0.00,4.60,-2.10,82.70,0,1,0,90,100,-6919,2969,15900,2984.50,11,Joystick,1,0,0,0,0,0,0,1663583167185,3974,3957,3958,3955,0,0,27,,,,,,,0,0,0,-46.00,-21.00,827.00,-899.00,0.00,744.00,17,836.00,0.00,515.37,0.00,0.00,0.00,0,,,100,100,0,2,0,0,0,2,2,,,,,0.0,0.0,0.0,0.0,0.0,0.0,0
55.954266,-4.401838,83.50,0.00,0.00,51.53,83.60,83.60,0.00,51.65,13813,2022-09-19 10:26:07.297,2022-09-19 11:26:07.297,18,0,0,15.900,55.954469,-4.402580,0.00,0.00,0.00,4.50,-1.90,82.70,0,1,0,90,100,-6919,2969,15900,2984.50,11,Joystick,1,0,0,0,0,0,0,1663583167297,3974,3957,3958,3955,0,0,27,,,,,,,0,0,0,-45.00,-19.00,827.00,-900.00,0.00,744.00,17,835.00,0.00,515.32,0.00,0.00,0.00,0,,,100,100,0,2,0,0,0,2,2,,,,,0.0,0.0,0.0,0.0,0.0,0.0,0
55.954266,-4.401838,83.50,0.00,0.00,51.53,83.60,83.60,0.00,51.65,13909,2022-09-19 10:26:07.393,2022-09-19 11:26:07.393,18,0,0,15.900,55.954469,-4.402580,0.00,0.00,0.00,4.40,-1.80,82.70,0,1,0,90,100,-6919,2969,15900,2984.50,11,Joystick,1,0,0,0,0,0,0,1663583167393,3974,3957,3958,3955,0,0,27,,,,,,,0,0,0,-44.00,-18.00,827.00,-900.00,0.00,744.00,17,835.00,0.00,515.34,0.00,0.00,0.00,0,,,100,100,0,2,0,0,0,2,2,,,,,0.0,0.0,0.0,0.0,0.0,0.0,0
55.954266,-4.401838,83.50,0.00,0.00,51.54,83.60,83.60,0.00,51.65,14001,2022-09-19 10:26:07.486,2022-09-19 11:26:07.485,18,0,0,15.888,55.954469,-4.402580,0.00,0.00,0.00,4.40,-1.90,82.70,0,1,0,90,100,-6952,2967,15888,2984.50,11,Joystick,1,0,0,0,0,0,0,1663583167485,3974,3957,3958,3955,0,0,27,,,,,,,0,0,0,-44.00,-19.00,827.00,-900.00,0.00,744.00,17,835.00,0.00,515.36,0.00,0.00,0.00,0,,,100,100,0,2,0,0,0,2,2,,,,,0.0,0.0,0.0,0.0,0.0,0.0,0
55.954266,-4.401838,83.50,0.00,0.00,51.54,83.60,83.60,0.00,51.65,14105,2022-09-19 10:26:07.589,2022-09-19 11:26:07.589,18,0,0,15.888,55.954469,-4.402580,0.00,0.00,0.00,4.40,-1.90,82.70,0,1,0,90,100,-6952,2967,15888,2984.50,11,Joystick,1,0,0,0,0,0,0,1663583167589,3974,3957,3958,3955,0,0,27,,,,,,,0,0,0,-44.00,-19.00,827.00,-899.00,0.00,744.00,17,835.00,0.00,515.38,0.00,0.00,0.00,0,,,100,100,0,2,0,0,0,2,2,,,,,0.0,0.0,0.0,0.0,0.0,0.0,0
