latitude,longitude,altitude(m),ultrasonicHeight(m),speed(mps),distance(m),max_altitude(m),max_ascent(m),max_speed(mps),max_distance(m),time(millisecond),datetime(utc),datetime(local),satellites,pressure(Pa),temperature(F),voltage(v),home_latitude,home_longitude,velocityX(mps),velocityY(mps),velocityZ(mps),pitch(deg),roll(deg),yaw(deg),powerlevel,isflying,istakingphoto,remainPowerPercent,remainLifePercent,currentCurrent,currentElectricity,currentVoltage,batteryTemperature,dischargeCount,flightmode,isMotorsOn,isTakingVideo,Rc_elevator,Rc_aileron,Rc_throttle,Rc_rudder,Rc_gyro,timestamp,Battery_Cell1,Battery_Cell2,Battery_Cell3,Battery_Cell4,Battery_Cell5,Battery_Cell6,Dronetype,AppVersion,Planename,FlyControllerSerialNumber,RemoteSerialNumber,BatterySerialNumber,CENTER_BATTERY.productDate,CENTER_BATTERY.serialNo,CENTER_BATTERY.fullCapacity,CENTER_BATTERY.productDateRaw,pitchRaw,rollRaw,yawRaw,gimbalPitchRaw,gimbalRollRaw,gimbalYawRaw,flyState,altitudeRaw,speedRaw,distanceRaw,velocityXRaw,velocityYRaw,velocityZRaw,data_reuse,App_Tip,App_Warning,downlinkSignalQuality,uplinkSignalQuality,transmissionChannel,rcModeSwitch,rcHome,rcPause,rcTransform,rcJoystickMode,appMode,FlyControllerSerialNumber_legacy,RemoteSerialNumber_legacy,BatterySerialNumber_legacy,Battery2SerialNumber,frontAvoidDist,backAvoidDist,rightAvoidDist,leftAvoidDist,upAvoidDist,downAvoidDist,isBrakingToAvoid
55.952636,-4.403296,0.20,0.30,0.42,58.22,0.20,0.20,0.42,58.22,0,2022-10-02 10:13:10.862,2022-10-02 11:13:10.862,19,0,0,16.524,55.952637,-4.403299,0.00,0.30,-0.30,4.00,-2.50,68.60,0,1,0,98,100,-4190,3402,16524,2917.50,9,TakeOff,1,0,0,0,0,0,0,1664705590862,4288,4279,4282,4282,0,0,27,Litchi_4.24.1-g,CJTMAVIC,163DFAS001K45C,0VECFAK0072T52,0P2AFB25340AEP,,0,0,0,-40.00,-25.00,686.00,0.00,0.00,703.00,11,2.00,4.24,582.23,0.00,3.00,-3.00,0,,,80,100,0,2,0,0,0,2,2,,,,null,2.4,0.0,0.0,0.0,0.0,0.0,0
55.952636,-4.403296,0.20,0.30,0.45,58.20,0.20,0.20,0.45,58.22,96,2022-10-02 10:13:10.959,2022-10-02 11:13:10.958,19,0,0,16.524,55.952637,-4.403299,0.00,0.20,-0.40,3.80,-2.60,68.50,0,1,0,98,100,-4190,3402,16524,2917.50,9,TakeOff,1,0,0,0,0,0,0,1664705590958,4288,4279,4282,4282,0,0,27,,,,,,,0,0,0,-38.00,-26.00,685.00,0.00,0.00,702.00,11,2.00,4.47,582.00,0.00,2.00,-4.00,0,,,80,100,0,2,0,0,0,2,2,,,,,2.4,0.0,0.0,0.0,0.0,0.0,0
55.952636,-4.403296,0.20,0.30,0.45,58.20,0.20,0.20,0.45,58.22,98,2022-10-02 10:13:10.960,2022-10-02 11:13:10.960,19,0,0,16.524,55.952637,-4.403299,0.00,0.20,-0.40,3.80,-2.60,68.50,0,1,0,98,100,-4190,3402,16524,2917.50,9,TakeOff,1,0,0,0,0,0,0,1664705590960,4288,4279,4282,4282,0,0,27,,,,,,,0,0,0,-38.00,-26.00,685.00,0.00,0.00,702.00,11,2.00,4.47,582.00,0.00,2.00,-4.00,0,,,80,100,0,2,0,0,0,2,2,,,,,2.4,0.0,0.0,0.0,0.0,0.0,0
55.952636,-4.403296,0.30,0.40,0.45,58.16,0.30,0.30,0.45,58.22,199,2022-10-02 10:13:11.062,2022-10-02 11:13:11.061,19,0,0,16.524,55.952637,-4.403299,0.00,0.20,-0.40,3.90,-2.70,68.40,0,1,0,98,100,-4190,3402,16524,2917.50,9,TakeOff,1,0,0,0,0,0,0,1664705591061,4288,4279,4282,4282,0,0,27,,,,,,,0,0,0,-39.00,-27.00,684.00,0.00,0.00,702.00,11,3.00,4.47,581.62,0.00,2.00,-4.00,0,,,80,100,0,2,0,0,0,2,2,,,,,2.3,0.0,0.0,0.0,0.0,0.0,0
55.952636,-4.403296,0.30,0.40,0.45,58.16,0.30,0.30,0.45,58.22,267,2022-10-02 10:13:11.130,2022-10-02 11:13:11.129,19,0,0,16.524,55.952637,-4.403299,0.00,0.20,-0.40,3.90,-2.70,68.40,0,1,0,98,100,-4190,3402,16524,2917.50,9,TakeOff,1,0,0,0,0,0,0,1664705591129,4288,4279,4282,4282,0,0,27,,,,,,,0,0,0,-39.00,-27.00,684.00,0.00,0.00,702.00,11,3.00,4.47,581.62,0.00,2.00,-4.00,0,,,80,100,0,2,0,0,0,2,2,,,,,2.3,0.0,0.0,0.0,0.0,0.0,0
55.952636,-4.403295,0.30,0.40,0.45,58.14,0.30,0.30,0.45,58.22,297,2022-10-02 10:13:11.159,2022-10-02 11:13:11.159,19,0,0,16.524,55.952637,-4.403299,0.00,0.20,-0.40,3.80,-2.60,68.50,0,1,0,98,100,-4190,3402,16524,2917.50,9,TakeOff,1,0,0,0,0,0,0,1664705591159,4288,4279,4282,4282,0,0,27,,,,,,,0,0,0,-38.00,-26.00,685.00,0.00,0.00,702.00,11,3.00,4.47,581.42,0.00,2.00,-4.00,0,,,80,100,0,2,0,0,0,2,2,,,,,2.3,0.0,0.0,0.0,0.0,0.0,0
55.952636,-4.403295,0.30,0.40,0.45,58.14,0.30,0.30,0.45,58.22,298,2022-10-02 10:13:11.161,2022-10-02 11:13:11.160,19,0,0,16.524,55.952637,-4.403299,0.00,0.20,-0.40,3.80,-2.60,68.50,0,1,0,98,100,-4190,3402,16524,2917.50,9,TakeOff,1,0,0,0,0,0,0,1664705591160,4288,4279,4282,4282,0,0,27,,,,,,,0,0,0,-38.00,-26.00,685.00,0.00,0.00,702.00,11,3.00,4.47,581.42,0.00,2.00,-4.00,0,,,80,100,0,2,0,0,0,2,2,,,,,2.3,0.0,0.0,0.0,0.0,0.0,0
55.952636,-4.403295,0.30,0.40,0.45,58.14,0.30,0.30,0.45,58.22,391,2022-10-02 10:13:11.253,2022-10-02 11:13:11.253,19,0,0,16.524,55.952637,-4.403299,0.00,0.20,-0.40,3.80,-2.60,68.50,0,1,0,98,100,-4190,3402,16524,2917.50,9,TakeOff,1,0,0,0,0,0,0,1664705591253,4288,4279,4282,4282,0,0,27,,,,,,,0,0,0,-38.00,-26.00,685.00,0.00,0.00,702.00,11,3.00,4.47,581.42,0.00,2.00,-4.00,0,,,80,100,0,2,0,0,0,2,2,,,,,2.3,0.0,0.0,0.0,0.0,0.0,0
55.952636,-4.403295,0.30,0.40,0.45,58.14,0.30,0.30,0.45,58.22,392,2022-10-02 10:13:11.254,2022-10-02 11:13:11.254,19,0,0,16.524,55.952637,-4.403299,0.00,0.20,-0.40,3.80,-2.60,68.50,0,1,0,98,100,-4190,3402,16524,2917.50,9,TakeOff,1,0,0,0,0,0,0,1664705591254,4288,4279,4282,4282,0,0,27,,,,,,,0,0,0,-38.00,-26.00,685.00,0.00,0.00,702.00,11,3.00,4.47,581.42,0.00,2.00,-4.00,0,,,80,100,0,2,0,0,0,2,2,,,,,2.3,0.0,0.0,0.0,0.0,0.0,0
55.952635,-4.403295,0.40,0.50,0.51,58.10,0.40,0.40,0.51,58.22,499,2022-10-02 10:13:11.361,2022-10-02 11:13:11.361,19,0,0,16.524,55.952637,-4.403299,0.00,0.10,-0.50,3.60,-1.50,68.50,0,1,0,98,100,-4190,3402,16524,2917.50,9,TakeOff,1,0,0,0,0,0,0,1664705591361,4288,4279,4282,4282,0,0,27,,,,,,,0,0,0,-36.00,-15.00,685.00,0.00,0.00,701.00,11,4.00,5.10,581.02,0.00,1.00,-5.00,0,,,80,100,0,2,0,0,0,2,2,,,,,2.3,0.0,0.0,0.0,0.0,0.0,1
55.952635,-4.403295,0.40,0.50,0.51,58.10,0.40,0.40,0.51,58.22,501,2022-10-02 10:13:11.364,2022-10-02 11:13:11.363,19,0,0,16.524,55.952637,-4.403299,0.00,0.10,-0.50,3.60,-1.50,68.50,0,1,0,98,100,-4190,3402,16524,2917.50,9,TakeOff,1,0,0,0,0,0,0,1664705591363,4288,4279,4282,4282,0,0,27,,,,,,,0,0,0,-36.00,-15.00,685.00,0.00,0.00,701.00,11,4.00,5.10,581.02,0.00,1.00,-5.00,0,,,80,100,0,2,0,0,0,2,2,,,,,2.3,0.0,0.0,0.0,0.0,0.0,1
55.952635,-4.403294,0.50,0.60,0.51,58.07,0.50,0.50,0.51,58.22,600,2022-10-02 10:13:11.462,2022-10-02 11:13:11.462,20,0,0,16.524,55.952637,-4.403299,0.00,0.10,-0.50,3.50,-1.50,68.40,0,1,0,98,100,-4190,3402,16524,2917.50,9,TakeOff,1,0,0,0,0,0,0,1664705591462,4288,4279,4282,4282,0,0,27,,,,,,,0,0,0,-35.00,-15.00,684.00,0.00,0.00,701.00,11,5.00,5.10,580.70,0.00,1.00,-5.00,0,,,80,100,0,2,0,0,0,2,2,,,,,2.3,0.0,0.0,0.0,0.0,0.0,1
55.952635,-4.403294,0.50,0.60,0.51,58.07,0.50,0.50,0.51,58.22,602,2022-10-02 10:13:11.464,2022-10-02 11:13:11.464,20,0,0,16.524,55.952637,-4.403299,0.00,0.10,-0.50,3.50,-1.50,68.40,0,1,0,98,100,-4190,3402,16524,2917.50,9,TakeOff,1,0,0,0,0,0,0,1664705591464,4288,4279,4282,4282,0,0,27,,,,,,,0,0,0,-35.00,-15.00,684.00,0.00,0.00,701.00,11,5.00,5.10,580.70,0.00,1.00,-5.00,0,,,80,100,0,2,0,0,0,2,2,,,,,2.3,0.0,0.0,0.0,0.0,0.0,1
55.952635,-4.403294,0.50,0.60,0.51,58.06,0.50,0.50,0.51,58.22,696,2022-10-02 10:13:11.558,2022-10-02 11:13:11.558,20,0,0,16.524,55.952637,-4.403299,0.00,0.10,-0.50,3.30,-1.40,68.40,0,1,0,98,100,-4190,3402,16524,2917.50,9,TakeOff,1,0,0,0,0,0,0,1664705591558,4288,4279,4282,4282,0,0,27,,,,,,,0,0,0,-33.00,-14.00,684.00,0.00,0.00,701.00,11,5.00,5.10,580.55,0.00,1.00,-5.00,0,,,80,100,0,2,0,0,0,2,2,,,,,2.2,0.0,0.0,0.0,0.0,0.0,1
55.952635,-4.403294,0.50,0.60,0.51,58.06,0.50,0.50,0.51,58.22,700,2022-10-02 10:13:11.562,2022-10-02 11:13:11.562,20,0,0,16.524,55.952637,-4.403299,0.00,0.10,-0.50,3.30,-1.40,68.40,0,1,0,98,100,-4190,3402,16524,2917.50,9,TakeOff,1,0,0,0,0,0,0,1664705591562,4288,4279,4282,4282,0,0,27,,,,,,,0,0,0,-33.00,-14.00,684.00,0.00,0.00,701.00,11,5.00,5.10,580.55,0.00,1.00,-5.00,0,,,80,100,0,2,0,0,0,2,2,,,,,2.2,0.0,0.0,0.0,0.0,0.0,1
55.952635,-4.403294,0.50,0.60,0.51,58.06,0.50,0.50,0.51,58.22,792,2022-10-02 10:13:11.654,2022-10-02 11:13:11.654,20,0,0,16.524,55.952637,-4.403299,0.00,0.10,-0.50,3.30,-1.40,68.40,0,1,0,98,100,-4190,3402,16524,2917.50,9,TakeOff,1,0,0,0,0,0,0,1664705591654,4288,4279,4282,4282,0,0,27,,,,,,,0,0,0,-33.00,-14.00,684.00,0.00,0.00,701.00,11,5.00,5.10,580.56,0.00,1.00,-5.00,0,,,80,100,0,2,0,0,0,2,2,,,,,2.2,0.0,0.0,0.0,0.0,0.0,1
55.952635,-4.403294,0.50,0.60,0.51,58.06,0.50,0.50,0.51,58.22,793,2022-10-02 10:13:11.656,2022-10-02 11:13:11.655,20,0,0,16.524,55.952637,-4.403299,0.00,0.10,-0.50,3.30,-1.40,68.40,0,1,0,98,100,-4190,3402,16524,2917.50,9,TakeOff,1,0,0,0,0,0,0,1664705591655,4288,4279,4282,4282,0,0,27,,,,,,,0,0,0,-33.00,-14.00,684.00,0.00,0.00,701.00,11,5.00,5.10,580.56,0.00,1.00,-5.00,0,,,80,100,0,2,0,0,0,2,2,,,,,2.2,0.0,0.0,0.0,0.0,0.0,1
55.952635,-4.403294,0.60,0.70,0.51,58.04,0.60,0.60,0.51,58.22,896,2022-10-02 10:13:11.759,2022-10-02 11:13:11.758,20,0,0,16.524,55.952637,-4.403299,0.00,0.10,-0.50,3.10,-1.00,68.30,0,1,0,98,100,-4190,3402,16524,2917.50,9,TakeOff,1,0,0,0,0,0,0,1664705591758,4288,4279,4282,4282,0,0,27,,,,,,,0,0,0,-31.00,-10.00,683.00,0.00,0.00,700.00,11,6.00,5.10,580.38,0.00,1.00,-5.00,0,,,80,100,0,2,0,0,0,2,2,,,,,4.3,0.0,0.0,0.0,0.0,0.0,0
55.952635,-4.403294,0.60,0.70,0.51,58.04,0.60,0.60,0.51,58.22,899,2022-10-02 10:13:11.762,2022-10-02 11:13:11.761,20,0,0,16.524,55.952637,-4.403299,0.00,0.10,-0.50,3.10,-1.00,68.30,0,1,0,98,100,-4190,3402,16524,2917.50,9,TakeOff,1,0,0,0,0,0,0,1664705591761,4288,4279,4282,4282,0,0,27,,,,,,,0,0,0,-31.00,-10.00,683.00,0.00,0.00,700.00,11,6.00,5.10,580.38,0.00,1.00,-5.00,0,,,80,100,0,2,0,0,0,2,2,,,,,4.3,0.0,0.0,0.0,0.0,0.0,0
55.952635,-4.403293,0.70,0.80,0.51,58.03,0.70,0.70,0.51,58.22,995,2022-10-02 10:13:11.857,2022-10-02 11:13:11.857,20,0,0,16.103,55.952637,-4.403299,0.00,0.10,-0.50,3.40,-1.00,68.40,0,1,0,98,100,-7248,3401,16103,2917.50,9,TakeOff,1,0,0,0,0,0,0,1664705591857,4288,4279,4282,4282,0,0,27,,,,,,,0,0,0,-34.00,-10.00,684.00,0.00,0.00,700.00,11,7.00,5.10,580.32,0.00,1.00,-5.00,0,,,80,100,0,2,0,0,0,2,2,,,,,4.3,0.0,0.0,0.0,0.0,0.0,0
55.952635,-4.403293,0.70,0.80,0.51,58.03,0.70,0.70,0.51,58.22,997,2022-10-02 10:13:11.859,2022-10-02 11:13:11.859,20,0,0,16.103,55.952637,-4.403299,0.00,0.10,-0.50,3.40,-1.00,68.40,0,1,0,98,100,-7248,3401,16103,2917.50,9,TakeOff,1,0,0,0,0,0,0,1664705591859,4288,4279,4282,4282,0,0,27,,,,,,,0,0,0,-34.00,-10.00,684.00,0.00,0.00,700.00,11,7.00,5.10,580.32,0.00,1.00,-5.00,0,,,80,100,0,2,0,0,0,2,2,,,,,4.3,0.0,0.0,0.0,0.0,0.0,0
55.952635,-4.403293,0.70,0.80,0.51,58.02,0.70,0.70,0.51,58.22,1095,2022-10-02 10:13:11.958,2022-10-02 11:13:11.957,20,0,0,16.103,55.952637,-4.403299,0.00,0.10,-0.50,3.60,-1.30,68.50,0,1,0,98,100,-7248,3401,16103,2917.50,9,TakeOff,1,0,0,0,0,0,0,1664705591957,4288,4279,4282,4282,0,0,27,,,,,,,0,0,0,-36.00,-13.00,685.00,0.00,0.00,700.00,11,7.00,5.10,580.20,0.00,1.00,-5.00,0,,,80,100,0,2,0,0,0,2,2,,,,,5.0,0.0,0.0,0.0,0.0,0.0,0
55.952635,-4.403293,0.70,0.80,0.51,58.02,0.70,0.70,0.51,58.22,1098,2022-10-02 10:13:11.960,2022-10-02 11:13:11.960,20,0,0,16.103,55.952637,-4.403299,0.00,0.10,-0.50,3.60,-1.30,68.50,0,1,0,98,100,-7248,3401,16103,2917.50,9,TakeOff,1,0,0,0,0,0,0,1664705591960,4288,4279,4282,4282,0,0,27,,,,,,,0,0,0,-36.00,-13.00,685.00,0.00,0.00,700.00,11,7.00,5.10,580.20,0.00,1.00,-5.00,0,,,80,100,0,2,0,0,0,2,2,,,,,5.0,0.0,0.0,0.0,0.0,0.0,0
55.952635,-4.403293,0.80,0.90,0.51,58.01,0.80,0.80,0.51,58.22,1198,2022-10-02 10:13:12.060,2022-10-02 11:13:12.060,20,0,0,16.103,55.952637,-4.403299,0.00,0.10,-0.50,3.80,-1.30,68.40,0,1,0,98,100,-7248,3401,16103,2917.50,9,TakeOff,1,0,0,0,0,0,0,1664705592060,4288,4279,4282,4282,0,0,27,,,,,,,0,0,0,-38.00,-13.00,684.00,0.00,0.00,700.00,11,8.00,5.10,580.09,0.00,1.00,-5.00,0,,,80,100,0,2,0,0,0,2,2,,,,,5.0,0.0,0.0,0.0,0.0,0.0,0
55.952635,-4.403293,0.80,0.90,0.51,58.01,0.80,0.80,0.51,58.22,1199,2022-10-02 10:13:12.062,2022-10-02 11:13:12.061,20,0,0,16.103,55.952637,-4.403299,0.00,0.10,-0.50,3.80,-1.30,68.40,0,1,0,98,100,-7248,3401,16103,2917.50,9,TakeOff,1,0,0,0,0,0,0,1664705592061,4288,4279,4282,4282,0,0,27,,,,,,,0,0,0,-38.00,-13.00,684.00,0.00,0.00,700.00,11,8.00,5.10,580.09,0.00,1.00,-5.00,0,,,80,100,0,2,0,0,0,2,2,,,,,5.0,0.0,0.0,0.0,0.0,0.0,0
55.952635,-4.403293,0.80,0.90,0.51,58.00,0.80,0.80,0.51,58.22,1298,2022-10-02 10:13:12.160,2022-10-02 11:13:12.160,20,0,0,16.103,55.952637,-4.403299,0.00,0.10,-0.50,3.70,-1.20,68.50,0,1,0,98,100,-7248,3401,16103,2917.50,9,TakeOff,1,0,0,0,0,0,0,1664705592160,4288,4279,4282,4282,0,0,27,,,,,,,0,0,0,-37.00,-12.00,685.00,0.00,0.00,699.00,11,8.00,5.10,579.98,0.00,1.00,-5.00,0,,,100,100,0,2,0,0,0,2,2,,,,,0.0,0.0,0.0,0.0,0.0,0.0,0
55.952635,-4.403293,0.80,0.90,0.51,58.00,0.80,0.80,0.51,58.22,1350,2022-10-02 10:13:12.212,2022-10-02 11:13:12.212,20,0,0,16.103,55.952637,-4.403299,0.00,0.10,-0.50,3.70,-1.20,68.50,0,1,0,98,100,-7248,3401,16103,2917.50,9,TakeOff,1,0,0,0,0,0,0,1664705592212,4288,4279,4282,4282,0,0,27,,,,,,,0,0,0,-37.00,-12.00,685.00,0.00,0.00,699.00,11,8.00,5.10,579.98,0.00,1.00,-5.00,0,,,100,100,0,2,0,0,0,2,2,,,,,0.0,0.0,0.0,0.0,0.0,0.0,0
55.952635,-4.403293,0.90,1.00,0.51,58.00,0.90,0.90,0.51,58.22,1393,2022-10-02 10:13:12.255,2022-10-02 11:13:12.255,20,0,0,16.103,55.952637,-4.403299,0.00,0.10,-0.50,3.50,-1.50,68.50,0,1,0,98,100,-7248,3401,16103,2917.50,9,TakeOff,1,0,0,0,0,0,0,1664705592255,4288,4279,4282,4282,0,0,27,,,,,,,0,0,0,-35.00,-15.00,685.00,0.00,0.00,699.00,11,9.00,5.10,580.05,0.00,1.00,-5.00,0,,,100,100,0,2,0,0,0,2,2,,,,,0.0,0.0,0.0,0.0,0.0,0.0,0
55.952635,-4.403293,0.90,1.00,0.51,58.00,0.90,0.90,0.51,58.22,1394,2022-10-02 10:13:12.256,2022-10-02 11:13:12.256,20,0,0,16.103,55.952637,-4.403299,0.00,0.10,-0.50,3.50,-1.50,68.50,0,1,0,98,100,-7248,3401,16103,2917.50,9,TakeOff,1,0,0,0,0,0,0,1664705592256,4288,4279,4282,4282,0,0,27,,,,,,,0,0,0,-35.00,-15.00,685.00,0.00,0.00,699.00,11,9.00,5.10,580.05,0.00,1.00,-5.00,0,,,100,100,0,2,0,0,0,2,2,,,,,0.0,0.0,0.0,0.0,0.0,0.0,0
55.952635,-4.403293,1.00,1.00,0.40,58.00,1.00,1.00,0.51,58.22,1494,2022-10-02 10:13:12.357,2022-10-02 11:13:12.357,20,0,0,16.103,55.952637,-4.403299,0.00,0.00,-0.40,3.70,-1.10,68.40,0,1,0,98,100,-7248,3401,16103,2917.50,9,TakeOff,1,0,0,0,0,0,0,1664705592356,4288,4279,4282,4282,0,0,27,,,,,,,0,0,0,-37.00,-11.00,684.00,0.00,0.00,699.00,11,10.00,4.00,579.96,0.00,0.00,-4.00,0,,,100,100,0,2,0,0,0,2,2,,,,,0.0,0.0,0.0,0.0,0.0,0.0,0
55.952635,-4.403293,1.00,1.00,0.40,58.00,1.00,1.00,0.51,58.22,1495,2022-10-02 10:13:12.357,2022-10-02 11:13:12.357,20,0,0,16.103,55.952637,-4.403299,0.00,0.00,-0.40,3.70,-1.10,68.40,0,1,0,98,100,-7248,3401,16103,2917.50,9,TakeOff,1,0,0,0,0,0,0,1664705592357,4288,4279,4282,4282,0,0,27,,,,,,,0,0,0,-37.00,-11.00,684.00,0.00,0.00,699.00,11,10.00,4.00,579.96,0.00,0.00,-4.00,0,,,100,100,0,2,0,0,0,2,2,,,,,0.0,0.0,0.0,0.0,0.0,0.0,0
55.952635,-4.403293,1.00,1.10,0.40,57.98,1.00,1.00,0.51,58.22,1591,2022-10-02 10:13:12.453,2022-10-02 11:13:12.453,20,0,0,16.103,55.952637,-4.403299,0.00,0.00,-0.40,3.70,-1.20,68.50,0,1,0,98,100,-7248,3401,16103,2917.50,9,TakeOff,1,0,0,0,0,0,0,1664705592453,4288,4279,4282,4282,0,0,27,,,,,,,0,0,0,-37.00,-12.00,685.00,0.00,0.00,699.00,6,10.00,4.00,579.81,0.00,0.00,-4.00,0,,,100,100,0,2,0,0,0,2,2,,,,,0.0,0.0,0.0,0.0,0.0,0.0,0
55.952635,-4.403293,1.00,1.10,0.40,57.98,1.00,1.00,0.51,58.22,1592,2022-10-02 10:13:12.455,2022-10-02 11:13:12.454,20,0,0,16.103,55.952637,-4.403299,0.00,0.00,-0.40,3.70,-1.20,68.50,0,1,0,98,100,-7248,3401,16103,2917.50,9,TakeOff,1,0,0,0,0,0,0,1664705592454,4288,4279,4282,4282,0,0,27,,,,,,,0,0,0,-37.00,-12.00,685.00,0.00,0.00,699.00,6,10.00,4.00,579.81,0.00,0.00,-4.00,0,,,100,100,0,2,0,0,0,2,2,,,,,0.0,0.0,0.0,0.0,0.0,0.0,0
55.952635,-4.403292,1.00,1.10,0.40,57.97,1.00,1.00,0.51,58.22,1699,2022-10-02 10:13:12.562,2022-10-02 11:13:12.561,20,0,0,16.103,55.952637,-4.403299,0.00,0.00,-0.40,3.60,-1.30,68.40,0,1,0,98,100,-7248,3401,16103,2917.50,9,P-GPS,1,0,0,0,0,0,0,1664705592561,4288,4279,4282,4282,0,0,27,,,,,,,0,0,0,-36.00,-13.00,684.00,0.00,0.00,699.00,6,10.00,4.00,579.73,0.00,0.00,-4.00,0,,,100,100,0,2,0,0,0,2,2,,,,,0.0,0.0,0.0,0.0,0.0,0.0,0
55.952635,-4.403292,1.00,1.10,0.40,57.97,1.00,1.00,0.51,58.22,1701,2022-10-02 10:13:12.563,2022-10-02 11:13:12.563,20,0,0,16.103,55.952637,-4.403299,0.00,0.00,-0.40,3.60,-1.30,68.40,0,1,0,98,100,-7248,3401,16103,2917.50,9,P-GPS,1,0,0,0,0,0,0,1664705592563,4288,4279,4282,4282,0,0,27,,,,,,,0,0,0,-36.00,-13.00,684.00,0.00,0.00,699.00,6,10.00,4.00,579.73,0.00,0.00,-4.00,0,,,100,100,0,2,0,0,0,2,2,,,,,0.0,0.0,0.0,0.0,0.0,0.0,0
55.952635,-4.403292,1.10,1.20,0.30,57.96,1.10,1.10,0.51,58.22,1794,2022-10-02 10:13:12.657,2022-10-02 11:13:12.657,20,0,0,16.103,55.952637,-4.403299,0.00,0.00,-0.30,3.80,-0.90,68.40,0,1,0,98,100,-7248,3401,16103,2917.50,9,P-GPS,1,0,0,0,0,0,0,1664705592656,4288,4279,4282,4282,0,0,27,,,,,,,0,0,0,-38.00,-9.00,684.00,0.00,0.00,699.00,6,11.00,3.00,579.58,0.00,0.00,-3.00,0,,,100,100,0,2,0,0,0,2,2,,,,,0.0,0.0,0.0,0.0,0.0,0.0,0
55.952635,-4.403292,1.10,1.20,0.30,57.96,1.10,1.10,0.51,58.22,1797,2022-10-02 10:13:12.659,2022-10-02 11:13:12.659,20,0,0,16.103,55.952637,-4.403299,0.00,0.00,-0.30,3.80,-0.90,68.40,0,1,0,98,100,-7248,3401,16103,2917.50,9,P-GPS,1,0,0,0,0,0,0,1664705592659,4288,4279,4282,4282,0,0,27,,,,,,,0,0,0,-38.00,-9.00,684.00,0.00,0.00,699.00,6,11.00,3.00,579.58,0.00,0.00,-3.00,0,,,100,100,0,2,0,0,0,2,2,,,,,0.0,0.0,0.0,0.0,0.0,0.0,0
55.952635,-4.403292,1.10,1.20,0.10,57.95,1.10,1.10,0.51,58.22,1901,2022-10-02 10:13:12.763,2022-10-02 11:13:12.763,20,0,0,16.141,55.952637,-4.403299,0.00,0.00,-0.10,3.10,-0.30,68.30,0,1,0,98,100,-6934,3399,16141,2917.50,9,P-GPS,1,0,0,0,0,0,0,1664705592763,4288,4279,4282,4282,0,0,27,,,,,,,0,0,0,-31.00,-3.00,683.00,0.00,0.00,699.00,17,11.00,1.00,579.50,0.00,0.00,-1.00,0,,,100,100,0,2,0,0,0,2,2,,,,,0.0,0.0,0.0,0.0,0.0,0.0,0
55.952635,-4.403292,1.10,1.20,0.10,57.95,1.10,1.10,0.51,58.22,1905,2022-10-02 10:13:12.768,2022-10-02 11:13:12.767,20,0,0,16.141,55.952637,-4.403299,0.00,0.00,-0.10,3.10,-0.30,68.30,0,1,0,98,100,-6934,3399,16141,2917.50,9,P-GPS,1,0,0,0,0,0,0,1664705592767,4288,4279,4282,4282,0,0,27,,,,,,,0,0,0,-31.00,-3.00,683.00,0.00,0.00,699.00,17,11.00,1.00,579.50,0.00,0.00,-1.00,0,,,100,100,0,2,0,0,0,2,2,,,,,0.0,0.0,0.0,0.0,0.0,0.0,0
55.952635,-4.403292,1.10,1.20,0.00,57.94,1.10,1.10,0.51,58.22,2093,2022-10-02 10:13:12.955,2022-10-02 11:13:12.955,20,0,0,16.141,55.952637,-4.403299,0.00,0.00,0.00,2.90,-0.90,68.40,0,1,0,98,100,-6934,3399,16141,2917.50,9,Joystick,1,0,0,0,0,0,0,1664705592955,4288,4279,4282,4282,0,0,27,,,,,,,0,0,0,-29.00,-9.00,684.00,-1.00,0.00,699.00,17,11.00,0.00,579.40,0.00,0.00,0.00,0,,,100,100,0,2,0,0,0,2,2,,,,,0.0,0.0,0.0,0.0,0.0,0.0,0
55.952635,-4.403292,1.10,1.20,0.00,57.94,1.10,1.10,0.51,58.22,2095,2022-10-02 10:13:12.957,2022-10-02 11:13:12.957,20,0,0,16.141,55.952637,-4.403299,0.00,0.00,0.00,2.90,-0.90,68.40,0,1,0,98,100,-6934,3399,16141,2917.50,9,Joystick,1,0,0,0,0,0,0,1664705592957,4288,4279,4282,4282,0,0,27,,,,,,,0,0,0,-29.00,-9.00,684.00,-1.00,0.00,699.00,17,11.00,0.00,579.40,0.00,0.00,0.00,0,,,100,100,0,2,0,0,0,2,2,,,,,0.0,0.0,0.0,0.0,0.0,0.0,0
55.952635,-4.403292,1.10,1.20,0.00,57.94,1.10,1.10,0.51,58.22,2196,2022-10-02 10:13:13.059,2022-10-02 11:13:13.058,20,0,0,16.141,55.952637,-4.403299,0.00,0.00,0.00,3.00,-1.00,68.50,0,1,0,98,100,-6934,3399,16141,2917.50,9,Joystick,1,0,0,0,0,0,0,1664705593058,4288,4279,4282,4282,0,0,27,,,,,,,0,0,0,-30.00,-10.00,685.00,-1.00,0.00,699.00,17,11.00,0.00,579.40,0.00,0.00,0.00,0,,,100,100,0,2,0,0,0,2,2,,,,,0.0,0.0,0.0,0.0,0.0,0.0,0
55.952635,-4.403292,1.10,1.20,0.00,57.94,1.10,1.10,0.51,58.22,2199,2022-10-02 10:13:13.062,2022-10-02 11:13:13.061,20,0,0,16.141,55.952637,-4.403299,0.00,0.00,0.00,3.00,-1.00,68.50,0,1,0,98,100,-6934,3399,16141,2917.50,9,Joystick,1,0,0,0,0,0,0,1664705593061,4288,4279,4282,4282,0,0,27,,,,,,,0,0,0,-30.00,-10.00,685.00,-1.00,0.00,699.00,17,11.00,0.00,579.40,0.00,0.00,0.00,0,,,100,100,0,2,0,0,0,2,2,,,,,0.0,0.0,0.0,0.0,0.0,0.0,0
55.952635,-4.403292,1.10,1.20,0.00,57.93,1.10,1.10,0.51,58.22,2296,2022-10-02 10:13:13.159,2022-10-02 11:13:13.158,20,0,0,16.141,55.952637,-4.403299,0.00,0.00,0.00,2.90,-1.10,68.50,0,1,0,98,100,-6934,3399,16141,2917.50,9,Joystick,1,0,0,0,0,0,0,1664705593158,4288,4279,4282,4282,0,0,27,,,,,,,0,0,0,-29.00,-11.00,685.00,-3.00,0.00,699.00,17,11.00,0.00,579.31,0.00,0.00,0.00,0,,,100,100,0,2,0,0,0,2,2,,,,,0.0,0.0,0.0,0.0,0.0,0.0,0
55.952635,-4.403292,1.10,1.20,0.00,57.93,1.10,1.10,0.51,58.22,2298,2022-10-02 10:13:13.161,2022-10-02 11:13:13.160,20,0,0,16.141,55.952637,-4.403299,0.00,0.00,0.00,2.90,-1.10,68.50,0,1,0,98,100,-6934,3399,16141,2917.50,9,Joystick,1,0,0,0,0,0,0,1664705593160,4288,4279,4282,4282,0,0,27,,,,,,,0,0,0,-29.00,-11.00,685.00,-3.00,0.00,699.00,17,11.00,0.00,579.31,0.00,0.00,0.00,0,,,100,100,0,2,0,0,0,2,2,,,,,0.0,0.0,0.0,0.0,0.0,0.0,0
55.952635,-4.403292,1.10,1.20,0.10,57.94,1.10,1.10,0.51,58.22,2396,2022-10-02 10:13:13.258,2022-10-02 11:13:13.258,20,0,0,16.141,55.952637,-4.403299,0.00,0.00,-0.10,2.80,-0.50,68.70,0,1,0,98,100,-6934,3399,16141,2917.50,9,Joystick,1,0,0,0,0,0,0,1664705593258,4288,4279,4282,4282,0,0,27,,,,,,,0,0,0,-28.00,-5.00,687.00,-4.00,0.00,699.00,17,11.00,1.00,579.38,0.00,0.00,-1.00,0,,,100,100,0,2,0,0,0,2,2,,,,,0.0,0.0,0.0,0.0,0.0,0.0,0
55.952635,-4.403292,1.10,1.20,0.10,57.94,1.10,1.10,0.51,58.22,2449,2022-10-02 10:13:13.311,2022-10-02 11:13:13.311,20,0,0,16.141,55.952637,-4.403299,0.00,0.00,-0.10,2.80,-0.50,68.70,0,1,0,98,100,-6934,3399,16141,2917.50,9,Joystick,1,0,0,0,0,0,0,1664705593311,4288,4279,4282,4282,0,0,27,,,,,,,0,0,0,-28.00,-5.00,687.00,-4.00,0.00,699.00,17,11.00,1.00,579.38,0.00,0.00,-1.00,0,,,100,100,0,2,0,0,0,2,2,,,,,0.0,0.0,0.0,0.0,0.0,0.0,0
55.952635,-4.403292,1.10,1.20,0.51,57.93,1.10,1.10,0.51,58.22,2499,2022-10-02 10:13:13.361,2022-10-02 11:13:13.361,20,0,0,16.141,55.952637,-4.403299,0.00,0.10,-0.50,3.00,-0.10,68.80,0,1,0,98,100,-6934,3399,16141,2917.50,9,Joystick,1,0,0,0,0,0,0,1664705593361,4288,4279,4282,4282,0,0,27,,,,,,,0,0,0,-30.00,-1.00,688.00,-6.00,0.00,699.00,17,11.00,5.10,579.31,0.00,1.00,-5.00,0,,,100,100,0,2,0,0,0,2,2,,,,,0.0,0.0,0.0,0.0,0.0,0.0,0
55.952635,-4.403292,1.10,1.20,0.51,57.93,1.10,1.10,0.51,58.22,2500,2022-10-02 10:13:13.363,2022-10-02 11:13:13.362,20,0,0,16.141,55.952637,-4.403299,0.00,0.10,-0.50,3.00,-0.10,68.80,0,1,0,98,100,-6934,3399,16141,2917.50,9,Joystick,1,0,0,0,0,0,0,1664705593362,4288,4279,4282,4282,0,0,27,,,,,,,0,0,0,-30.00,-1.00,688.00,-6.00,0.00,699.00,17,11.00,5.10,579.31,0.00,1.00,-5.00,0,,,100,100,0,2,0,0,0,2,2,,,,,0.0,0.0,0.0,0.0,0.0,0.0,0
55.952635,-4.403292,1.20,1.30,0.91,57.92,1.20,1.20,0.91,58.22,2601,2022-10-02 10:13:13.463,2022-10-02 11:13:13.463,20,0,0,16.141,55.952637,-4.403299,0.00,0.10,-0.90,3.60,-0.80,69.00,0,1,0,98,100,-6934,3399,16141,2917.50,9,Joystick,1,0,0,0,0,0,0,1664705593463,4288,4279,4282,4282,0,0,27,,,,,,,0,0,0,-36.00,-8.00,690.00,-7.00,0.00,699.00,17,12.00,9.06,579.23,0.00,1.00,-9.00,0,,,100,100,0,2,0,0,0,2,2,,,,,0.0,0.0,0.0,0.0,0.0,0.0,0
55.952635,-4.403292,1.20,1.30,0.91,57.92,1.20,1.20,0.91,58.22,2603,2022-10-02 10:13:13.465,2022-10-02 11:13:13.465,20,0,0,16.141,55.952637,-4.403299,0.00,0.10,-0.90,3.60,-0.80,69.00,0,1,0,98,100,-6934,3399,16141,2917.50,9,Joystick,1,0,0,0,0,0,0,1664705593465,4288,4279,4282,4282,0,0,27,,,,,,,0,0,0,-36.00,-8.00,690.00,-7.00,0.00,699.00,17,12.00,9.06,579.23,0.00,1.00,-9.00,0,,,100,100,0,2,0,0,0,2,2,,,,,0.0,0.0,0.0,0.0,0.0,0.0,0
55.952635,-4.403291,1.30,1.40,1.30,57.92,1.30,1.30,1.30,58.22,2699,2022-10-02 10:13:13.561,2022-10-02 11:13:13.561,20,0,0,16.141,55.952637,-4.403299,0.00,0.00,-1.30,3.50,-1.00,69.10,0,1,0,98,100,-6934,3399,16141,2917.50,9,Joystick,1,0,0,0,0,0,0,1664705593561,4288,4279,4282,4282,0,0,27,,,,,,,0,0,0,-35.00,-10.00,691.00,-7.00,0.00,699.00,17,13.00,13.00,579.17,0.00,0.00,-13.00,0,,,100,100,0,2,0,0,0,2,2,,,,,0.0,0.0,0.0,0.0,0.0,0.0,0
55.952635,-4.403291,1.30,1.40,1.30,57.92,1.30,1.30,1.30,58.22,2701,2022-10-02 10:13:13.563,2022-10-02 11:13:13.563,20,0,0,16.141,55.952637,-4.403299,0.00,0.00,-1.30,3.50,-1.00,69.10,0,1,0,98,100,-6934,3399,16141,2917.50,9,Joystick,1,0,0,0,0,0,0,1664705593563,4288,4279,4282,4282,0,0,27,,,,,,,0,0,0,-35.00,-10.00,691.00,-7.00,0.00,699.00,17,13.00,13.00,579.17,0.00,0.00,-13.00,0,,,100,100,0,2,0,0,0,2,2,,,,,0.0,0.0,0.0,0.0,0.0,0.0,0
55.952635,-4.403291,1.50,1.60,1.80,57.93,1.50,1.50,1.80,58.22,2799,2022-10-02 10:13:13.661,2022-10-02 11:13:13.661,20,0,0,16.141,55.952637,-4.403299,0.00,0.00,-1.80,3.50,-0.30,69.50,0,1,0,98,100,-6934,3399,16141,2917.50,9,Joystick,1,0,0,0,0,0,0,1664705593661,4288,4279,4282,4282,0,0,27,,,,,,,0,0,0,-35.00,-3.00,695.00,-8.00,0.00,699.00,17,15.00,18.00,579.25,0.00,0.00,-18.00,0,,,100,100,0,2,0,0,0,2,2,,,,,0.0,0.0,0.0,0.0,0.0,0.0,0
55.952635,-4.403291,1.50,1.60,1.80,57.93,1.50,1.50,1.80,58.22,2801,2022-10-02 10:13:13.664,2022-10-02 11:13:13.664,20,0,0,16.141,55.952637,-4.403299,0.00,0.00,-1.80,3.50,-0.30,69.50,0,1,0,98,100,-6934,3399,16141,2917.50,9,Joystick,1,0,0,0,0,0,0,1664705593663,4288,4279,4282,4282,0,0,27,,,,,,,0,0,0,-35.00,-3.00,695.00,-8.00,0.00,699.00,17,15.00,18.00,579.25,0.00,0.00,-18.00,0,,,100,100,0,2,0,0,0,2,2,,,,,0.0,0.0,0.0,0.0,0.0,0.0,0
55.952635,-4.403291,1.70,1.80,2.30,57.93,1.70,1.70,2.30,58.22,2887,2022-10-02 10:13:13.750,2022-10-02 11:13:13.749,20,0,0,16.141,55.952637,-4.403299,0.00,0.00,-2.30,2.90,0.00,70.20,0,1,0,98,100,-6934,3399,16141,2917.50,9,Joystick,1,0,0,0,0,0,0,1664705593749,4288,4279,4282,4282,0,0,27,,,,,,,0,0,0,-29.00,0.00,702.00,-9.00,0.00,699.00,17,17.00,23.00,579.27,0.00,0.00,-23.00,0,,,100,100,0,2,0,0,0,2,2,,,,,0.0,0.0,0.0,0.0,0.0,0.0,0
55.952635,-4.403291,1.70,1.80,2.30,57.93,1.70,1.70,2.30,58.22,2889,2022-10-02 10:13:13.751,2022-10-02 11:13:13.751,20,0,0,16.141,55.952637,-4.403299,0.00,0.00,-2.30,2.90,0.00,70.20,0,1,0,98,100,-6934,3399,16141,2917.50,9,Joystick,1,0,0,0,0,0,0,1664705593751,4288,4279,4282,4282,0,0,27,,,,,,,0,0,0,-29.00,0.00,702.00,-9.00,0.00,699.00,17,17.00,23.00,579.27,0.00,0.00,-23.00,0,,,100,100,0,2,0,0,0,2,2,,,,,0.0,0.0,0.0,0.0,0.0,0.0,0
55.952635,-4.403292,1.90,2.10,2.80,57.94,1.90,1.90,2.80,58.22,2995,2022-10-02 10:13:13.857,2022-10-02 11:13:13.857,20,0,0,16.167,55.952637,-4.403299,0.00,0.00,-2.80,2.70,0.00,71.30,0,1,0,98,100,-6414,3397,16167,2917.50,9,Joystick,1,0,0,0,0,0,0,1664705593857,4288,4279,4282,4282,0,0,27,,,,,,,0,0,0,-27.00,0.00,713.00,-10.00,0.00,700.00,17,19.00,28.00,579.42,0.00,0.00,-28.00,0,,,100,100,0,2,0,0,0,2,2,,,,,0.0,0.0,0.0,0.0,0.0,0.0,0
55.952635,-4.403292,1.90,2.10,2.80,57.94,1.90,1.90,2.80,58.22,2997,2022-10-02 10:13:13.860,2022-10-02 11:13:13.859,20,0,0,16.167,55.952637,-4.403299,0.00,0.00,-2.80,2.70,0.00,71.30,0,1,0,98,100,-6414,3397,16167,2917.50,9,Joystick,1,0,0,0,0,0,0,1664705593859,4288,4279,4282,4282,0,0,27,,,,,,,0,0,0,-27.00,0.00,713.00,-10.00,0.00,700.00,17,19.00,28.00,579.42,0.00,0.00,-28.00,0,,,100,100,0,2,0,0,0,2,2,,,,,0.0,0.0,0.0,0.0,0.0,0.0,0
55.952635,-4.403292,2.30,2.40,3.30,57.95,2.30,2.30,3.30,58.22,3098,2022-10-02 10:13:13.961,2022-10-02 11:13:13.961,20,0,0,16.167,55.952637,-4.403299,0.00,0.00,-3.30,3.60,0.40,72.00,0,1,0,98,100,-6414,3397,16167,2917.50,9,Joystick,1,0,0,0,0,0,0,1664705593960,4288,4279,4282,4282,0,0,27,,,,,,,0,0,0,-36.00,4.00,720.00,-12.00,0.00,701.00,17,23.00,33.00,579.46,0.00,0.00,-33.00,0,,,100,100,0,2,0,0,0,2,2,,,,,0.0,0.0,0.0,0.0,0.0,0.0,0
55.952635,-4.403292,2.30,2.40,3.30,57.95,2.30,2.30,3.30,58.22,3101,2022-10-02 10:13:13.963,2022-10-02 11:13:13.963,20,0,0,16.167,55.952637,-4.403299,0.00,0.00,-3.30,3.60,0.40,72.00,0,1,0,98,100,-6414,3397,16167,2917.50,9,Joystick,1,0,0,0,0,0,0,1664705593963,4288,4279,4282,4282,0,0,27,,,,,,,0,0,0,-36.00,4.00,720.00,-12.00,0.00,701.00,17,23.00,33.00,579.46,0.00,0.00,-33.00,0,,,100,100,0,2,0,0,0,2,2,,,,,0.0,0.0,0.0,0.0,0.0,0.0,0
55.952635,-4.403291,2.60,2.80,3.60,57.91,2.60,2.60,3.60,58.22,3196,2022-10-02 10:13:14.058,2022-10-02 11:13:14.058,20,0,0,16.167,55.952637,-4.403299,0.00,0.00,-3.60,4.00,0.80,72.80,0,1,0,98,100,-6414,3397,16167,2917.50,9,Joystick,1,0,0,0,0,0,0,1664705594058,4288,4279,4282,4282,0,0,27,,,,,,,0,0,0,-40.00,8.00,728.00,-13.00,0.00,705.00,17,26.00,36.00,579.13,0.00,0.00,-36.00,0,,,100,100,0,2,0,0,0,2,2,,,,,0.0,0.0,0.0,0.0,0.0,0.0,0
55.952635,-4.403291,2.60,2.80,3.60,57.91,2.60,2.60,3.60,58.22,3197,2022-10-02 10:13:14.059,2022-10-02 11:13:14.059,20,0,0,16.167,55.952637,-4.403299,0.00,0.00,-3.60,4.00,0.80,72.80,0,1,0,98,100,-6414,3397,16167,2917.50,9,Joystick,1,0,0,0,0,0,0,1664705594059,4288,4279,4282,4282,0,0,27,,,,,,,0,0,0,-40.00,8.00,728.00,-13.00,0.00,705.00,17,26.00,36.00,579.13,0.00,0.00,-36.00,0,,,100,100,0,2,0,0,0,2,2,,,,,0.0,0.0,0.0,0.0,0.0,0.0,0
55.952635,-4.403291,3.00,3.10,3.80,57.91,3.00,3.00,3.80,58.22,3300,2022-10-02 10:13:14.162,2022-10-02 11:13:14.162,20,0,0,16.167,55.952637,-4.403299,0.00,0.00,-3.80,4.50,0.50,73.90,0,1,0,98,100,-6414,3397,16167,2917.50,9,Joystick,1,0,0,0,0,0,0,1664705594162,4288,4279,4282,4282,0,0,27,,,,,,,0,0,0,-45.00,5.00,739.00,-15.00,0.00,709.00,17,30.00,38.00,579.11,0.00,0.00,-38.00,0,,,100,100,0,2,0,0,0,2,2,,,,,0.0,0.0,0.0,0.0,0.0,0.0,0
55.952635,-4.403291,3.00,3.10,3.80,57.91,3.00,3.00,3.80,58.22,3302,2022-10-02 10:13:14.165,2022-10-02 11:13:14.164,20,0,0,16.167,55.952637,-4.403299,0.00,0.00,-3.80,4.50,0.50,73.90,0,1,0,98,100,-6414,3397,16167,2917.50,9,Joystick,1,0,0,0,0,0,0,1664705594164,4288,4279,4282,4282,0,0,27,,,,,,,0,0,0,-45.00,5.00,739.00,-15.00,0.00,709.00,17,30.00,38.00,579.11,0.00,0.00,-38.00,0,,,100,100,0,2,0,0,0,2,2,,,,,0.0,0.0,0.0,0.0,0.0,0.0,0
55.952635,-4.403291,3.40,3.50,3.90,57.93,3.40,3.40,3.90,58.22,3394,2022-10-02 10:13:14.257,2022-10-02 11:13:14.256,20,0,0,16.167,55.952637,-4.403299,0.00,0.00,-3.90,5.30,-0.10,75.30,0,1,0,98,100,-6414,3397,16167,2917.50,9,Joystick,1,0,0,0,0,0,0,1664705594256,4288,4279,4282,4282,0,0,27,,,,,,,0,0,0,-53.00,-1.00,753.00,-17.00,0.00,716.00,17,34.00,39.00,579.32,0.00,0.00,-39.00,0,,,100,100,0,2,0,0,0,2,2,,,,,0.0,0.0,0.0,0.0,0.0,0.0,0
55.952635,-4.403291,3.40,3.50,3.90,57.93,3.40,3.40,3.90,58.22,3397,2022-10-02 10:13:14.260,2022-10-02 11:13:14.259,20,0,0,16.167,55.952637,-4.403299,0.00,0.00,-3.90,5.30,-0.10,75.30,0,1,0,98,100,-6414,3397,16167,2917.50,9,Joystick,1,0,0,0,0,0,0,1664705594259,4288,4279,4282,4282,0,0,27,,,,,,,0,0,0,-53.00,-1.00,753.00,-17.00,0.00,716.00,17,34.00,39.00,579.32,0.00,0.00,-39.00,0,,,100,100,0,2,0,0,0,2,2,,,,,0.0,0.0,0.0,0.0,0.0,0.0,0
55.952635,-4.403291,3.80,3.90,4.00,57.93,3.80,3.80,4.00,58.22,3501,2022-10-02 10:13:14.364,2022-10-02 11:13:14.363,20,0,0,16.167,55.952637,-4.403299,0.00,0.00,-4.00,4.90,0.60,76.90,0,1,0,98,100,-6414,3397,16167,2917.50,9,Joystick,1,0,0,0,0,0,0,1664705594363,4288,4279,4282,4282,0,0,27,,,,,,,0,0,0,-49.00,6.00,769.00,-20.00,0.00,728.00,17,38.00,40.00,579.33,0.00,0.00,-40.00,0,,,100,100,0,2,0,0,0,2,2,,,,,0.0,0.0,0.0,0.0,0.0,0.0,0
55.952635,-4.403291,3.80,3.90,4.00,57.93,3.80,3.80,4.00,58.22,3504,2022-10-02 10:13:14.366,2022-10-02 11:13:14.366,20,0,0,16.167,55.952637,-4.403299,0.00,0.00,-4.00,4.90,0.60,76.90,0,1,0,98,100,-6414,3397,16167,2917.50,9,Joystick,1,0,0,0,0,0,0,1664705594366,4288,4279,4282,4282,0,0,27,,,,,,,0,0,0,-49.00,6.00,769.00,-20.00,0.00,728.00,17,38.00,40.00,579.33,0.00,0.00,-40.00,0,,,100,100,0,2,0,0,0,2,2,,,,,0.0,0.0,0.0,0.0,0.0,0.0,0
55.952635,-4.403292,4.20,4.30,4.00,57.94,4.20,4.20,4.00,58.22,3597,2022-10-02 10:13:14.459,2022-10-02 11:13:14.459,20,0,0,16.167,55.952637,-4.403299,0.00,0.00,-4.00,4.00,0.70,78.40,0,1,0,98,100,-6414,3397,16167,2917.50,9,Joystick,1,0,0,0,0,0,0,1664705594459,4288,4279,4282,4282,0,0,27,,,,,,,0,0,0,-40.00,7.00,784.00,-22.00,0.00,743.00,17,42.00,40.00,579.37,0.00,0.00,-40.00,0,,,100,100,0,2,0,0,0,2,2,,,,,0.0,0.0,0.0,0.0,0.0,0.0,0
55.952635,-4.403292,4.20,4.30,4.00,57.94,4.20,4.20,4.00,58.22,3598,2022-10-02 10:13:14.461,2022-10-02 11:13:14.460,20,0,0,16.167,55.952637,-4.403299,0.00,0.00,-4.00,4.00,0.70,78.40,0,1,0,98,100,-6414,3397,16167,2917.50,9,Joystick,1,0,0,0,0,0,0,1664705594460,4288,4279,4282,4282,0,0,27,,,,,,,0,0,0,-40.00,7.00,784.00,-22.00,0.00,743.00,17,42.00,40.00,579.37,0.00,0.00,-40.00,0,,,100,100,0,2,0,0,0,2,2,,,,,0.0,0.0,0.0,0.0,0.0,0.0,0
55.952635,-4.403291,4.60,4.70,4.10,57.94,4.60,4.60,4.10,58.22,3700,2022-10-02 10:13:14.563,2022-10-02 11:13:14.562,20,0,0,16.167,55.952637,-4.403299,0.00,0.00,-4.10,3.70,0.70,79.90,0,1,0,98,100,-6414,3397,16167,2917.50,9,Joystick,1,0,0,0,0,0,0,1664705594562,4288,4279,4282,4282,0,0,27,,,,,,,0,0,0,-37.00,7.00,799.00,-25.00,0.00,757.00,17,46.00,41.00,579.37,0.00,0.00,-41.00,0,,,100,100,0,2,0,0,0,2,2,,,,,0.0,0.0,0.0,0.0,0.0,0.0,0
55.952635,-4.403291,4.60,4.70,4.10,57.94,4.60,4.60,4.10,58.22,3703,2022-10-02 10:13:14.566,2022-10-02 11:13:14.565,20,0,0,16.167,55.952637,-4.403299,0.00,0.00,-4.10,3.70,0.70,79.90,0,1,0,98,100,-6414,3397,16167,2917.50,9,Joystick,1,0,0,0,0,0,0,1664705594565,4288,4279,4282,4282,0,0,27,,,,,,,0,0,0,-37.00,7.00,799.00,-25.00,0.00,757.00,17,46.00,41.00,579.37,0.00,0.00,-41.00,0,,,100,100,0,2,0,0,0,2,2,,,,,0.0,0.0,0.0,0.0,0.0,0.0,0
55.952635,-4.403291,5.00,5.10,4.10,57.94,5.00,5.00,4.10,58.22,3793,2022-10-02 10:13:14.655,2022-10-02 11:13:14.655,20,0,0,16.167,55.952637,-4.403299,0.00,0.10,-4.10,4.70,-0.10,81.50,0,1,0,98,100,-6414,3397,16167,2917.50,9,Joystick,1,0,0,0,0,0,0,1664705594655,4288,4279,4282,4282,0,0,27,,,,,,,0,0,0,-47.00,-1.00,815.00,-29.00,0.00,772.00,17,50.00,41.01,579.43,0.00,1.00,-41.00,0,,,100,100,0,2,0,0,0,2,2,,,,,0.0,0.0,0.0,0.0,0.0,0.0,0
55.952635,-4.403291,5.00,5.10,4.10,57.94,5.00,5.00,4.10,58.22,3795,2022-10-02 10:13:14.658,2022-10-02 11:13:14.657,20,0,0,16.167,55.952637,-4.403299,0.00,0.10,-4.10,4.70,-0.10,81.50,0,1,0,98,100,-6414,3397,16167,2917.50,9,Joystick,1,0,0,0,0,0,0,1664705594657,4288,4279,4282,4282,0,0,27,,,,,,,0,0,0,-47.00,-1.00,815.00,-29.00,0.00,772.00,17,50.00,41.01,579.43,0.00,1.00,-41.00,0,,,100,100,0,2,0,0,0,2,2,,,,,0.0,0.0,0.0,0.0,0.0,0.0,0
55.952635,-4.403291,5.40,5.50,4.10,57.94,5.40,5.40,4.10,58.22,3893,2022-10-02 10:13:14.756,2022-10-02 11:13:14.755,20,0,0,16.167,55.952637,-4.403299,0.00,0.10,-4.10,5.80,-0.40,83.20,0,1,0,98,100,-6414,3397,16167,2917.50,9,Joystick,1,0,0,0,0,0,0,1664705594755,4288,4279,4282,4282,0,0,27,,,,,,,0,0,0,-58.00,-4.00,832.00,-32.00,0.00,789.00,17,54.00,41.01,579.40,0.00,1.00,-41.00,0,,,100,100,0,2,0,0,0,2,2,,,,,0.0,0.0,0.0,0.0,0.0,0.0,0
55.952635,-4.403291,5.40,5.50,4.10,57.94,5.40,5.40,4.10,58.22,3896,2022-10-02 10:13:14.759,2022-10-02 11:13:14.758,20,0,0,16.167,55.952637,-4.403299,0.00,0.10,-4.10,5.80,-0.40,83.20,0,1,0,98,100,-6414,3397,16167,2917.50,9,Joystick,1,0,0,0,0,0,0,1664705594758,4288,4279,4282,4282,0,0,27,,,,,,,0,0,0,-58.00,-4.00,832.00,-32.00,0.00,789.00,17,54.00,41.01,579.40,0.00,1.00,-41.00,0,,,100,100,0,2,0,0,0,2,2,,,,,0.0,0.0,0.0,0.0,0.0,0.0,0
55.952635,-4.403291,5.80,5.90,4.00,57.94,5.80,5.80,4.10,58.22,3986,2022-10-02 10:13:14.848,2022-10-02 11:13:14.848,20,0,0,15.526,55.952637,-4.403299,0.00,0.10,-4.00,6.50,-0.80,85.00,0,1,0,98,100,-12002,3395,15526,2917.50,9,Joystick,1,0,0,0,0,0,0,1664705594848,4288,4279,4282,4282,0,0,27,,,,,,,0,0,0,-65.00,-8.00,850.00,-35.00,0.00,807.00,17,58.00,40.01,579.36,0.00,1.00,-40.00,0,,,100,100,0,2,0,0,0,2,2,,,,,0.0,0.0,0.0,0.0,0.0,0.0,0
55.952635,-4.403291,5.80,5.90,4.00,57.94,5.80,5.80,4.10,58.22,3988,2022-10-02 10:13:14.850,2022-10-02 11:13:14.850,20,0,0,15.526,55.952637,-4.403299,0.00,0.10,-4.00,6.50,-0.80,85.00,0,1,0,98,100,-12002,3395,15526,2917.50,9,Joystick,1,0,0,0,0,0,0,1664705594850,4288,4279,4282,4282,0,0,27,,,,,,,0,0,0,-65.00,-8.00,850.00,-35.00,0.00,807.00,17,58.00,40.01,579.36,0.00,1.00,-40.00,0,,,100,100,0,2,0,0,0,2,2,,,,,0.0,0.0,0.0,0.0,0.0,0.0,0
55.952635,-4.403291,6.20,6.30,4.00,57.94,6.20,6.20,4.10,58.22,4094,2022-10-02 10:13:14.956,2022-10-02 11:13:14.956,20,0,0,15.526,55.952637,-4.403299,0.00,0.10,-4.00,6.80,-1.10,87.10,0,1,0,98,100,-12002,3395,15526,2917.50,9,Joystick,1,0,0,0,0,0,0,1664705594956,4288,4279,4282,4282,0,0,27,,,,,,,0,0,0,-68.00,-11.00,871.00,-39.00,0.00,827.00,17,62.00,40.01,579.36,0.00,1.00,-40.00,0,,,100,100,0,2,0,0,0,2,2,,,,,0.0,0.0,0.0,0.0,0.0,0.0,0
55.952635,-4.403291,6.20,6.30,4.00,57.94,6.20,6.20,4.10,58.22,4096,2022-10-02 10:13:14.959,2022-10-02 11:13:14.958,20,0,0,15.526,55.952637,-4.403299,0.00,0.10,-4.00,6.80,-1.10,87.10,0,1,0,98,100,-12002,3395,15526,2917.50,9,Joystick,1,0,0,0,0,0,0,1664705594958,4288,4279,4282,4282,0,0,27,,,,,,,0,0,0,-68.00,-11.00,871.00,-39.00,0.00,827.00,17,62.00,40.01,579.36,0.00,1.00,-40.00,0,,,100,100,0,2,0,0,0,2,2,,,,,0.0,0.0,0.0,0.0,0.0,0.0,0
55.952635,-4.403291,6.60,6.70,3.90,57.93,6.60,6.60,4.10,58.22,4189,2022-10-02 10:13:15.051,2022-10-02 11:13:15.051,20,0,0,15.526,55.952637,-4.403299,0.00,0.10,-3.90,6.60,-0.20,89.20,0,1,0,98,100,-12002,3395,15526,2917.50,9,Joystick,1,0,0,0,0,0,0,1664705595051,4288,4279,4282,4282,0,0,27,,,,,,,0,0,0,-66.00,-2.00,892.00,-43.00,0.00,850.00,17,66.00,39.01,579.31,0.00,1.00,-39.00,0,,,100,100,0,2,0,0,0,2,2,,,,,0.0,0.0,0.0,0.0,0.0,0.0,0
55.952635,-4.403291,6.60,6.70,3.90,57.93,6.60,6.60,4.10,58.22,4190,2022-10-02 10:13:15.053,2022-10-02 11:13:15.052,20,0,0,15.526,55.952637,-4.403299,0.00,0.10,-3.90,6.60,-0.20,89.20,0,1,0,98,100,-12002,3395,15526,2917.50,9,Joystick,1,0,0,0,0,0,0,1664705595052,4288,4279,4282,4282,0,0,27,,,,,,,0,0,0,-66.00,-2.00,892.00,-43.00,0.00,850.00,17,66.00,39.01,579.31,0.00,1.00,-39.00,0,,,100,100,0,2,0,0,0,2,2,,,,,0.0,0.0,0.0,0.0,0.0,0.0,0
55.952635,-4.403290,7.00,7.00,3.90,57.93,7.00,7.00,4.10,58.22,4289,2022-10-02 10:13:15.151,2022-10-02 11:13:15.151,20,0,0,15.526,55.952637,-4.403299,0.00,0.10,-3.90,7.20,-0.70,91.60,0,1,0,98,100,-12002,3395,15526,2917.50,9,Joystick,1,0,0,0,0,0,0,1664705595151,4288,4279,4282,4282,0,0,27,,,,,,,0,0,0,-72.00,-7.00,916.00,-46.00,0.00,870.00,17,70.00,39.01,579.34,0.00,1.00,-39.00,0,,,100,100,0,2,0,0,0,2,2,,,,,0.0,0.0,0.0,0.0,0.0,0.0,0
55.952635,-4.403290,7.00,7.00,3.90,57.93,7.00,7.00,4.10,58.22,4292,2022-10-02 10:13:15.155,2022-10-02 11:13:15.154,20,0,0,15.526,55.952637,-4.403299,0.00,0.10,-3.90,7.20,-0.70,91.60,0,1,0,98,100,-12002,3395,15526,2917.50,9,Joystick,1,0,0,0,0,0,0,1664705595154,4288,4279,4282,4282,0,0,27,,,,,,,0,0,0,-72.00,-7.00,916.00,-46.00,0.00,870.00,17,70.00,39.01,579.34,0.00,1.00,-39.00,0,,,100,100,0,2,0,0,0,2,2,,,,,0.0,0.0,0.0,0.0,0.0,0.0,0
55.952636,-4.403290,7.40,7.40,3.90,57.93,7.40,7.40,4.10,58.22,4396,2022-10-02 10:13:15.258,2022-10-02 11:13:15.258,20,0,0,15.526,55.952637,-4.403299,0.00,0.00,-3.90,6.70,-0.90,94.10,0,1,0,98,100,-12002,3395,15526,2917.50,9,Joystick,1,0,0,0,0,0,0,1664705595258,4288,4279,4282,4282,0,0,27,,,,,,,0,0,0,-67.00,-9.00,941.00,-50.00,0.00,896.00,17,74.00,39.00,579.28,0.00,0.00,-39.00,0,,,100,100,0,2,0,0,0,2,2,,,,,0.0,0.0,0.0,0.0,0.0,0.0,0
55.952636,-4.403290,7.40,7.40,3.90,57.93,7.40,7.40,4.10,58.22,4397,2022-10-02 10:13:15.259,2022-10-02 11:13:15.259,20,0,0,15.526,55.952637,-4.403299,0.00,0.00,-3.90,6.70,-0.90,94.10,0,1,0,98,100,-12002,3395,15526,2917.50,9,Joystick,1,0,0,0,0,0,0,1664705595259,4288,4279,4282,4282,0,0,27,,,,,,,0,0,0,-67.00,-9.00,941.00,-50.00,0.00,896.00,17,74.00,39.00,579.28,0.00,0.00,-39.00,0,,,100,100,0,2,0,0,0,2,2,,,,,0.0,0.0,0.0,0.0,0.0,0.0,0
55.952636,-4.403290,7.80,7.80,4.00,57.94,7.80,7.80,4.10,58.22,4487,2022-10-02 10:13:15.349,2022-10-02 11:13:15.349,20,0,0,15.526,55.952637,-4.403299,0.00,0.00,-4.00,6.00,0.10,96.50,0,1,0,98,100,-12002,3395,15526,2917.50,9,Joystick,1,0,0,0,0,0,0,1664705595349,4288,4279,4282,4282,0,0,27,,,,,,,0,0,0,-60.00,1.00,965.00,-53.00,0.00,923.00,17,78.00,40.00,579.37,0.00,0.00,-40.00,0,,,100,100,0,2,0,0,0,2,2,,,,,0.0,0.0,0.0,0.0,0.0,0.0,0
55.952636,-4.403290,7.80,7.80,4.00,57.94,7.80,7.80,4.10,58.22,4542,2022-10-02 10:13:15.404,2022-10-02 11:13:15.404,20,0,0,15.526,55.952637,-4.403299,0.00,0.00,-4.00,6.00,0.10,96.50,0,1,0,98,100,-12002,3395,15526,2917.50,9,Joystick,1,0,0,0,0,0,0,1664705595404,4288,4279,4282,4282,0,0,27,,,,,,,0,0,0,-60.00,1.00,965.00,-53.00,0.00,923.00,17,78.00,40.00,579.37,0.00,0.00,-40.00,0,,,100,100,0,2,0,0,0,2,2,,,,,0.0,0.0,0.0,0.0,0.0,0.0,0
55.952636,-4.403290,8.20,8.20,4.00,57.95,8.20,8.20,4.10,58.22,4594,2022-10-02 10:13:15.456,2022-10-02 11:13:15.456,20,0,0,15.526,55.952637,-4.403299,0.00,0.00,-4.00,5.40,0.90,98.80,0,1,0,98,100,-12002,3395,15526,2917.50,9,Joystick,1,0,0,0,0,0,0,1664705595456,4288,4279,4282,4282,0,0,27,,,,,,,0,0,0,-54.00,9.00,988.00,-57.00,0.00,946.00,17,82.00,40.00,579.54,0.00,0.00,-40.00,0,,,100,100,0,2,0,0,0,2,2,,,,,0.0,0.0,0.0,0.0,0.0,0.0,0
55.952636,-4.403290,8.20,8.20,4.00,57.95,8.20,8.20,4.10,58.22,4596,2022-10-02 10:13:15.459,2022-10-02 11:13:15.458,20,0,0,15.526,55.952637,-4.403299,0.00,0.00,-4.00,5.40,0.90,98.80,0,1,0,98,100,-12002,3395,15526,2917.50,9,Joystick,1,0,0,0,0,0,0,1664705595458,4288,4279,4282,4282,0,0,27,,,,,,,0,0,0,-54.00,9.00,988.00,-57.00,0.00,946.00,17,82.00,40.00,579.54,0.00,0.00,-40.00,0,,,100,100,0,2,0,0,0,2,2,,,,,0.0,0.0,0.0,0.0,0.0,0.0,0
55.952636,-4.403290,8.60,8.60,4.00,57.97,8.60,8.60,4.10,58.22,4694,2022-10-02 10:13:15.557,2022-10-02 11:13:15.556,20,0,0,15.526,55.952637,-4.403299,0.10,0.00,-4.00,5.20,2.00,101.00,0,1,0,98,100,-12002,3395,15526,2917.50,9,Joystick,1,0,0,0,0,0,0,1664705595556,4288,4279,4282,4282,0,0,27,,,,,,,0,0,0,-52.00,20.00,1010.00,-61.00,0.00,969.00,17,86.00,40.01,579.73,1.00,0.00,-40.00,0,,,100,100,0,2,0,0,0,2,2,,,,,0.0,0.0,0.0,0.0,0.0,0.0,0
55.952636,-4.403290,8.60,8.60,4.00,57.97,8.60,8.60,4.10,58.22,4696,2022-10-02 10:13:15.559,2022-10-02 11:13:15.558,20,0,0,15.526,55.952637,-4.403299,0.10,0.00,-4.00,5.20,2.00,101.00,0,1,0,98,100,-12002,3395,15526,2917.50,9,Joystick,1,0,0,0,0,0,0,1664705595558,4288,4279,4282,4282,0,0,27,,,,,,,0,0,0,-52.00,20.00,1010.00,-61.00,0.00,969.00,17,86.00,40.01,579.73,1.00,0.00,-40.00,0,,,100,100,0,2,0,0,0,2,2,,,,,0.0,0.0,0.0,0.0,0.0,0.0,0
55.952637,-4.403289,9.00,9.00,4.00,57.99,9.00,9.00,4.10,58.22,4792,2022-10-02 10:13:15.655,2022-10-02 11:13:15.654,20,0,0,15.526,55.952637,-4.403299,0.10,0.00,-4.00,5.50,3.10,103.30,0,1,0,98,100,-12002,3395,15526,2917.50,9,Joystick,1,0,0,0,0,0,0,1664705595654,4288,4279,4282,4282,0,0,27,,,,,,,0,0,0,-55.00,31.00,1033.00,-65.00,0.00,990.00,17,90.00,40.01,579.91,1.00,0.00,-40.00,0,,,100,100,0,2,0,0,0,2,2,,,,,0.0,0.0,0.0,0.0,0.0,0.0,0
55.952637,-4.403289,9.00,9.00,4.00,57.99,9.00,9.00,4.10,58.22,4794,2022-10-02 10:13:15.657,2022-10-02 11:13:15.656,20,0,0,15.526,55.952637,-4.403299,0.10,0.00,-4.00,5.50,3.10,103.30,0,1,0,98,100,-12002,3395,15526,2917.50,9,Joystick,1,0,0,0,0,0,0,1664705595656,4288,4279,4282,4282,0,0,27,,,,,,,0,0,0,-55.00,31.00,1033.00,-65.00,0.00,990.00,17,90.00,40.01,579.91,1.00,0.00,-40.00,0,,,100,100,0,2,0,0,0,2,2,,,,,0.0,0.0,0.0,0.0,0.0,0.0,0
55.952637,-4.403289,9.40,9.40,3.90,58.01,9.40,9.40,4.10,58.22,4889,2022-10-02 10:13:15.751,2022-10-02 11:13:15.751,20,0,0,15.526,55.952637,-4.403299,0.10,0.10,-3.90,5.80,3.90,105.60,0,1,0,98,100,-12002,3395,15526,2917.50,9,Joystick,1,0,0,0,0,0,0,1664705595751,4288,4279,4282,4282,0,0,27,,,,,,,0,0,0,-58.00,39.00,1056.00,-69.00,0.00,1010.00,17,94.00,39.03,580.08,1.00,1.00,-39.00,0,,,100,100,0,2,0,0,0,2,2,,,,,0.0,0.0,0.0,0.0,0.0,0.0,0
55.952637,-4.403289,9.40,9.40,3.90,58.01,9.40,9.40,4.10,58.22,4890,2022-10-02 10:13:15.753,2022-10-02 11:13:15.752,20,0,0,15.526,55.952637,-4.403299,0.10,0.10,-3.90,5.80,3.90,105.60,0,1,0,98,100,-12002,3395,15526,2917.50,9,Joystick,1,0,0,0,0,0,0,1664705595752,4288,4279,4282,4282,0,0,27,,,,,,,0,0,0,-58.00,39.00,1056.00,-69.00,0.00,1010.00,17,94.00,39.03,580.08,1.00,1.00,-39.00,0,,,100,100,0,2,0,0,0,2,2,,,,,0.0,0.0,0.0,0.0,0.0,0.0,0
55.952637,-4.403289,9.80,9.80,3.90,58.02,9.80,9.80,4.10,58.22,4986,2022-10-02 10:13:15.848,2022-10-02 11:13:15.848,20,0,0,15.857,55.952637,-4.403299,0.10,0.10,-3.90,5.90,4.70,107.50,0,1,0,98,100,-8036,3392,15857,2917.50,9,Joystick,1,0,0,0,0,0,0,1664705595848,4288,4279,4282,4282,0,0,27,,,,,,,0,0,0,-59.00,47.00,1075.00,-73.00,0.00,1031.00,17,98.00,39.03,580.22,1.00,1.00,-39.00,0,,,100,100,0,2,0,0,0,2,2,,,,,0.0,0.0,0.0,0.0,0.0,0.0,0
55.952637,-4.403289,9.80,9.80,3.90,58.02,9.80,9.80,4.10,58.22,4987,2022-10-02 10:13:15.849,2022-10-02 11:13:15.849,20,0,0,15.857,55.952637,-4.403299,0.10,0.10,-3.90,5.90,4.70,107.50,0,1,0,98,100,-8036,3392,15857,2917.50,9,Joystick,1,0,0,0,0,0,0,1664705595849,4288,4279,4282,4282,0,0,27,,,,,,,0,0,0,-59.00,47.00,1075.00,-73.00,0.00,1031.00,17,98.00,39.03,580.22,1.00,1.00,-39.00,0,,,100,100,0,2,0,0,0,2,2,,,,,0.0,0.0,0.0,0.0,0.0,0.0,0
55.952637,-4.403289,10.30,10.10,4.01,58.04,10.30,10.30,4.10,58.22,5088,2022-10-02 10:13:15.950,2022-10-02 11:13:15.950,20,0,0,15.857,55.952637,-4.403299,0.20,0.10,-4.00,5.90,5.50,109.40,0,1,0,98,100,-8036,3392,15857,2917.50,9,Joystick,1,0,0,0,0,0,0,1664705595950,3995,3966,3950,3946,0,0,27,,,,,,,0,0,0,-59.00,55.00,1094.00,-77.00,0.00,1049.00,17,103.00,40.06,580.37,2.00,1.00,-40.00,0,,,100,100,0,2,0,0,0,2,2,,,,,0.0,0.0,0.0,0.0,0.0,0.0,0
55.952637,-4.403289,10.30,10.10,4.01,58.04,10.30,10.30,4.10,58.22,5090,2022-10-02 10:13:15.953,2022-10-02 11:13:15.952,20,0,0,15.857,55.952637,-4.403299,0.20,0.10,-4.00,5.90,5.50,109.40,0,1,0,98,100,-8036,3392,15857,2917.50,9,Joystick,1,0,0,0,0,0,0,1664705595952,3995,3966,3950,3946,0,0,27,,,,,,,0,0,0,-59.00,55.00,1094.00,-77.00,0.00,1049.00,17,103.00,40.06,580.37,2.00,1.00,-40.00,0,,,100,100,0,2,0,0,0,2,2,,,,,0.0,0.0,0.0,0.0,0.0,0.0,0
55.952638,-4.403288,10.70,10.50,4.01,58.05,10.70,10.70,4.10,58.22,5211,2022-10-02 10:13:16.073,2022-10-02 11:13:16.073,20,0,0,15.857,55.952637,-4.403299,0.20,0.10,-4.00,5.60,6.80,111.30,0,1,0,98,100,-8036,3392,15857,2917.50,9,Joystick,1,0,0,0,0,0,0,1664705596073,3995,3966,3950,3946,0,0,27,,,,,,,0,0,0,-56.00,68.00,1113.00,-80.00,0.00,1066.00,17,107.00,40.06,580.52,2.00,1.00,-40.00,0,,,100,100,0,2,0,0,0,2,2,,,,,0.0,0.0,0.0,0.0,0.0,0.0,0
55.952638,-4.403288,10.70,10.50,4.01,58.05,10.70,10.70,4.10,58.22,5213,2022-10-02 10:13:16.075,2022-10-02 11:13:16.075,20,0,0,15.857,55.952637,-4.403299,0.20,0.10,-4.00,5.60,6.80,111.30,0,1,0,98,100,-8036,3392,15857,2917.50,9,Joystick,1,0,0,0,0,0,0,1664705596075,3995,3966,3950,3946,0,0,27,,,,,,,0,0,0,-56.00,68.00,1113.00,-80.00,0.00,1066.00,17,107.00,40.06,580.52,2.00,1.00,-40.00,0,,,100,100,0,2,0,0,0,2,2,,,,,0.0,0.0,0.0,0.0,0.0,0.0,0
55.952638,-4.403288,11.10,10.90,4.11,58.06,11.10,11.10,4.11,58.22,5309,2022-10-02 10:13:16.171,2022-10-02 11:13:16.171,20,0,0,15.857,55.952637,-4.403299,0.20,0.10,-4.10,5.50,7.60,113.00,0,1,0,98,100,-8036,3392,15857,2917.50,9,Joystick,1,0,0,0,0,0,0,1664705596171,3995,3966,3950,3946,0,0,27,,,,,,,0,0,0,-55.00,76.00,1130.00,-84.00,0.00,1083.00,17,111.00,41.06,580.60,2.00,1.00,-41.00,0,,,100,100,0,2,0,0,0,2,2,,,,,0.0,0.0,0.0,0.0,0.0,0.0,0
55.952638,-4.403288,11.10,10.90,4.11,58.06,11.10,11.10,4.11,58.22,5310,2022-10-02 10:13:16.173,2022-10-02 11:13:16.173,20,0,0,15.857,55.952637,-4.403299,0.20,0.10,-4.10,5.50,7.60,113.00,0,1,0,98,100,-8036,3392,15857,2917.50,9,Joystick,1,0,0,0,0,0,0,1664705596172,3995,3966,3950,3946,0,0,27,,,,,,,0,0,0,-55.00,76.00,1130.00,-84.00,0.00,1083.00,17,111.00,41.06,580.60,2.00,1.00,-41.00,0,,,100,100,0,2,0,0,0,2,2,,,,,0.0,0.0,0.0,0.0,0.0,0.0,0
55.952638,-4.403287,11.60,11.30,4.10,58.04,11.60,11.60,4.11,58.22,5400,2022-10-02 10:13:16.263,2022-10-02 11:13:16.262,20,0,0,15.857,55.952637,-4.403299,0.10,0.10,-4.10,5.90,7.80,114.60,0,1,0,98,100,-8036,3392,15857,2917.50,9,Joystick,1,0,0,0,0,0,0,1664705596262,3995,3966,3950,3946,0,0,27,,,,,,,0,0,0,-59.00,78.00,1146.00,-89.00,0.00,1098.00,17,116.00,41.02,580.44,1.00,1.00,-41.00,0,,,100,100,0,2,0,0,0,2,2,,,,,0.0,0.0,0.0,0.0,0.0,0.0,0
55.952638,-4.403287,11.60,11.30,4.10,58.04,11.60,11.60,4.11,58.22,5404,2022-10-02 10:13:16.266,2022-10-02 11:13:16.266,20,0,0,15.857,55.952637,-4.403299,0.10,0.10,-4.10,5.90,7.80,114.60,0,1,0,98,100,-8036,3392,15857,2917.50,9,Joystick,1,0,0,0,0,0,0,1664705596266,3995,3966,3950,3946,0,0,27,,,,,,,0,0,0,-59.00,78.00,1146.00,-89.00,0.00,1098.00,17,116.00,41.02,580.44,1.00,1.00,-41.00,0,,,100,100,0,2,0,0,0,2,2,,,,,0.0,0.0,0.0,0.0,0.0,0.0,0
55.952638,-4.403287,12.00,11.70,4.00,58.04,12.00,12.00,4.11,58.22,5501,2022-10-02 10:13:16.364,2022-10-02 11:13:16.363,20,0,0,15.857,55.952637,-4.403299,0.10,0.10,-4.00,6.00,7.70,116.00,0,1,0,98,100,-8036,3392,15857,2917.50,9,Joystick,1,0,0,0,0,0,0,1664705596363,3995,3966,3950,3946,0,0,27,,,,,,,0,0,0,-60.00,77.00,1160.00,-92.00,0.00,1113.00,17,120.00,40.02,580.38,1.00,1.00,-40.00,0,,,100,100,0,2,0,0,0,2,2,,,,,0.0,0.0,0.0,0.0,0.0,0.0,0
55.952638,-4.403287,12.00,11.70,4.00,58.04,12.00,12.00,4.11,58.22,5564,2022-10-02 10:13:16.426,2022-10-02 11:13:16.426,20,0,0,15.857,55.952637,-4.403299,0.10,0.10,-4.00,6.00,7.70,116.00,0,1,0,98,100,-8036,3392,15857,2917.50,9,Joystick,1,0,0,0,0,0,0,1664705596426,3995,3966,3950,3946,0,0,27,,,,,,,0,0,0,-60.00,77.00,1160.00,-92.00,0.00,1113.00,17,120.00,40.02,580.38,1.00,1.00,-40.00,0,,,100,100,0,2,0,0,0,2,2,,,,,0.0,0.0,0.0,0.0,0.0,0.0,0
55.952638,-4.403287,12.40,12.10,4.10,58.02,12.40,12.40,4.11,58.22,5596,2022-10-02 10:13:16.459,2022-10-02 11:13:16.458,20,0,0,15.857,55.952637,-4.403299,0.00,0.00,-4.10,5.80,7.50,117.40,0,1,0,98,100,-8036,3392,15857,2917.50,9,Joystick,1,0,0,0,0,0,0,1664705596458,3995,3966,3950,3946,0,0,27,,,,,,,0,0,0,-58.00,75.00,1174.00,-96.00,0.00,1126.00,17,124.00,41.00,580.25,0.00,0.00,-41.00,0,,,100,100,0,2,0,0,0,2,2,,,,,0.0,0.0,0.0,0.0,0.0,0.0,0
55.952638,-4.403287,12.40,12.10,4.10,58.02,12.40,12.40,4.11,58.22,5603,2022-10-02 10:13:16.465,2022-10-02 11:13:16.465,20,0,0,15.857,55.952637,-4.403299,0.00,0.00,-4.10,5.80,7.50,117.40,0,1,0,98,100,-8036,3392,15857,2917.50,9,Joystick,1,0,0,0,0,0,0,1664705596465,3995,3966,3950,3946,0,0,27,,,,,,,0,0,0,-58.00,75.00,1174.00,-96.00,0.00,1126.00,17,124.00,41.00,580.25,0.00,0.00,-41.00,0,,,100,100,0,2,0,0,0,2,2,,,,,0.0,0.0,0.0,0.0,0.0,0.0,0
55.952638,-4.403287,12.40,12.10,4.10,58.02,12.40,12.40,4.11,58.22,5685,2022-10-02 10:13:16.547,2022-10-02 11:13:16.547,20,0,0,15.857,55.952637,-4.403299,0.00,0.00,-4.10,5.80,7.50,117.40,0,1,0,98,100,-8036,3392,15857,2917.50,9,Joystick,1,0,0,0,0,0,0,1664705596547,3995,3966,3950,3946,0,0,27,,,,,,,0,0,0,-58.00,75.00,1174.00,-96.00,0.00,1126.00,17,124.00,41.00,580.25,0.00,0.00,-41.00,0,,,100,100,0,2,0,0,0,2,2,,,,,0.0,0.0,0.0,0.0,0.0,0.0,0
55.952638,-4.403287,12.40,12.10,4.10,58.02,12.40,12.40,4.11,58.22,5687,2022-10-02 10:13:16.550,2022-10-02 11:13:16.550,20,0,0,15.857,55.952637,-4.403299,0.00,0.00,-4.10,5.80,7.50,117.40,0,1,0,98,100,-8036,3392,15857,2917.50,9,Joystick,1,0,0,0,0,0,0,1664705596549,3995,3966,3950,3946,0,0,27,,,,,,,0,0,0,-58.00,75.00,1174.00,-100.00,0.00,1140.00,17,124.00,41.00,580.25,0.00,0.00,-41.00,0,,,100,100,0,2,0,0,0,2,2,,,,,0.0,0.0,0.0,0.0,0.0,0.0,0
55.952638,-4.403287,13.20,0.00,4.00,58.01,13.20,13.20,4.11,58.22,5797,2022-10-02 10:13:16.662,2022-10-02 11:13:16.659,20,0,0,15.857,55.952637,-4.403299,0.00,0.00,-4.00,5.60,6.80,120.00,0,1,0,98,100,-8036,3392,15857,2917.50,9,Joystick,1,0,0,0,0,0,0,1664705596659,3995,3966,3950,3946,0,0,27,,,,,,,0,0,0,-56.00,68.00,1200.00,-104.00,0.00,1153.00,17,132.00,40.00,580.11,0.00,0.00,-40.00,0,,,100,100,0,2,0,0,0,2,2,,,,,0.0,0.0,0.0,0.0,0.0,0.0,0
55.952638,-4.403287,13.20,0.00,4.00,58.01,13.20,13.20,4.11,58.22,5801,2022-10-02 10:13:16.664,2022-10-02 11:13:16.664,20,0,0,15.857,55.952637,-4.403299,0.00,0.00,-4.00,5.60,6.80,120.00,0,1,0,98,100,-8036,3392,15857,2917.50,9,Joystick,1,0,0,0,0,0,0,1664705596663,3995,3966,3950,3946,0,0,27,,,,,,,0,0,0,-56.00,68.00,1200.00,-104.00,0.00,1153.00,17,132.00,40.00,580.11,0.00,0.00,-40.00,0,,,100,100,0,2,0,0,0,2,2,,,,,0.0,0.0,0.0,0.0,0.0,0.0,0
55.952638,-4.403287,13.60,0.00,3.90,58.00,13.60,13.60,4.11,58.22,5895,2022-10-02 10:13:16.758,2022-10-02 11:13:16.758,20,0,0,15.857,55.952637,-4.403299,-0.10,0.00,-3.90,6.10,6.10,121.30,0,1,0,98,100,-8036,3392,15857,2917.50,9,Joystick,1,0,0,0,0,0,0,1664705596757,3995,3966,3950,3946,0,0,27,,,,,,,0,0,0,-61.00,61.00,1213.00,-108.00,0.00,1166.00,17,136.00,39.01,579.96,-1.00,0.00,-39.00,0,,,100,100,0,2,0,0,0,2,2,,,,,0.0,0.0,0.0,0.0,0.0,0.0,0
55.952638,-4.403287,13.60,0.00,3.90,58.00,13.60,13.60,4.11,58.22,5897,2022-10-02 10:13:16.759,2022-10-02 11:13:16.759,20,0,0,15.857,55.952637,-4.403299,-0.10,0.00,-3.90,6.10,6.10,121.30,0,1,0,98,100,-8036,3392,15857,2917.50,9,Joystick,1,0,0,0,0,0,0,1664705596759,3995,3966,3950,3946,0,0,27,,,,,,,0,0,0,-61.00,61.00,1213.00,-108.00,0.00,1166.00,17,136.00,39.01,579.96,-1.00,0.00,-39.00,0,,,100,100,0,2,0,0,0,2,2,,,,,0.0,0.0,0.0,0.0,0.0,0.0,0
55.952638,-4.403287,14.00,0.00,3.90,57.97,14.00,14.00,4.11,58.22,5995,2022-10-02 10:13:16.858,2022-10-02 11:13:16.857,20,0,0,15.905,55.952637,-4.403299,-0.10,0.00,-3.90,5.70,5.00,122.30,0,1,0,98,100,-7933,3387,15905,2918.50,9,Joystick,1,0,0,0,0,0,0,1664705596857,3995,3966,3950,3946,0,0,27,,,,,,,0,0,0,-57.00,50.00,1223.00,-112.00,0.00,1179.00,17,140.00,39.01,579.75,-1.00,0.00,-39.00,0,,,100,100,0,2,0,0,0,2,2,,,,,0.0,0.0,0.0,0.0,0.0,0.0,0
55.952638,-4.403287,14.00,0.00,3.90,57.97,14.00,14.00,4.11,58.22,5997,2022-10-02 10:13:16.860,2022-10-02 11:13:16.859,20,0,0,15.905,55.952637,-4.403299,-0.10,0.00,-3.90,5.70,5.00,122.30,0,1,0,98,100,-7933,3387,15905,2918.50,9,Joystick,1,0,0,0,0,0,0,1664705596859,3995,3966,3950,3946,0,0,27,,,,,,,0,0,0,-57.00,50.00,1223.00,-112.00,0.00,1179.00,17,140.00,39.01,579.75,-1.00,0.00,-39.00,0,,,100,100,0,2,0,0,0,2,2,,,,,0.0,0.0,0.0,0.0,0.0,0.0,0
55.952637,-4.403287,14.40,0.00,3.80,57.96,14.40,14.40,4.11,58.22,6097,2022-10-02 10:13:16.959,2022-10-02 11:13:16.959,20,0,0,15.905,55.952637,-4.403299,-0.10,0.00,-3.80,5.20,4.00,123.50,0,1,0,98,100,-7933,3387,15905,2918.50,9,Joystick,1,0,0,0,0,0,0,1664705596959,3995,3966,3950,3946,0,0,27,,,,,,,0,0,0,-52.00,40.00,1235.00,-116.00,0.00,1191.00,17,144.00,38.01,579.58,-1.00,0.00,-38.00,0,,,100,100,0,2,0,0,0,2,2,,,,,0.0,0.0,0.0,0.0,0.0,0.0,0
55.952637,-4.403287,14.40,0.00,3.80,57.96,14.40,14.40,4.11,58.22,6102,2022-10-02 10:13:16.964,2022-10-02 11:13:16.964,20,0,0,15.905,55.952637,-4.403299,-0.10,0.00,-3.80,5.20,4.00,123.50,0,1,0,98,100,-7933,3387,15905,2918.50,9,Joystick,1,0,0,0,0,0,0,1664705596964,3995,3966,3950,3946,0,0,27,,,,,,,0,0,0,-52.00,40.00,1235.00,-116.00,0.00,1191.00,17,144.00,38.01,579.58,-1.00,0.00,-38.00,0,,,100,100,0,2,0,0,0,2,2,,,,,0.0,0.0,0.0,0.0,0.0,0.0,0
55.952637,-4.403287,14.80,0.00,3.90,57.96,14.80,14.80,4.11,58.22,6192,2022-10-02 10:13:17.054,2022-10-02 11:13:17.054,20,0,0,15.905,55.952637,-4.403299,-0.10,-0.10,-3.90,4.40,3.20,124.50,0,1,0,98,100,-7933,3387,15905,2918.50,9,Joystick,1,0,0,0,0,0,0,1664705597054,3995,3966,3950,3946,0,0,27,,,,,,,0,0,0,-44.00,32.00,1245.00,-120.00,0.00,1202.00,17,148.00,39.03,579.58,-1.00,-1.00,-39.00,0,,,100,100,0,2,0,0,0,2,2,,,,,0.0,0.0,0.0,0.0,0.0,0.0,0
55.952637,-4.403287,14.80,0.00,3.90,57.96,14.80,14.80,4.11,58.22,6193,2022-10-02 10:13:17.056,2022-10-02 11:13:17.055,20,0,0,15.905,55.952637,-4.403299,-0.10,-0.10,-3.90,4.40,3.20,124.50,0,1,0,98,100,-7933,3387,15905,2918.50,9,Joystick,1,0,0,0,0,0,0,1664705597055,3995,3966,3950,3946,0,0,27,,,,,,,0,0,0,-44.00,32.00,1245.00,-120.00,0.00,1202.00,17,148.00,39.03,579.58,-1.00,-1.00,-39.00,0,,,100,100,0,2,0,0,0,2,2,,,,,0.0,0.0,0.0,0.0,0.0,0.0,0
55.952637,-4.403287,15.20,0.00,3.91,57.94,15.20,15.20,4.11,58.22,6292,2022-10-02 10:13:17.154,2022-10-02 11:13:17.154,20,0,0,15.905,55.952637,-4.403299,-0.20,-0.10,-3.90,4.50,2.80,125.70,0,1,0,98,100,-7933,3387,15905,2918.50,9,Joystick,1,0,0,0,0,0,0,1664705597154,3995,3966,3950,3946,0,0,27,,,,,,,0,0,0,-45.00,28.00,1257.00,-124.00,0.00,1212.00,17,152.00,39.06,579.44,-2.00,-1.00,-39.00,0,,,100,100,0,2,0,0,0,2,2,,,,,0.0,0.0,0.0,0.0,0.0,0.0,0
55.952637,-4.403287,15.20,0.00,3.91,57.94,15.20,15.20,4.11,58.22,6293,2022-10-02 10:13:17.156,2022-10-02 11:13:17.155,20,0,0,15.905,55.952637,-4.403299,-0.20,-0.10,-3.90,4.50,2.80,125.70,0,1,0,98,100,-7933,3387,15905,2918.50,9,Joystick,1,0,0,0,0,0,0,1664705597155,3995,3966,3950,3946,0,0,27,,,,,,,0,0,0,-45.00,28.00,1257.00,-124.00,0.00,1212.00,17,152.00,39.06,579.44,-2.00,-1.00,-39.00,0,,,100,100,0,2,0,0,0,2,2,,,,,0.0,0.0,0.0,0.0,0.0,0.0,0
55.952637,-4.403288,15.60,0.00,3.91,57.94,15.60,15.60,4.11,58.22,6393,2022-10-02 10:13:17.255,2022-10-02 11:13:17.255,20,0,0,15.905,55.952637,-4.403299,-0.20,-0.10,-3.90,4.60,2.20,126.70,0,1,0,98,100,-7933,3387,15905,2918.50,9,Joystick,1,0,0,0,0,0,0,1664705597255,3995,3966,3950,3946,0,0,27,,,,,,,0,0,0,-46.00,22.00,1267.00,-128.00,0.00,1221.00,17,156.00,39.06,579.42,-2.00,-1.00,-39.00,0,,,100,100,0,2,0,0,0,2,2,,,,,0.0,0.0,0.0,0.0,0.0,0.0,0
55.952637,-4.403288,15.60,0.00,3.91,57.94,15.60,15.60,4.11,58.22,6394,2022-10-02 10:13:17.257,2022-10-02 11:13:17.256,20,0,0,15.905,55.952637,-4.403299,-0.20,-0.10,-3.90,4.60,2.20,126.70,0,1,0,98,100,-7933,3387,15905,2918.50,9,Joystick,1,0,0,0,0,0,0,1664705597256,3995,3966,3950,3946,0,0,27,,,,,,,0,0,0,-46.00,22.00,1267.00,-128.00,0.00,1221.00,17,156.00,39.06,579.42,-2.00,-1.00,-39.00,0,,,100,100,0,2,0,0,0,2,2,,,,,0.0,0.0,0.0,0.0,0.0,0.0,0
55.952637,-4.403288,16.00,0.00,3.91,57.93,16.00,16.00,4.11,58.22,6489,2022-10-02 10:13:17.352,2022-10-02 11:13:17.351,20,0,0,15.905,55.952637,-4.403299,-0.20,-0.10,-3.90,4.40,1.90,127.50,0,1,0,98,100,-7933,3387,15905,2918.50,9,Joystick,1,0,0,0,0,0,0,1664705597351,3995,3966,3950,3946,0,0,27,,,,,,,0,0,0,-44.00,19.00,1275.00,-131.00,0.00,1230.00,17,160.00,39.06,579.30,-2.00,-1.00,-39.00,0,,,100,100,0,2,0,0,0,2,2,,,,,0.0,0.0,0.0,0.0,0.0,0.0,0
55.952637,-4.403288,16.00,0.00,3.91,57.93,16.00,16.00,4.11,58.22,6491,2022-10-02 10:13:17.353,2022-10-02 11:13:17.353,20,0,0,15.905,55.952637,-4.403299,-0.20,-0.10,-3.90,4.40,1.90,127.50,0,1,0,98,100,-7933,3387,15905,2918.50,9,Joystick,1,0,0,0,0,0,0,1664705597353,3995,3966,3950,3946,0,0,27,,,,,,,0,0,0,-44.00,19.00,1275.00,-131.00,0.00,1230.00,17,160.00,39.06,579.30,-2.00,-1.00,-39.00,0,,,100,100,0,2,0,0,0,2,2,,,,,0.0,0.0,0.0,0.0,0.0,0.0,0
55.952636,-4.403289,16.40,0.00,4.00,57.95,16.40,16.40,4.11,58.22,6592,2022-10-02 10:13:17.455,2022-10-02 11:13:17.454,20,0,0,15.905,55.952637,-4.403299,-0.10,-0.10,-4.00,4.50,2.00,128.30,0,1,0,98,100,-7933,3387,15905,2918.50,9,Joystick,1,0,0,0,0,0,0,1664705597454,3995,3966,3950,3946,0,0,27,,,,,,,0,0,0,-45.00,20.00,1283.00,-135.00,0.00,1238.00,17,164.00,40.02,579.48,-1.00,-1.00,-40.00,0,,,100,100,0,2,0,0,0,2,2,,,,,0.0,0.0,0.0,0.0,0.0,0.0,0
55.952636,-4.403289,16.40,0.00,4.00,57.95,16.40,16.40,4.11,58.22,6651,2022-10-02 10:13:17.513,2022-10-02 11:13:17.513,20,0,0,15.905,55.952637,-4.403299,-0.10,-0.10,-4.00,4.50,2.00,128.30,0,1,0,98,100,-7933,3387,15905,2918.50,9,Joystick,1,0,0,0,0,0,0,1664705597513,3995,3966,3950,3946,0,0,27,,,,,,,0,0,0,-45.00,20.00,1283.00,-135.00,0.00,1238.00,17,164.00,40.02,579.48,-1.00,-1.00,-40.00,0,,,100,100,0,2,0,0,0,2,2,,,,,0.0,0.0,0.0,0.0,0.0,0.0,0
55.952636,-4.403289,16.80,0.00,4.00,57.94,16.80,16.80,4.11,58.22,6697,2022-10-02 10:13:17.559,2022-10-02 11:13:17.559,20,0,0,15.905,55.952637,-4.403299,-0.10,-0.10,-4.00,4.10,2.00,129.00,0,1,0,98,100,-7933,3387,15905,2918.50,9,Joystick,1,0,0,0,0,0,0,1664705597559,3995,3966,3950,3946,0,0,27,,,,,,,0,0,0,-41.00,20.00,1290.00,-139.00,0.00,1245.00,17,168.00,40.02,579.40,-1.00,-1.00,-40.00,0,,,100,100,0,2,0,0,0,2,2,,,,,0.0,0.0,0.0,0.0,0.0,0.0,0
55.952636,-4.403289,16.80,0.00,4.00,57.94,16.80,16.80,4.11,58.22,6699,2022-10-02 10:13:17.561,2022-10-02 11:13:17.561,20,0,0,15.905,55.952637,-4.403299,-0.10,-0.10,-4.00,4.10,2.00,129.00,0,1,0,98,100,-7933,3387,15905,2918.50,9,Joystick,1,0,0,0,0,0,0,1664705597561,3995,3966,3950,3946,0,0,27,,,,,,,0,0,0,-41.00,20.00,1290.00,-139.00,0.00,1245.00,17,168.00,40.02,579.40,-1.00,-1.00,-40.00,0,,,100,100,0,2,0,0,0,2,2,,,,,0.0,0.0,0.0,0.0,0.0,0.0,0
55.952636,-4.403290,17.20,0.00,4.00,57.95,17.20,17.20,4.11,58.22,6790,2022-10-02 10:13:17.652,2022-10-02 11:13:17.652,20,0,0,15.905,55.952637,-4.403299,-0.10,-0.10,-4.00,3.60,2.10,129.70,0,1,0,98,100,-7933,3387,15905,2918.50,9,Joystick,1,0,0,0,0,0,0,1664705597652,3995,3966,3950,3946,0,0,27,,,,,,,0,0,0,-36.00,21.00,1297.00,-143.00,0.00,1251.00,17,172.00,40.02,579.55,-1.00,-1.00,-40.00,0,,,100,100,0,2,0,0,0,2,2,,,,,0.0,0.0,0.0,0.0,0.0,0.0,0
55.952636,-4.403290,17.20,0.00,4.00,57.95,17.20,17.20,4.11,58.22,6791,2022-10-02 10:13:17.653,2022-10-02 11:13:17.653,20,0,0,15.905,55.952637,-4.403299,-0.10,-0.10,-4.00,3.60,2.10,129.70,0,1,0,98,100,-7933,3387,15905,2918.50,9,Joystick,1,0,0,0,0,0,0,1664705597653,3995,3966,3950,3946,0,0,27,,,,,,,0,0,0,-36.00,21.00,1297.00,-143.00,0.00,1251.00,17,172.00,40.02,579.55,-1.00,-1.00,-40.00,0,,,100,100,0,2,0,0,0,2,2,,,,,0.0,0.0,0.0,0.0,0.0,0.0,0
