latitude,longitude,altitude(m),ultrasonicHeight(m),speed(mps),distance(m),max_altitude(m),max_ascent(m),max_speed(mps),max_distance(m),time(millisecond),datetime(utc),datetime(local),satellites,pressure(Pa),temperature(F),voltage(v),home_latitude,home_longitude,velocityX(mps),velocityY(mps),velocityZ(mps),pitch(deg),roll(deg),yaw(deg),powerlevel,isflying,istakingphoto,remainPowerPercent,remainLifePercent,currentCurrent,currentElectricity,currentVoltage,batteryTemperature,dischargeCount,flightmode,isMotorsOn,isTakingVideo,Rc_elevator,Rc_aileron,Rc_throttle,Rc_rudder,Rc_gyro,timestamp,Battery_Cell1,Battery_Cell2,Battery_Cell3,Battery_Cell4,Battery_Cell5,Battery_Cell6,Dronetype,AppVersion,Planename,FlyControllerSerialNumber,RemoteSerialNumber,BatterySerialNumber,CENTER_BATTERY.productDate,CENTER_BATTERY.serialNo,CENTER_BATTERY.fullCapacity,CENTER_BATTERY.productDateRaw,pitchRaw,rollRaw,yawRaw,gimbalPitchRaw,gimbalRollRaw,gimbalYawRaw,flyState,altitudeRaw,speedRaw,distanceRaw,velocityXRaw,velocityYRaw,velocityZRaw,data_reuse,App_Tip,App_Warning,downlinkSignalQuality,uplinkSignalQuality,transmissionChannel,rcModeSwitch,rcHome,rcPause,rcTransform,rcJoystickMode,appMode,FlyControllerSerialNumber_legacy,RemoteSerialNumber_legacy,BatterySerialNumber_legacy,Battery2SerialNumber,frontAvoidDist,backAvoidDist,rightAvoidDist,leftAvoidDist,upAvoidDist,downAvoidDist,isBrakingToAvoid
55.958061,-4.409704,89.60,0.00,0.00,43.41,89.60,89.60,0.00,43.41,0,2022-06-25 09:55:36.668,2022-06-25 10:55:36.667,13,0,0,14.735,55.958177,-4.409041,0.00,0.00,0.00,-5.20,14.10,98.90,0,1,0,56,100,-6887,1903,14735,2983.50,8,P-GPS,1,0,0,0,0,0,0,1656150936667,3697,3712,3711,3726,0,0,27,Litchi_4.24.1-g,CJTMAVIC,163DFAS001K45C,0VECFAK0072T52,0P2AFAL5340E87,,0,0,0,52.00,141.00,989.00,0.00,0.00,981.00,6,896.00,0.00,434.12,0.00,0.00,0.00,0,,,80,80,0,2,0,0,0,2,0,,,,null,0.0,0.0,0.0,0.0,0.0,0.0,0
55.958061,-4.409704,89.60,0.00,0.00,43.43,89.60,89.60,0.00,43.43,117,2022-06-25 09:55:36.784,2022-06-25 10:55:36.784,13,0,0,14.735,55.958177,-4.409041,0.00,0.00,0.00,-5.30,14.10,98.90,0,1,0,56,100,-6887,1903,14735,2983.50,8,P-GPS,1,0,0,0,0,0,0,1656150936784,3697,3712,3711,3726,0,0,27,,,,,,,0,0,0,53.00,141.00,989.00,0.00,0.00,981.00,6,896.00,0.00,434.25,0.00,0.00,0.00,0,,,80,80,0,2,0,0,0,2,0,,,,,0.0,0.0,0.0,0.0,0.0,0.0,0
55.958061,-4.409704,89.60,0.00,0.00,43.43,89.60,89.60,0.00,43.43,214,2022-06-25 09:55:36.881,2022-06-25 10:55:36.881,13,0,0,14.735,55.958177,-4.409041,0.00,0.00,0.00,-5.30,14.10,98.90,0,1,0,56,100,-6887,1903,14735,2983.50,8,P-GPS,1,0,0,0,0,0,0,1656150936881,3697,3712,3711,3726,0,0,27,,,,,,,0,0,0,53.00,141.00,989.00,0.00,0.00,981.00,6,896.00,0.00,434.26,0.00,0.00,0.00,0,,,80,80,0,2,0,0,0,2,0,,,,,0.0,0.0,0.0,0.0,0.0,0.0,0
55.958061,-4.409704,89.60,0.00,0.00,43.42,89.60,89.60,0.00,43.43,305,2022-06-25 09:55:36.972,2022-06-25 10:55:36.972,13,0,0,14.735,55.958177,-4.409041,0.00,0.00,0.00,-5.20,14.30,98.90,0,1,0,56,100,-6887,1903,14735,2983.50,8,P-GPS,1,0,0,0,0,0,0,1656150936972,3697,3712,3711,3726,0,0,27,,,,,,,0,0,0,52.00,143.00,989.00,0.00,0.00,981.00,6,896.00,0.00,434.21,0.00,0.00,0.00,0,,,80,80,0,2,0,0,0,2,0,,,,,0.0,0.0,0.0,0.0,0.0,0.0,0
55.958061,-4.409704,89.60,0.00,0.00,43.42,89.60,89.60,0.00,43.43,426,2022-06-25 09:55:37.094,2022-06-25 10:55:37.093,13,0,0,14.735,55.958177,-4.409041,0.00,0.00,0.00,-5.40,14.40,98.80,0,1,0,56,100,-6887,1903,14735,2983.50,8,P-GPS,1,0,0,0,0,0,0,1656150937093,3697,3712,3711,3726,0,0,27,,,,,,,0,0,0,54.00,144.00,988.00,0.00,0.00,981.00,6,896.00,0.00,434.21,0.00,0.00,0.00,0,,,80,80,0,2,0,0,0,2,0,,,,,0.0,0.0,0.0,0.0,0.0,0.0,0
55.958061,-4.409705,89.60,0.00,0.00,43.44,89.60,89.60,0.00,43.44,535,2022-06-25 09:55:37.203,2022-06-25 10:55:37.202,13,0,0,14.735,55.958177,-4.409041,0.00,0.00,0.00,-5.40,14.20,98.90,0,1,0,56,100,-6887,1903,14735,2983.50,8,P-GPS,1,0,0,0,0,0,0,1656150937202,3697,3712,3711,3726,0,0,27,,,,,,,0,0,0,54.00,142.00,989.00,0.00,0.00,981.00,6,896.00,0.00,434.40,0.00,0.00,0.00,0,,,80,80,0,2,0,0,0,2,0,,,,,0.0,0.0,0.0,0.0,0.0,0.0,0
55.958061,-4.409705,89.60,0.00,0.00,43.44,89.60,89.60,0.00,43.44,615,2022-06-25 09:55:37.283,2022-06-25 10:55:37.282,13,0,0,14.735,55.958177,-4.409041,0.00,0.00,0.00,-5.50,14.30,98.90,0,1,0,56,100,-6887,1903,14735,2983.50,8,P-GPS,1,0,0,0,0,0,0,1656150937282,3697,3712,3711,3726,0,0,27,,,,,,,0,0,0,55.00,143.00,989.00,0.00,0.00,981.00,6,896.00,0.00,434.42,0.00,0.00,0.00,0,,,80,80,0,2,0,0,0,2,0,,,,,0.0,0.0,0.0,0.0,0.0,0.0,0
55.958061,-4.409705,89.60,0.00,0.00,43.45,89.60,89.60,0.00,43.45,712,2022-06-25 09:55:37.379,2022-06-25 10:55:37.379,13,0,0,14.716,55.958177,-4.409041,0.00,0.00,0.00,-5.70,14.60,98.80,0,1,0,56,100,-7061,1901,14716,2983.50,8,P-GPS,1,0,0,0,0,0,0,1656150937379,3697,3712,3711,3726,0,0,27,,,,,,,0,0,0,57.00,146.00,988.00,0.00,0.00,981.00,6,896.00,0.00,434.48,0.00,0.00,0.00,0,,,80,80,0,2,0,0,0,2,0,,,,,0.0,0.0,0.0,0.0,0.0,0.0,0
55.958061,-4.409705,89.60,0.00,0.00,43.45,89.60,89.60,0.00,43.45,813,2022-06-25 09:55:37.480,2022-06-25 10:55:37.480,13,0,0,14.716,55.958177,-4.409041,0.00,0.00,0.00,-5.70,14.90,98.80,0,1,0,56,100,-7061,1901,14716,2983.50,8,P-GPS,1,0,0,0,0,0,0,1656150937480,3697,3712,3711,3726,0,0,27,,,,,,,0,0,0,57.00,149.00,988.00,0.00,0.00,981.00,6,896.00,0.00,434.49,0.00,0.00,0.00,0,,,80,80,0,2,0,0,0,2,0,,,,,0.0,0.0,0.0,0.0,0.0,0.0,0
55.958061,-4.409705,89.60,0.00,0.00,43.46,89.60,89.60,0.00,43.46,915,2022-06-25 09:55:37.583,2022-06-25 10:55:37.582,13,0,0,14.716,55.958177,-4.409041,0.00,0.00,0.00,-5.70,15.10,98.80,0,1,0,56,100,-7061,1901,14716,2983.50,8,P-GPS,1,0,0,0,0,0,0,1656150937582,3697,3712,3711,3726,0,0,27,,,,,,,0,0,0,57.00,151.00,988.00,0.00,0.00,981.00,6,896.00,0.00,434.56,0.00,0.00,0.00,0,,,80,80,0,2,0,0,0,2,0,,,,,0.0,0.0,0.0,0.0,0.0,0.0,0
55.958061,-4.409705,89.60,0.00,0.00,43.46,89.60,89.60,0.00,43.46,1012,2022-06-25 09:55:37.679,2022-06-25 10:55:37.679,13,0,0,14.716,55.958177,-4.409041,0.00,0.00,0.00,-5.70,15.50,98.80,0,1,0,56,100,-7061,1901,14716,2983.50,8,P-GPS,1,0,0,0,0,0,0,1656150937679,3697,3712,3711,3726,0,0,27,,,,,,,0,0,0,57.00,155.00,988.00,0.00,0.00,981.00,6,896.00,0.00,434.55,0.00,0.00,0.00,0,,,80,80,0,2,0,0,0,2,0,,,,,0.0,0.0,0.0,0.0,0.0,0.0,0
55.958061,-4.409705,89.60,0.00,0.00,43.45,89.60,89.60,0.00,43.46,1113,2022-06-25 09:55:37.780,2022-06-25 10:55:37.780,13,0,0,14.716,55.958177,-4.409041,0.00,0.00,0.00,-5.60,16.00,98.80,0,1,0,56,100,-7061,1901,14716,2983.50,8,P-GPS,1,0,0,0,0,0,0,1656150937780,3697,3712,3711,3726,0,0,27,,,,,,,0,0,0,56.00,160.00,988.00,0.00,0.00,981.00,6,896.00,0.00,434.51,0.00,0.00,0.00,0,,,80,80,0,2,0,0,0,2,0,,,,,0.0,0.0,0.0,0.0,0.0,0.0,0
55.958062,-4.409705,89.60,0.00,0.00,43.45,89.60,89.60,0.00,43.46,1224,2022-06-25 09:55:37.891,2022-06-25 10:55:37.891,13,0,0,14.716,55.958177,-4.409041,0.00,0.00,0.00,-5.40,16.30,98.90,0,1,0,56,100,-7061,1901,14716,2983.50,8,P-GPS,1,0,0,0,0,0,0,1656150937891,3697,3712,3711,3726,0,0,27,,,,,,,0,0,0,54.00,163.00,989.00,0.00,0.00,981.00,6,896.00,0.00,434.48,0.00,0.00,0.00,0,,,80,80,0,2,0,0,0,2,0,,,,,0.0,0.0,0.0,0.0,0.0,0.0,0
55.958062,-4.409705,89.60,0.00,0.00,43.45,89.60,89.60,0.00,43.46,1312,2022-06-25 09:55:37.979,2022-06-25 10:55:37.979,13,0,0,14.716,55.958177,-4.409041,0.00,0.00,0.00,-5.40,16.20,98.80,0,1,0,56,100,-7061,1901,14716,2983.50,8,P-GPS,1,0,0,0,0,0,0,1656150937979,3697,3712,3711,3726,0,0,27,,,,,,,0,0,0,54.00,162.00,988.00,0.00,0.00,981.00,6,896.00,0.00,434.49,0.00,0.00,0.00,0,,,80,80,0,2,0,0,0,2,0,,,,,0.0,0.0,0.0,0.0,0.0,0.0,0
55.958062,-4.409705,89.60,0.00,0.00,43.45,89.60,89.60,0.00,43.46,1409,2022-06-25 09:55:38.076,2022-06-25 10:55:38.076,13,0,0,14.716,55.958177,-4.409041,0.00,0.00,0.00,-5.40,16.30,98.80,0,1,0,56,100,-7061,1901,14716,2983.50,8,P-GPS,1,0,0,0,0,0,0,1656150938076,3697,3712,3711,3726,0,0,27,,,,,,,0,0,0,54.00,163.00,988.00,0.00,0.00,981.00,6,896.00,0.00,434.48,0.00,0.00,0.00,0,,,80,80,0,2,0,0,0,2,0,,,,,0.0,0.0,0.0,0.0,0.0,0.0,0
55.958062,-4.409705,89.60,0.00,0.00,43.44,89.60,89.60,0.00,43.46,1523,2022-06-25 09:55:38.191,2022-06-25 10:55:38.190,13,0,0,14.716,55.958177,-4.409041,0.00,0.00,0.00,-5.50,16.20,98.80,0,1,0,56,100,-7061,1901,14716,2983.50,8,P-GPS,1,0,0,0,0,0,0,1656150938190,3697,3712,3711,3726,0,0,27,,,,,,,0,0,0,55.00,162.00,988.00,0.00,0.00,981.00,6,896.00,0.00,434.40,0.00,0.00,0.00,0,,,80,80,0,2,0,0,0,2,0,,,,,0.0,0.0,0.0,0.0,0.0,0.0,0
55.958062,-4.409705,89.60,0.00,0.00,43.44,89.60,89.60,0.00,43.46,1613,2022-06-25 09:55:38.281,2022-06-25 10:55:38.280,13,0,0,14.716,55.958177,-4.409041,0.00,0.00,0.00,-5.60,16.40,98.70,0,1,0,56,100,-7061,1901,14716,2983.50,8,P-GPS,1,0,0,0,0,0,0,1656150938280,3697,3712,3711,3726,0,0,27,,,,,,,0,0,0,56.00,164.00,987.00,0.00,0.00,981.00,6,896.00,0.00,434.38,0.00,0.00,0.00,0,,,80,80,0,2,0,0,0,2,0,,,,,0.0,0.0,0.0,0.0,0.0,0.0,0
55.958062,-4.409705,89.60,0.00,0.00,43.43,89.60,89.60,0.00,43.46,1705,2022-06-25 09:55:38.373,2022-06-25 10:55:38.372,13,0,0,14.646,55.958177,-4.409041,0.00,0.00,0.00,-5.30,16.50,98.80,0,1,0,56,100,-7464,1899,14646,2984.50,8,P-GPS,1,0,0,0,0,0,0,1656150938372,3697,3712,3711,3726,0,0,27,,,,,,,0,0,0,53.00,165.00,988.00,0.00,0.00,981.00,6,896.00,0.00,434.27,0.00,0.00,0.00,0,,,80,80,0,2,0,0,0,2,0,,,,,0.0,0.0,0.0,0.0,0.0,0.0,0
55.958062,-4.409705,89.60,0.00,0.00,43.42,89.60,89.60,0.00,43.46,1817,2022-06-25 09:55:38.485,2022-06-25 10:55:38.484,14,0,0,14.646,55.958177,-4.409041,0.00,0.00,0.00,-5.10,16.30,98.90,0,1,0,56,100,-7464,1899,14646,2984.50,8,P-GPS,1,0,0,0,0,0,0,1656150938484,3661,3655,3650,3680,0,0,27,,,,,,,0,0,0,51.00,163.00,989.00,0.00,0.00,981.00,6,896.00,0.00,434.25,0.00,0.00,0.00,0,,,80,80,0,2,0,0,0,2,0,,,,,0.0,0.0,0.0,0.0,0.0,0.0,0
55.958062,-4.409705,89.60,0.00,0.00,43.41,89.60,89.60,0.00,43.46,1912,2022-06-25 09:55:38.580,2022-06-25 10:55:38.580,14,0,0,14.646,55.958177,-4.409041,0.00,0.00,0.00,-5.10,15.80,98.80,0,1,0,56,100,-7464,1899,14646,2984.50,8,P-GPS,1,0,0,0,0,0,0,1656150938579,3661,3655,3650,3680,0,0,27,,,,,,,0,0,0,51.00,158.00,988.00,0.00,0.00,981.00,6,896.00,0.00,434.12,0.00,0.00,0.00,0,,,80,80,0,2,0,0,0,2,0,,,,,0.0,0.0,0.0,0.0,0.0,0.0,0
55.958062,-4.409705,89.60,0.00,0.00,43.41,89.60,89.60,0.00,43.46,2012,2022-06-25 09:55:38.680,2022-06-25 10:55:38.679,14,0,0,14.646,55.958177,-4.409041,0.00,0.00,0.00,-5.30,15.30,98.70,0,1,0,56,100,-7464,1899,14646,2984.50,8,P-GPS,1,0,0,0,0,0,0,1656150938679,3661,3655,3650,3680,0,0,27,,,,,,,0,0,0,53.00,153.00,987.00,0.00,0.00,981.00,6,896.00,0.00,434.11,0.00,0.00,0.00,0,,,80,80,0,2,0,0,0,2,0,,,,,0.0,0.0,0.0,0.0,0.0,0.0,0
55.958063,-4.409705,89.60,0.00,0.00,43.40,89.60,89.60,0.00,43.46,2108,2022-06-25 09:55:38.775,2022-06-25 10:55:38.775,14,0,0,14.646,55.958177,-4.409041,0.00,0.00,0.00,-5.00,15.70,98.80,0,1,0,56,100,-7464,1899,14646,2984.50,8,P-GPS,1,0,0,0,0,0,0,1656150938775,3661,3655,3650,3680,0,0,27,,,,,,,0,0,0,50.00,157.00,988.00,0.00,0.00,981.00,6,896.00,0.00,433.95,0.00,0.00,0.00,0,,,80,80,0,2,0,0,0,2,0,,,,,0.0,0.0,0.0,0.0,0.0,0.0,0
55.958063,-4.409705,89.60,0.00,0.00,43.39,89.60,89.60,0.00,43.46,2230,2022-06-25 09:55:38.897,2022-06-25 10:55:38.897,14,0,0,14.646,55.958177,-4.409041,0.00,0.00,0.00,-4.70,15.30,98.80,0,1,0,56,100,-7464,1899,14646,2984.50,8,P-GPS,1,0,0,0,0,0,0,1656150938897,3661,3655,3650,3680,0,0,27,,,,,,,0,0,0,47.00,153.00,988.00,0.00,0.00,981.00,6,896.00,0.00,433.92,0.00,0.00,0.00,0,,,80,80,0,2,0,0,0,2,0,,,,,0.0,0.0,0.0,0.0,0.0,0.0,0
55.958063,-4.409705,89.60,0.00,0.00,43.36,89.60,89.60,0.00,43.46,2327,2022-06-25 09:55:38.995,2022-06-25 10:55:38.994,14,0,0,14.646,55.958177,-4.409041,0.00,0.00,0.00,-4.60,15.40,98.80,0,1,0,56,100,-7464,1899,14646,2984.50,8,P-GPS,1,0,0,0,0,0,0,1656150938994,3661,3655,3650,3680,0,0,27,,,,,,,0,0,0,46.00,154.00,988.00,0.00,0.00,981.00,6,896.00,0.00,433.65,0.00,0.00,0.00,0,,,80,80,0,2,0,0,0,2,0,,,,,0.0,0.0,0.0,0.0,0.0,0.0,0
55.958064,-4.409704,89.50,0.00,0.10,43.33,89.60,89.60,0.10,43.46,2499,2022-06-25 09:55:39.166,2022-06-25 10:55:39.166,14,0,0,14.646,55.958177,-4.409041,0.00,0.00,0.10,-4.50,15.40,98.90,0,1,0,56,100,-7464,1899,14646,2984.50,8,P-GPS,1,0,0,0,0,0,0,1656150939166,3661,3655,3650,3680,0,0,27,,,,,,,0,0,0,45.00,154.00,989.00,0.00,0.00,981.00,6,895.00,1.00,433.31,0.00,0.00,1.00,0,,,80,80,0,2,0,0,0,2,0,,,,,0.0,0.0,0.0,0.0,0.0,0.0,0
55.958064,-4.409704,89.50,0.00,0.10,43.33,89.60,89.60,0.10,43.46,2612,2022-06-25 09:55:39.279,2022-06-25 10:55:39.279,14,0,0,14.646,55.958177,-4.409041,0.00,0.00,0.10,-4.60,14.70,98.90,0,1,0,56,100,-7464,1899,14646,2984.50,8,P-GPS,1,0,0,0,0,0,0,1656150939279,3661,3655,3650,3680,0,0,27,,,,,,,0,0,0,46.00,147.00,989.00,0.00,0.00,981.00,6,895.00,1.00,433.25,0.00,0.00,1.00,0,,,80,80,0,2,0,0,0,2,0,,,,,0.0,0.0,0.0,0.0,0.0,0.0,0
55.958064,-4.409704,89.50,0.00,0.00,43.32,89.60,89.60,0.10,43.46,2712,2022-06-25 09:55:39.379,2022-06-25 10:55:39.379,14,0,0,14.658,55.958177,-4.409041,0.00,0.00,0.00,-4.90,14.50,98.80,0,1,0,56,100,-7556,1897,14658,2984.50,8,P-GPS,1,0,0,0,0,0,0,1656150939379,3661,3655,3650,3680,0,0,27,,,,,,,0,0,0,49.00,145.00,988.00,0.00,0.00,981.00,6,895.00,0.00,433.24,0.00,0.00,0.00,0,,,80,80,0,2,0,0,0,2,0,,,,,0.0,0.0,0.0,0.0,0.0,0.0,0
55.958064,-4.409704,89.50,0.00,0.00,43.32,89.60,89.60,0.10,43.46,2809,2022-06-25 09:55:39.476,2022-06-25 10:55:39.476,14,0,0,14.658,55.958177,-4.409041,0.00,0.00,0.00,-4.80,14.70,98.80,0,1,0,56,100,-7556,1897,14658,2984.50,8,P-GPS,1,0,0,0,0,0,0,1656150939476,3661,3655,3650,3680,0,0,27,,,,,,,0,0,0,48.00,147.00,988.00,0.00,0.00,981.00,6,895.00,0.00,433.19,0.00,0.00,0.00,0,,,80,80,0,2,0,0,0,2,0,,,,,0.0,0.0,0.0,0.0,0.0,0.0,0
55.958064,-4.409704,89.50,0.00,0.00,43.33,89.60,89.60,0.10,43.46,2898,2022-06-25 09:55:39.565,2022-06-25 10:55:39.565,14,0,0,14.658,55.958177,-4.409041,0.00,0.00,0.00,-4.60,14.80,98.90,0,1,0,56,100,-7556,1897,14658,2984.50,8,P-GPS,1,0,0,0,0,0,0,1656150939565,3661,3655,3650,3680,0,0,27,,,,,,,0,0,0,46.00,148.00,989.00,0.00,0.00,981.00,6,895.00,0.00,433.29,0.00,0.00,0.00,0,,,80,80,0,2,0,0,0,2,0,,,,,0.0,0.0,0.0,0.0,0.0,0.0,0
55.958064,-4.409704,89.40,0.00,0.00,43.33,89.60,89.60,0.10,43.46,2997,2022-06-25 09:55:39.664,2022-06-25 10:55:39.664,14,0,0,14.658,55.958177,-4.409041,0.00,0.00,0.00,-4.80,14.80,98.90,0,1,0,56,100,-7556,1897,14658,2984.50,8,P-GPS,1,0,0,0,0,0,0,1656150939664,3661,3655,3650,3680,0,0,27,,,,,,,0,0,0,48.00,148.00,989.00,0.00,0.00,981.00,6,894.00,0.00,433.27,0.00,0.00,0.00,0,,,80,80,0,2,0,0,0,2,0,,,,,0.0,0.0,0.0,0.0,0.0,0.0,0
55.958064,-4.409705,89.40,0.00,0.00,43.34,89.60,89.60,0.10,43.46,3096,2022-06-25 09:55:39.764,2022-06-25 10:55:39.763,14,0,0,14.658,55.958177,-4.409041,0.00,0.00,0.00,-5.30,14.60,98.90,0,1,0,56,100,-7556,1897,14658,2984.50,8,P-GPS,1,0,0,0,0,0,0,1656150939763,3661,3655,3650,3680,0,0,27,,,,,,,0,0,0,53.00,146.00,989.00,0.00,0.00,981.00,6,894.00,0.00,433.36,0.00,0.00,0.00,0,,,80,80,0,2,0,0,0,2,0,,,,,0.0,0.0,0.0,0.0,0.0,0.0,0
55.958064,-4.409705,89.40,0.00,0.00,43.33,89.60,89.60,0.10,43.46,3197,2022-06-25 09:55:39.864,2022-06-25 10:55:39.864,14,0,0,14.658,55.958177,-4.409041,0.00,0.00,0.00,-5.40,14.40,98.80,0,1,0,56,100,-7556,1897,14658,2984.50,8,P-GPS,1,0,0,0,0,0,0,1656150939864,3661,3655,3650,3680,0,0,27,,,,,,,0,0,0,54.00,144.00,988.00,0.00,0.00,981.00,6,894.00,0.00,433.35,0.00,0.00,0.00,0,,,80,80,0,2,0,0,0,2,0,,,,,0.0,0.0,0.0,0.0,0.0,0.0,0
55.958064,-4.409705,89.40,0.00,0.00,43.34,89.60,89.60,0.10,43.46,3298,2022-06-25 09:55:39.966,2022-06-25 10:55:39.965,14,0,0,14.658,55.958177,-4.409041,0.00,0.00,0.00,-5.40,14.60,98.90,0,1,0,56,100,-7556,1897,14658,2984.50,8,P-GPS,1,0,0,0,0,0,0,1656150939965,3661,3655,3650,3680,0,0,27,,,,,,,0,0,0,54.00,146.00,989.00,0.00,0.00,981.00,6,894.00,0.00,433.45,0.00,0.00,0.00,0,,,80,80,0,2,0,0,0,2,0,,,,,0.0,0.0,0.0,0.0,0.0,0.0,0
55.958064,-4.409705,89.40,0.00,0.00,43.34,89.60,89.60,0.10,43.46,3396,2022-06-25 09:55:40.063,2022-06-25 10:55:40.063,14,0,0,14.658,55.958177,-4.409041,0.00,0.00,0.00,-5.40,15.10,98.90,0,1,0,56,100,-7556,1897,14658,2984.50,8,P-GPS,1,0,0,0,0,0,0,1656150940063,3661,3655,3650,3680,0,0,27,,,,,,,0,0,0,54.00,151.00,989.00,0.00,0.00,981.00,6,894.00,0.00,433.43,0.00,0.00,0.00,0,,,80,80,0,2,0,0,0,2,0,,,,,0.0,0.0,0.0,0.0,0.0,0.0,0
55.958064,-4.409705,89.40,0.00,0.00,43.36,89.60,89.60,0.10,43.46,3498,2022-06-25 09:55:40.165,2022-06-25 10:55:40.165,14,0,0,14.658,55.958177,-4.409041,0.00,0.00,0.00,-5.50,14.80,98.90,0,1,0,56,100,-7556,1897,14658,2984.50,8,P-GPS,1,0,0,0,0,0,0,1656150940165,3661,3655,3650,3680,0,0,27,,,,,,,0,0,0,55.00,148.00,989.00,0.00,0.00,981.00,6,894.00,0.00,433.56,0.00,0.00,0.00,0,,,80,80,0,2,0,0,0,2,0,,,,,0.0,0.0,0.0,0.0,0.0,0.0,0
55.958064,-4.409705,89.40,0.00,0.00,43.35,89.60,89.60,0.10,43.46,3595,2022-06-25 09:55:40.263,2022-06-25 10:55:40.262,14,0,0,14.658,55.958177,-4.409041,0.00,0.00,0.00,-5.80,14.70,98.80,0,1,0,56,100,-7556,1897,14658,2984.50,8,P-GPS,1,0,0,0,0,0,0,1656150940262,3661,3655,3650,3680,0,0,27,,,,,,,0,0,0,58.00,147.00,988.00,0.00,0.00,981.00,6,894.00,0.00,433.54,0.00,0.00,0.00,0,,,80,80,0,2,0,0,0,2,0,,,,,0.0,0.0,0.0,0.0,0.0,0.0,0
55.958064,-4.409705,89.40,0.00,0.00,43.36,89.60,89.60,0.10,43.46,3717,2022-06-25 09:55:40.384,2022-06-25 10:55:40.384,14,0,0,14.658,55.958177,-4.409041,0.00,0.00,0.00,-5.30,15.10,98.90,0,1,0,56,100,-7483,1895,14658,2984.50,8,P-GPS,1,0,0,0,0,0,0,1656150940384,3661,3655,3650,3680,0,0,27,,,,,,,0,0,0,53.00,151.00,989.00,0.00,0.00,981.00,6,894.00,0.00,433.63,0.00,0.00,0.00,0,,,80,80,0,2,0,0,0,2,0,,,,,0.0,0.0,0.0,0.0,0.0,0.0,0
55.958065,-4.409705,89.40,0.00,0.00,43.37,89.60,89.60,0.10,43.46,3909,2022-06-25 09:55:40.577,2022-06-25 10:55:40.576,14,0,0,14.658,55.958177,-4.409041,0.00,0.00,0.00,-5.30,15.20,98.90,0,1,0,56,100,-7483,1895,14658,2984.50,8,P-GPS,1,0,0,0,0,0,0,1656150940576,3661,3655,3650,3680,0,0,27,,,,,,,0,0,0,53.00,152.00,989.00,0.00,0.00,981.00,6,894.00,0.00,433.70,0.00,0.00,0.00,0,,,80,80,0,2,0,0,0,2,0,,,,,0.0,0.0,0.0,0.0,0.0,0.0,0
55.958065,-4.409706,89.40,0.00,0.00,43.37,89.60,89.60,0.10,43.46,4096,2022-06-25 09:55:40.763,2022-06-25 10:55:40.763,14,0,0,14.658,55.958177,-4.409041,0.00,0.00,0.00,-5.20,15.30,98.90,0,1,0,56,100,-7483,1895,14658,2984.50,8,P-GPS,1,0,0,0,0,0,0,1656150940763,3661,3655,3650,3680,0,0,27,,,,,,,0,0,0,52.00,153.00,989.00,0.00,0.00,981.00,6,894.00,0.00,433.73,0.00,0.00,0.00,0,,,80,80,0,2,0,0,0,2,0,,,,,0.0,0.0,0.0,0.0,0.0,0.0,0
55.958065,-4.409706,89.40,0.00,0.00,43.37,89.60,89.60,0.10,43.46,4197,2022-06-25 09:55:40.864,2022-06-25 10:55:40.864,14,0,0,14.658,55.958177,-4.409041,0.00,0.00,0.00,-5.20,15.30,98.90,0,1,0,56,100,-7483,1895,14658,2984.50,8,P-GPS,1,0,0,0,0,0,0,1656150940864,3661,3655,3650,3680,0,0,27,,,,,,,0,0,0,52.00,153.00,989.00,0.00,0.00,981.00,6,894.00,0.00,433.71,0.00,0.00,0.00,0,,,80,80,0,2,0,0,0,2,0,,,,,0.0,0.0,0.0,0.0,0.0,0.0,0
55.958065,-4.409706,89.50,0.00,0.00,43.37,89.60,89.60,0.10,43.46,4296,2022-06-25 09:55:40.963,2022-06-25 10:55:40.963,14,0,0,14.658,55.958177,-4.409041,0.00,0.00,0.00,-5.30,15.50,98.90,0,1,0,56,100,-7483,1895,14658,2984.50,8,P-GPS,1,0,0,0,0,0,0,1656150940963,3661,3655,3650,3680,0,0,27,,,,,,,0,0,0,53.00,155.00,989.00,0.00,0.00,981.00,6,895.00,0.00,433.72,0.00,0.00,0.00,0,,,80,80,0,2,0,0,0,2,0,,,,,0.0,0.0,0.0,0.0,0.0,0.0,0
55.958065,-4.409706,89.50,0.00,0.00,43.37,89.60,89.60,0.10,43.46,4396,2022-06-25 09:55:41.063,2022-06-25 10:55:41.063,14,0,0,14.658,55.958177,-4.409041,0.00,0.00,0.00,-5.20,15.90,98.90,0,1,0,56,100,-7483,1895,14658,2984.50,8,P-GPS,1,0,0,0,0,0,0,1656150941063,3661,3655,3650,3680,0,0,27,,,,,,,0,0,0,52.00,159.00,989.00,0.00,0.00,981.00,6,895.00,0.00,433.69,0.00,0.00,0.00,0,,,80,80,0,2,0,0,0,2,0,,,,,0.0,0.0,0.0,0.0,0.0,0.0,0
55.958065,-4.409705,89.50,0.00,0.00,43.35,89.60,89.60,0.10,43.46,4497,2022-06-25 09:55:41.164,2022-06-25 10:55:41.164,14,0,0,14.658,55.958177,-4.409041,0.00,0.00,0.00,-5.20,15.80,98.90,0,1,0,56,100,-7483,1895,14658,2984.50,8,P-GPS,1,0,0,0,0,0,0,1656150941164,3661,3655,3650,3680,0,0,27,,,,,,,0,0,0,52.00,158.00,989.00,0.00,0.00,981.00,6,895.00,0.00,433.51,0.00,0.00,0.00,0,,,80,80,0,2,0,0,0,2,0,,,,,0.0,0.0,0.0,0.0,0.0,0.0,0
55.958065,-4.409705,89.50,0.00,0.00,43.35,89.60,89.60,0.10,43.46,4622,2022-06-25 09:55:41.290,2022-06-25 10:55:41.289,14,0,0,14.658,55.958177,-4.409041,0.00,0.00,0.00,-5.10,15.50,98.90,0,1,0,56,100,-7483,1895,14658,2984.50,8,P-GPS,1,0,0,0,0,0,0,1656150941289,3661,3655,3650,3680,0,0,27,,,,,,,0,0,0,51.00,155.00,989.00,0.00,0.00,981.00,6,895.00,0.00,433.48,0.00,0.00,0.00,0,,,80,80,0,2,0,0,0,2,0,,,,,0.0,0.0,0.0,0.0,0.0,0.0,0
55.958065,-4.409705,89.60,0.00,0.00,43.34,89.60,89.60,0.10,43.46,4710,2022-06-25 09:55:41.378,2022-06-25 10:55:41.378,14,0,0,14.588,55.958177,-4.409041,0.00,0.00,0.00,-4.90,15.70,98.90,0,1,0,56,100,-8346,1893,14588,2984.50,8,P-GPS,1,0,0,0,0,0,0,1656150941377,3661,3655,3650,3680,0,0,27,,,,,,,0,0,0,49.00,157.00,989.00,0.00,0.00,981.00,6,896.00,0.00,433.39,0.00,0.00,0.00,0,,,80,80,0,2,0,0,0,2,0,,,,,0.0,0.0,0.0,0.0,0.0,0.0,0
55.958065,-4.409705,89.60,0.00,0.00,43.34,89.60,89.60,0.10,43.46,4895,2022-06-25 09:55:41.563,2022-06-25 10:55:41.562,14,0,0,14.588,55.958177,-4.409041,0.00,0.00,0.00,-4.80,15.90,98.90,0,1,0,56,100,-8346,1893,14588,2984.50,8,P-GPS,1,0,0,0,0,0,0,1656150941562,3661,3655,3650,3680,0,0,27,,,,,,,0,0,0,48.00,159.00,989.00,0.00,0.00,981.00,6,896.00,0.00,433.37,0.00,0.00,0.00,0,,,80,80,0,2,0,0,0,2,0,,,,,0.0,0.0,0.0,0.0,0.0,0.0,0
55.958065,-4.409705,89.60,0.00,0.00,43.34,89.60,89.60,0.10,43.46,4999,2022-06-25 09:55:41.666,2022-06-25 10:55:41.666,14,0,0,14.588,55.958177,-4.409041,0.00,0.00,0.00,-5.00,16.00,98.90,0,1,0,56,100,-8346,1893,14588,2984.50,8,P-GPS,1,0,0,0,0,0,0,1656150941666,3661,3655,3650,3680,0,0,27,,,,,,,0,0,0,50.00,160.00,989.00,0.00,0.00,981.00,6,896.00,0.00,433.35,0.00,0.00,0.00,0,,,80,80,0,2,0,0,0,2,0,,,,,0.0,0.0,0.0,0.0,0.0,0.0,0
55.958065,-4.409705,89.60,0.00,0.00,43.34,89.60,89.60,0.10,43.46,5096,2022-06-25 09:55:41.764,2022-06-25 10:55:41.763,14,0,0,14.588,55.958177,-4.409041,0.00,0.00,0.00,-5.50,15.50,98.70,0,1,0,56,100,-8346,1893,14588,2984.50,8,P-GPS,1,0,0,0,0,0,0,1656150941763,3661,3655,3650,3680,0,0,27,,,,,,,0,0,0,55.00,155.00,987.00,0.00,0.00,981.00,6,896.00,0.00,433.36,0.00,0.00,0.00,0,,,80,80,0,2,0,0,0,2,0,,,,,0.0,0.0,0.0,0.0,0.0,0.0,0
55.958066,-4.409705,89.60,0.00,0.00,43.34,89.60,89.60,0.10,43.46,5196,2022-06-25 09:55:41.864,2022-06-25 10:55:41.863,14,0,0,14.588,55.958177,-4.409041,0.00,0.00,0.00,-5.30,15.60,98.70,0,1,0,56,100,-8346,1893,14588,2984.50,8,P-GPS,1,0,0,0,0,0,0,1656150941863,3661,3655,3650,3680,0,0,27,,,,,,,0,0,0,53.00,156.00,987.00,0.00,0.00,981.00,6,896.00,0.00,433.36,0.00,0.00,0.00,0,,,80,80,0,2,0,0,0,2,0,,,,,0.0,0.0,0.0,0.0,0.0,0.0,0
55.958066,-4.409706,89.60,0.00,0.00,43.35,89.60,89.60,0.10,43.46,5311,2022-06-25 09:55:41.979,2022-06-25 10:55:41.978,14,0,0,14.588,55.958177,-4.409041,0.00,0.00,0.00,-5.20,16.50,98.80,0,1,0,56,100,-8346,1893,14588,2984.50,8,P-GPS,1,0,0,0,0,0,0,1656150941978,3661,3655,3650,3680,0,0,27,,,,,,,0,0,0,52.00,165.00,988.00,0.00,0.00,981.00,6,896.00,0.00,433.49,0.00,0.00,0.00,0,,,80,80,0,2,0,0,0,2,0,,,,,0.0,0.0,0.0,0.0,0.0,0.0,0
55.958066,-4.409706,89.60,0.00,0.00,43.36,89.60,89.60,0.10,43.46,5500,2022-06-25 09:55:42.168,2022-06-25 10:55:42.167,14,0,0,14.588,55.958177,-4.409041,0.00,0.00,0.00,-5.60,16.20,98.80,0,1,0,56,100,-8346,1893,14588,2984.50,8,P-GPS,1,0,0,0,0,0,0,1656150942167,3661,3655,3650,3680,0,0,27,,,,,,,0,0,0,56.00,162.00,988.00,0.00,0.00,981.00,6,896.00,0.00,433.57,0.00,0.00,0.00,0,,,80,80,0,2,0,0,0,2,0,,,,,0.0,0.0,0.0,0.0,0.0,0.0,0
55.958066,-4.409706,89.60,0.00,0.00,43.36,89.60,89.60,0.10,43.46,5595,2022-06-25 09:55:42.262,2022-06-25 10:55:42.262,14,0,0,14.588,55.958177,-4.409041,0.00,0.00,0.00,-5.50,15.90,98.70,0,1,0,56,100,-8346,1893,14588,2984.50,8,P-GPS,1,0,0,0,0,0,0,1656150942262,3661,3655,3650,3680,0,0,27,,,,,,,0,0,0,55.00,159.00,987.00,0.00,0.00,981.00,6,896.00,0.00,433.60,0.00,0.00,0.00,0,,,80,80,0,2,0,0,0,2,0,,,,,0.0,0.0,0.0,0.0,0.0,0.0,0
55.958066,-4.409706,89.60,0.00,0.00,43.36,89.60,89.60,0.10,43.46,5694,2022-06-25 09:55:42.361,2022-06-25 10:55:42.361,14,0,0,14.569,55.958177,-4.409041,0.00,0.00,0.00,-5.40,16.00,98.70,0,1,0,56,100,-8571,1890,14569,2984.50,8,P-GPS,1,0,0,0,0,0,0,1656150942361,3661,3655,3650,3680,0,0,27,,,,,,,0,0,0,54.00,160.00,987.00,0.00,0.00,981.00,6,896.00,0.00,433.61,0.00,0.00,0.00,0,,,80,80,0,2,0,0,0,2,0,,,,,0.0,0.0,0.0,0.0,0.0,0.0,0
55.958066,-4.409706,89.60,0.00,0.00,43.37,89.60,89.60,0.10,43.46,5794,2022-06-25 09:55:42.462,2022-06-25 10:55:42.461,14,0,0,14.569,55.958177,-4.409041,0.00,0.00,0.00,-5.60,16.30,98.70,0,1,0,56,100,-8571,1890,14569,2984.50,8,P-GPS,1,0,0,0,0,0,0,1656150942461,3661,3655,3650,3680,0,0,27,,,,,,,0,0,0,56.00,163.00,987.00,0.00,0.00,981.00,6,896.00,0.00,433.65,0.00,0.00,0.00,0,,,80,80,0,2,0,0,0,2,0,,,,,0.0,0.0,0.0,0.0,0.0,0.0,0
55.958066,-4.409706,89.70,0.00,0.00,43.36,89.70,89.70,0.10,43.46,5896,2022-06-25 09:55:42.564,2022-06-25 10:55:42.564,14,0,0,14.569,55.958177,-4.409041,0.00,0.00,0.00,-5.90,16.70,98.60,0,1,0,56,100,-8571,1890,14569,2984.50,8,P-GPS,1,0,0,0,0,0,0,1656150942563,3661,3655,3650,3680,0,0,27,,,,,,,0,0,0,59.00,167.00,986.00,0.00,0.00,981.00,6,897.00,0.00,433.61,0.00,0.00,0.00,0,,,80,80,0,2,0,0,0,2,0,,,,,0.0,0.0,0.0,0.0,0.0,0.0,0
55.958066,-4.409706,89.60,0.00,0.00,43.37,89.70,89.70,0.10,43.46,5997,2022-06-25 09:55:42.664,2022-06-25 10:55:42.664,14,0,0,14.569,55.958177,-4.409041,0.00,0.00,0.00,-6.20,16.90,98.60,0,1,0,56,100,-8571,1890,14569,2984.50,8,P-GPS,1,0,0,0,0,0,0,1656150942664,3661,3655,3650,3680,0,0,27,,,,,,,0,0,0,62.00,169.00,986.00,0.00,0.00,981.00,6,896.00,0.00,433.65,0.00,0.00,0.00,0,,,80,80,0,2,0,0,0,2,0,,,,,0.0,0.0,0.0,0.0,0.0,0.0,0
55.958066,-4.409706,89.60,0.00,0.10,43.36,89.70,89.70,0.10,43.46,6096,2022-06-25 09:55:42.764,2022-06-25 10:55:42.763,14,0,0,14.569,55.958177,-4.409041,0.00,0.00,0.10,-6.30,16.50,98.60,0,1,0,56,100,-8571,1890,14569,2984.50,8,P-GPS,1,0,0,0,0,0,0,1656150942763,3661,3655,3650,3680,0,0,27,,,,,,,0,0,0,63.00,165.00,986.00,0.00,0.00,981.00,6,896.00,1.00,433.61,0.00,0.00,1.00,0,,,80,80,0,2,0,0,0,2,0,,,,,0.0,0.0,0.0,0.0,0.0,0.0,0
55.958066,-4.409706,89.60,0.00,0.00,43.36,89.70,89.70,0.10,43.46,6195,2022-06-25 09:55:42.863,2022-06-25 10:55:42.862,14,0,0,14.569,55.958177,-4.409041,0.00,0.00,0.00,-6.00,16.30,98.60,0,1,0,56,100,-8571,1890,14569,2984.50,8,P-GPS,1,0,0,0,0,0,0,1656150942862,3661,3655,3650,3680,0,0,27,,,,,,,0,0,0,60.00,163.00,986.00,0.00,0.00,981.00,6,896.00,0.00,433.65,0.00,0.00,0.00,0,,,80,80,0,2,0,0,0,2,0,,,,,0.0,0.0,0.0,0.0,0.0,0.0,0
55.958066,-4.409706,89.60,0.00,0.00,43.37,89.70,89.70,0.10,43.46,6297,2022-06-25 09:55:42.964,2022-06-25 10:55:42.964,14,0,0,14.569,55.958177,-4.409041,0.00,0.00,0.00,-6.10,16.10,98.60,0,1,0,56,100,-8571,1890,14569,2984.50,8,P-GPS,1,0,0,0,0,0,0,1656150942964,3661,3655,3650,3680,0,0,27,,,,,,,0,0,0,61.00,161.00,986.00,0.00,0.00,981.00,6,896.00,0.00,433.73,0.00,0.00,0.00,0,,,80,80,0,2,0,0,0,2,0,,,,,0.0,0.0,0.0,0.0,0.0,0.0,0
55.958066,-4.409706,89.60,0.00,0.00,43.38,89.70,89.70,0.10,43.46,6395,2022-06-25 09:55:43.062,2022-06-25 10:55:43.062,14,0,0,14.569,55.958177,-4.409041,0.00,0.00,0.00,-6.10,16.00,98.70,0,1,0,56,100,-8571,1890,14569,2984.50,8,P-GPS,1,0,0,0,0,0,0,1656150943062,3661,3655,3650,3680,0,0,27,,,,,,,0,0,0,61.00,160.00,987.00,0.00,0.00,981.00,6,896.00,0.00,433.77,0.00,0.00,0.00,0,,,80,80,0,2,0,0,0,2,0,,,,,0.0,0.0,0.0,0.0,0.0,0.0,0
55.958066,-4.409707,89.60,0.00,0.00,43.39,89.70,89.70,0.10,43.46,6497,2022-06-25 09:55:43.164,2022-06-25 10:55:43.164,14,0,0,14.569,55.958177,-4.409041,0.00,0.00,0.00,-6.30,15.70,98.60,0,1,0,56,100,-8571,1890,14569,2984.50,8,P-GPS,1,0,0,0,0,0,0,1656150943164,3661,3655,3650,3680,0,0,27,,,,,,,0,0,0,63.00,157.00,986.00,0.00,0.00,981.00,6,896.00,0.00,433.87,0.00,0.00,0.00,0,,,80,80,0,2,0,0,0,2,0,,,,,0.0,0.0,0.0,0.0,0.0,0.0,0
55.958066,-4.409707,89.60,0.00,0.00,43.39,89.70,89.70,0.10,43.46,6607,2022-06-25 09:55:43.275,2022-06-25 10:55:43.274,14,0,0,14.569,55.958177,-4.409041,0.00,0.00,0.00,-6.20,15.50,98.60,0,1,0,56,100,-8571,1890,14569,2984.50,8,P-GPS,1,0,0,0,0,0,0,1656150943274,3661,3655,3650,3680,0,0,27,,,,,,,0,0,0,62.00,155.00,986.00,0.00,0.00,981.00,6,896.00,0.00,433.92,0.00,0.00,0.00,0,,,80,80,0,2,0,0,0,2,0,,,,,0.0,0.0,0.0,0.0,0.0,0.0,0
55.958066,-4.409707,89.60,0.00,0.00,43.41,89.70,89.70,0.10,43.46,6700,2022-06-25 09:55:43.367,2022-06-25 10:55:43.367,14,0,0,14.569,55.958177,-4.409041,0.00,0.00,0.00,-6.00,15.10,98.60,0,1,0,56,100,-8571,1890,14569,2984.50,8,P-GPS,1,0,0,0,0,0,0,1656150943367,3661,3655,3650,3680,0,0,27,,,,,,,0,0,0,60.00,151.00,986.00,0.00,0.00,981.00,6,896.00,0.00,434.07,0.00,0.00,0.00,0,,,80,80,0,2,0,0,0,2,0,,,,,0.0,0.0,0.0,0.0,0.0,0.0,0
55.958066,-4.409707,89.60,0.00,0.00,43.41,89.70,89.70,0.10,43.46,6797,2022-06-25 09:55:43.464,2022-06-25 10:55:43.464,14,0,0,14.569,55.958177,-4.409041,0.00,0.00,0.00,-6.00,14.80,98.60,0,1,0,56,100,-8571,1890,14569,2984.50,8,P-GPS,1,0,0,0,0,0,0,1656150943464,3661,3655,3650,3680,0,0,27,,,,,,,0,0,0,60.00,148.00,986.00,0.00,0.00,981.00,6,896.00,0.00,434.12,0.00,0.00,0.00,0,,,80,80,0,2,0,0,0,2,0,,,,,0.0,0.0,0.0,0.0,0.0,0.0,0
55.958066,-4.409707,89.50,0.00,0.00,43.41,89.70,89.70,0.10,43.46,6895,2022-06-25 09:55:43.563,2022-06-25 10:55:43.562,14,0,0,14.613,55.958177,-4.409041,0.00,0.00,0.00,-5.80,14.60,98.60,0,1,0,56,100,-8119,1888,14613,2984.50,8,P-GPS,1,0,0,0,0,0,0,1656150943562,3661,3655,3650,3680,0,0,27,,,,,,,0,0,0,58.00,146.00,986.00,0.00,0.00,981.00,6,895.00,0.00,434.12,0.00,0.00,0.00,0,,,80,80,0,2,0,0,0,2,0,,,,,0.0,0.0,0.0,0.0,0.0,0.0,0
55.958066,-4.409707,89.50,0.00,0.00,43.42,89.70,89.70,0.10,43.46,6998,2022-06-25 09:55:43.665,2022-06-25 10:55:43.665,14,0,0,14.613,55.958177,-4.409041,0.00,0.00,0.00,-5.50,14.50,98.70,0,1,0,56,100,-8119,1888,14613,2984.50,8,P-GPS,1,0,0,0,0,0,0,1656150943665,3661,3655,3650,3680,0,0,27,,,,,,,0,0,0,55.00,145.00,987.00,0.00,0.00,981.00,6,895.00,0.00,434.15,0.00,0.00,0.00,0,,,80,80,0,2,0,0,0,2,0,,,,,0.0,0.0,0.0,0.0,0.0,0.0,0
55.958066,-4.409707,89.50,0.00,0.00,43.42,89.70,89.70,0.10,43.46,7098,2022-06-25 09:55:43.766,2022-06-25 10:55:43.765,14,0,0,14.613,55.958177,-4.409041,0.00,0.00,0.00,-5.20,14.40,98.90,0,1,0,56,100,-8119,1888,14613,2984.50,8,P-GPS,1,0,0,0,0,0,0,1656150943765,3661,3655,3650,3680,0,0,27,,,,,,,0,0,0,52.00,144.00,989.00,0.00,0.00,981.00,6,895.00,0.00,434.20,0.00,0.00,0.00,0,,,80,80,0,2,0,0,0,2,0,,,,,0.0,0.0,0.0,0.0,0.0,0.0,0
55.958066,-4.409707,89.50,0.00,0.10,43.42,89.70,89.70,0.10,43.46,7197,2022-06-25 09:55:43.864,2022-06-25 10:55:43.864,14,0,0,14.613,55.958177,-4.409041,-0.10,0.00,0.00,-5.30,14.60,98.80,0,1,0,56,100,-8119,1888,14613,2984.50,8,P-GPS,1,0,0,0,0,0,0,1656150943864,3661,3655,3650,3680,0,0,27,,,,,,,0,0,0,53.00,146.00,988.00,0.00,0.00,981.00,6,895.00,1.00,434.23,-1.00,0.00,0.00,0,,,80,80,0,2,0,0,0,2,0,,,,,0.0,0.0,0.0,0.0,0.0,0.0,0
55.958066,-4.409707,89.50,0.00,0.00,43.44,89.70,89.70,0.10,43.46,7296,2022-06-25 09:55:43.964,2022-06-25 10:55:43.963,14,0,0,14.613,55.958177,-4.409041,0.00,0.00,0.00,-5.50,14.70,98.80,0,1,0,56,100,-8119,1888,14613,2984.50,8,P-GPS,1,0,0,0,0,0,0,1656150943963,3661,3655,3650,3680,0,0,27,,,,,,,0,0,0,55.00,147.00,988.00,0.00,0.00,981.00,6,895.00,0.00,434.36,0.00,0.00,0.00,0,,,80,80,0,2,0,0,0,2,0,,,,,0.0,0.0,0.0,0.0,0.0,0.0,0
55.958066,-4.409707,89.50,0.00,0.00,43.44,89.70,89.70,0.10,43.46,7396,2022-06-25 09:55:44.063,2022-06-25 10:55:44.063,14,0,0,14.613,55.958177,-4.409041,0.00,0.00,0.00,-5.60,14.50,98.80,0,1,0,56,100,-8119,1888,14613,2984.50,8,P-GPS,1,0,0,0,0,0,0,1656150944063,3661,3655,3650,3680,0,0,27,,,,,,,0,0,0,56.00,145.00,988.00,0.00,0.00,981.00,6,895.00,0.00,434.39,0.00,0.00,0.00,0,,,80,80,0,2,0,0,0,2,0,,,,,0.0,0.0,0.0,0.0,0.0,0.0,0
55.958066,-4.409707,89.50,0.00,0.00,43.44,89.70,89.70,0.10,43.46,7506,2022-06-25 09:55:44.174,2022-06-25 10:55:44.173,14,0,0,14.613,55.958177,-4.409041,0.00,0.00,0.00,-5.50,14.60,98.80,0,1,0,56,100,-8119,1888,14613,2984.50,8,P-GPS,1,0,0,0,0,0,0,1656150944173,3661,3655,3650,3680,0,0,27,,,,,,,0,0,0,55.00,146.00,988.00,0.00,0.00,981.00,6,895.00,0.00,434.44,0.00,0.00,0.00,0,,,80,80,0,2,0,0,0,2,0,,,,,0.0,0.0,0.0,0.0,0.0,0.0,0
55.958066,-4.409707,89.50,0.00,0.00,43.45,89.70,89.70,0.10,43.46,7596,2022-06-25 09:55:44.264,2022-06-25 10:55:44.263,14,0,0,14.613,55.958177,-4.409041,0.00,0.00,0.00,-5.40,14.30,98.80,0,1,0,56,100,-8119,1888,14613,2984.50,8,P-GPS,1,0,0,0,0,0,0,1656150944263,3661,3655,3650,3680,0,0,27,,,,,,,0,0,0,54.00,143.00,988.00,0.00,0.00,981.00,6,895.00,0.00,434.46,0.00,0.00,0.00,0,,,80,80,0,2,0,0,0,2,0,,,,,0.0,0.0,0.0,0.0,0.0,0.0,0
55.958066,-4.409707,89.50,0.00,0.00,43.43,89.70,89.70,0.10,43.46,7703,2022-06-25 09:55:44.370,2022-06-25 10:55:44.370,14,0,0,14.616,55.958177,-4.409041,0.00,0.00,0.00,-5.20,14.60,98.80,0,1,0,56,100,-7934,1886,14616,2984.50,8,P-GPS,1,0,0,0,0,0,0,1656150944370,3661,3655,3650,3680,0,0,27,,,,,,,0,0,0,52.00,146.00,988.00,0.00,0.00,981.00,6,895.00,0.00,434.29,0.00,0.00,0.00,0,,,80,80,0,2,0,0,0,2,0,,,,,0.0,0.0,0.0,0.0,0.0,0.0,0
55.958066,-4.409707,89.50,0.00,0.00,43.43,89.70,89.70,0.10,43.46,7797,2022-06-25 09:55:44.464,2022-06-25 10:55:44.464,14,0,0,14.616,55.958177,-4.409041,0.00,0.00,0.00,-5.10,14.70,98.70,0,1,0,56,100,-7934,1886,14616,2984.50,8,P-GPS,1,0,0,0,0,0,0,1656150944464,3661,3655,3650,3680,0,0,27,,,,,,,0,0,0,51.00,147.00,987.00,0.00,0.00,981.00,6,895.00,0.00,434.28,0.00,0.00,0.00,0,,,80,80,0,2,0,0,0,2,0,,,,,0.0,0.0,0.0,0.0,0.0,0.0,0
55.958066,-4.409707,89.60,0.00,0.00,43.42,89.70,89.70,0.10,43.46,7897,2022-06-25 09:55:44.564,2022-06-25 10:55:44.564,14,0,0,14.616,55.958177,-4.409041,0.00,0.00,0.00,-5.00,15.40,98.80,0,1,0,56,100,-7934,1886,14616,2984.50,8,P-GPS,1,0,0,0,0,0,0,1656150944564,3661,3655,3650,3680,0,0,27,,,,,,,0,0,0,50.00,154.00,988.00,0.00,0.00,981.00,6,896.00,0.00,434.17,0.00,0.00,0.00,0,,,80,80,0,2,0,0,0,2,0,,,,,0.0,0.0,0.0,0.0,0.0,0.0,0
55.958066,-4.409707,89.60,0.00,0.00,43.41,89.70,89.70,0.10,43.46,7996,2022-06-25 09:55:44.664,2022-06-25 10:55:44.663,14,0,0,14.616,55.958177,-4.409041,0.00,0.00,0.00,-4.90,15.80,98.80,0,1,0,56,100,-7934,1886,14616,2984.50,8,P-GPS,1,0,0,0,0,0,0,1656150944663,3661,3655,3650,3680,0,0,27,,,,,,,0,0,0,49.00,158.00,988.00,0.00,0.00,981.00,6,896.00,0.00,434.13,0.00,0.00,0.00,0,,,80,80,0,2,0,0,0,2,0,,,,,0.0,0.0,0.0,0.0,0.0,0.0,0
55.958066,-4.409707,89.60,0.00,0.00,43.41,89.70,89.70,0.10,43.46,8098,2022-06-25 09:55:44.766,2022-06-25 10:55:44.765,14,0,0,14.616,55.958177,-4.409041,0.00,0.00,0.00,-5.00,15.90,98.80,0,1,0,56,100,-7934,1886,14616,2984.50,8,P-GPS,1,0,0,0,0,0,0,1656150944765,3661,3655,3650,3680,0,0,27,,,,,,,0,0,0,50.00,159.00,988.00,0.00,0.00,981.00,6,896.00,0.00,434.13,0.00,0.00,0.00,0,,,80,80,0,2,0,0,0,2,0,,,,,0.0,0.0,0.0,0.0,0.0,0.0,0
55.958066,-4.409707,89.60,0.00,0.00,43.41,89.70,89.70,0.10,43.46,8201,2022-06-25 09:55:44.868,2022-06-25 10:55:44.868,14,0,0,14.616,55.958177,-4.409041,0.00,0.00,0.00,-4.80,16.00,98.90,0,1,0,56,100,-7934,1886,14616,2984.50,8,P-GPS,1,0,0,0,0,0,0,1656150944868,3661,3655,3650,3680,0,0,27,,,,,,,0,0,0,48.00,160.00,989.00,0.00,0.00,981.00,6,896.00,0.00,434.11,0.00,0.00,0.00,0,,,80,80,0,2,0,0,0,2,0,,,,,0.0,0.0,0.0,0.0,0.0,0.0,0
55.958066,-4.409707,89.60,0.00,0.00,43.41,89.70,89.70,0.10,43.46,8312,2022-06-25 09:55:44.979,2022-06-25 10:55:44.979,14,0,0,14.616,55.958177,-4.409041,0.00,0.00,0.00,-4.90,15.80,98.90,0,1,0,56,100,-7934,1886,14616,2984.50,8,P-GPS,1,0,0,0,0,0,0,1656150944979,3661,3655,3650,3680,0,0,27,,,,,,,0,0,0,49.00,158.00,989.00,0.00,0.00,981.00,6,896.00,0.00,434.07,0.00,0.00,0.00,0,,,80,80,0,2,0,0,0,2,0,,,,,0.0,0.0,0.0,0.0,0.0,0.0,0
55.958067,-4.409707,89.70,0.00,0.00,43.40,89.70,89.70,0.10,43.46,8500,2022-06-25 09:55:45.167,2022-06-25 10:55:45.167,14,0,0,14.616,55.958177,-4.409041,0.00,0.00,0.00,-5.70,15.90,98.70,0,1,0,56,100,-7934,1886,14616,2984.50,8,P-GPS,1,0,0,0,0,0,0,1656150945167,3661,3655,3650,3680,0,0,27,,,,,,,0,0,0,57.00,159.00,987.00,0.00,0.00,981.00,6,897.00,0.00,434.00,0.00,0.00,0.00,0,,,80,80,0,2,0,0,0,2,0,,,,,0.0,0.0,0.0,0.0,0.0,0.0,0
55.958067,-4.409707,89.70,0.00,0.00,43.40,89.70,89.70,0.10,43.46,8599,2022-06-25 09:55:45.266,2022-06-25 10:55:45.266,14,0,0,14.616,55.958177,-4.409041,0.00,0.00,0.00,-5.70,16.20,98.70,0,1,0,56,100,-7934,1886,14616,2984.50,8,P-GPS,1,0,0,0,0,0,0,1656150945266,3661,3655,3650,3680,0,0,27,,,,,,,0,0,0,57.00,162.00,987.00,0.00,0.00,981.00,6,897.00,0.00,434.01,0.00,0.00,0.00,0,,,80,80,0,2,0,0,0,2,0,,,,,0.0,0.0,0.0,0.0,0.0,0.0,0
55.958067,-4.409707,89.70,0.00,0.00,43.40,89.70,89.70,0.10,43.46,8693,2022-06-25 09:55:45.360,2022-06-25 10:55:45.360,14,0,0,14.612,55.958177,-4.409041,0.00,0.00,0.00,-5.70,16.20,98.70,0,1,0,56,100,-7934,1886,14612,2984.50,8,P-GPS,1,0,0,0,0,0,0,1656150945360,3661,3655,3650,3680,0,0,27,,,,,,,0,0,0,57.00,162.00,987.00,0.00,0.00,981.00,6,897.00,0.00,434.01,0.00,0.00,0.00,0,,,80,80,0,2,0,0,0,2,0,,,,,0.0,0.0,0.0,0.0,0.0,0.0,0
55.958067,-4.409707,89.70,0.00,0.00,43.41,89.70,89.70,0.10,43.46,8796,2022-06-25 09:55:45.464,2022-06-25 10:55:45.463,14,0,0,14.612,55.958177,-4.409041,0.00,0.00,0.00,-5.50,16.00,98.70,0,1,0,56,100,-7934,1886,14612,2984.50,8,P-GPS,1,0,0,0,0,0,0,1656150945463,3661,3655,3650,3680,0,0,27,,,,,,,0,0,0,55.00,160.00,987.00,0.00,0.00,981.00,6,897.00,0.00,434.05,0.00,0.00,0.00,0,,,80,80,0,2,0,0,0,2,0,,,,,0.0,0.0,0.0,0.0,0.0,0.0,0
55.958067,-4.409707,89.70,0.00,0.00,43.41,89.70,89.70,0.10,43.46,8901,2022-06-25 09:55:45.568,2022-06-25 10:55:45.568,14,0,0,14.612,55.958177,-4.409041,0.00,0.00,0.00,-5.50,15.60,98.60,0,1,0,56,100,-7934,1886,14612,2984.50,8,P-GPS,1,0,0,0,0,0,0,1656150945568,3661,3655,3650,3680,0,0,27,,,,,,,0,0,0,55.00,156.00,986.00,0.00,0.00,981.00,6,897.00,0.00,434.10,0.00,0.00,0.00,0,,,80,80,0,2,0,0,0,2,0,,,,,0.0,0.0,0.0,0.0,0.0,0.0,0
55.958067,-4.409707,89.70,0.00,0.00,43.41,89.70,89.70,0.10,43.46,8997,2022-06-25 09:55:45.665,2022-06-25 10:55:45.664,14,0,0,14.612,55.958177,-4.409041,0.00,0.00,0.00,-5.50,15.30,98.70,0,1,0,56,100,-7934,1886,14612,2984.50,8,P-GPS,1,0,0,0,0,0,0,1656150945664,3661,3655,3650,3680,0,0,27,,,,,,,0,0,0,55.00,153.00,987.00,0.00,0.00,981.00,6,897.00,0.00,434.13,0.00,0.00,0.00,0,,,80,80,0,2,0,0,0,2,0,,,,,0.0,0.0,0.0,0.0,0.0,0.0,0
55.958067,-4.409707,89.70,0.00,0.00,43.41,89.70,89.70,0.10,43.46,9096,2022-06-25 09:55:45.763,2022-06-25 10:55:45.763,14,0,0,14.612,55.958177,-4.409041,0.00,0.00,0.00,-5.70,15.10,98.60,0,1,0,56,100,-7934,1886,14612,2984.50,8,P-GPS,1,0,0,0,0,0,0,1656150945763,3661,3655,3650,3680,0,0,27,,,,,,,0,0,0,57.00,151.00,986.00,0.00,0.00,981.00,6,897.00,0.00,434.14,0.00,0.00,0.00,0,,,80,80,0,2,0,0,0,2,0,,,,,0.0,0.0,0.0,0.0,0.0,0.0,0
55.958067,-4.409707,89.70,0.00,0.00,43.42,89.70,89.70,0.10,43.46,9201,2022-06-25 09:55:45.868,2022-06-25 10:55:45.868,14,0,0,14.612,55.958177,-4.409041,0.00,0.00,0.00,-5.80,14.80,98.60,0,1,0,56,100,-7934,1886,14612,2984.50,8,P-GPS,1,0,0,0,0,0,0,1656150945868,3661,3655,3650,3680,0,0,27,,,,,,,0,0,0,58.00,148.00,986.00,0.00,0.00,981.00,6,897.00,0.00,434.19,0.00,0.00,0.00,0,,,80,80,0,2,0,0,0,2,0,,,,,0.0,0.0,0.0,0.0,0.0,0.0,0
55.958067,-4.409708,89.70,0.00,0.00,43.42,89.70,89.70,0.10,43.46,9296,2022-06-25 09:55:45.963,2022-06-25 10:55:45.963,14,0,0,14.612,55.958177,-4.409041,0.00,0.00,0.00,-5.80,14.70,98.60,0,1,0,56,100,-7934,1886,14612,2984.50,8,P-GPS,1,0,0,0,0,0,0,1656150945963,3661,3655,3650,3680,0,0,27,,,,,,,0,0,0,58.00,147.00,986.00,0.00,0.00,981.00,6,897.00,0.00,434.23,0.00,0.00,0.00,0,,,80,80,0,2,0,0,0,2,0,,,,,0.0,0.0,0.0,0.0,0.0,0.0,0
55.958067,-4.409708,89.70,0.00,0.14,43.43,89.70,89.70,0.14,43.46,9397,2022-06-25 09:55:46.064,2022-06-25 10:55:46.064,14,0,0,14.612,55.958177,-4.409041,-0.10,0.00,0.10,-5.90,14.30,98.60,0,1,0,56,100,-7934,1886,14612,2984.50,8,P-GPS,1,0,0,0,0,0,0,1656150946064,3661,3655,3650,3680,0,0,27,,,,,,,0,0,0,59.00,143.00,986.00,0.00,0.00,981.00,6,897.00,1.41,434.28,-1.00,0.00,1.00,0,,,80,80,0,2,0,0,0,2,0,,,,,0.0,0.0,0.0,0.0,0.0,0.0,0
55.958067,-4.409708,89.70,0.00,0.14,43.44,89.70,89.70,0.14,43.46,9502,2022-06-25 09:55:46.169,2022-06-25 10:55:46.169,14,0,0,14.612,55.958177,-4.409041,-0.10,0.00,0.10,-5.80,13.90,98.60,0,1,0,56,100,-7934,1886,14612,2984.50,8,P-GPS,1,0,0,0,0,0,0,1656150946169,3661,3655,3650,3680,0,0,27,,,,,,,0,0,0,58.00,139.00,986.00,0.00,0.00,981.00,6,897.00,1.41,434.44,-1.00,0.00,1.00,0,,,80,80,0,2,0,0,0,2,0,,,,,0.0,0.0,0.0,0.0,0.0,0.0,0
55.958067,-4.409708,89.70,0.00,0.14,43.45,89.70,89.70,0.14,43.46,9604,2022-06-25 09:55:46.271,2022-06-25 10:55:46.271,14,0,0,14.612,55.958177,-4.409041,-0.10,0.00,0.10,-5.80,13.50,98.60,0,1,0,56,100,-7934,1886,14612,2984.50,8,P-GPS,1,0,0,0,0,0,0,1656150946271,3661,3655,3650,3680,0,0,27,,,,,,,0,0,0,58.00,135.00,986.00,0.00,0.00,981.00,6,897.00,1.41,434.51,-1.00,0.00,1.00,0,,,80,80,0,2,0,0,0,2,0,,,,,0.0,0.0,0.0,0.0,0.0,0.0,0
55.958067,-4.409708,89.70,0.00,0.14,43.46,89.70,89.70,0.14,43.46,9725,2022-06-25 09:55:46.392,2022-06-25 10:55:46.392,14,0,0,14.669,55.958177,-4.409041,-0.10,0.00,0.10,-5.70,13.30,98.50,0,1,0,56,100,-7232,1881,14669,2984.50,8,P-GPS,1,0,0,0,0,0,0,1656150946392,3661,3655,3650,3680,0,0,27,,,,,,,0,0,0,57.00,133.00,985.00,0.00,0.00,981.00,6,897.00,1.41,434.62,-1.00,0.00,1.00,0,,,80,80,0,2,0,0,0,2,0,,,,,0.0,0.0,0.0,0.0,0.0,0.0,0
55.958066,-4.409708,89.60,0.00,0.14,43.48,89.70,89.70,0.14,43.48,9903,2022-06-25 09:55:46.570,2022-06-25 10:55:46.570,14,0,0,14.669,55.958177,-4.409041,-0.10,0.00,0.10,-5.70,12.80,98.60,0,1,0,56,100,-7232,1881,14669,2984.50,8,P-GPS,1,0,0,0,0,0,0,1656150946570,3661,3655,3650,3680,0,0,27,,,,,,,0,0,0,57.00,128.00,986.00,0.00,0.00,981.00,6,896.00,1.41,434.80,-1.00,0.00,1.00,0,,,80,80,0,2,0,0,0,2,0,,,,,0.0,0.0,0.0,0.0,0.0,0.0,0
55.958066,-4.409708,89.70,0.00,0.10,43.49,89.70,89.70,0.14,43.49,9998,2022-06-25 09:55:46.665,2022-06-25 10:55:46.665,14,0,0,14.669,55.958177,-4.409041,-0.10,0.00,0.00,-5.50,12.70,98.70,0,1,0,56,100,-7232,1881,14669,2984.50,8,P-GPS,1,0,0,0,0,0,0,1656150946665,3661,3655,3650,3680,0,0,27,,,,,,,0,0,0,55.00,127.00,987.00,0.00,0.00,981.00,6,897.00,1.00,434.86,-1.00,0.00,0.00,0,,,80,80,0,2,0,0,0,2,0,,,,,0.0,0.0,0.0,0.0,0.0,0.0,0
55.958066,-4.409708,89.70,0.00,0.10,43.49,89.70,89.70,0.14,43.49,10104,2022-06-25 09:55:46.771,2022-06-25 10:55:46.771,14,0,0,14.669,55.958177,-4.409041,-0.10,0.00,0.00,-5.50,12.60,98.60,0,1,0,56,100,-7232,1881,14669,2984.50,8,P-GPS,1,0,0,0,0,0,0,1656150946771,3661,3655,3650,3680,0,0,27,,,,,,,0,0,0,55.00,126.00,986.00,0.00,0.00,981.00,6,897.00,1.00,434.94,-1.00,0.00,0.00,0,,,80,80,0,2,0,0,0,2,0,,,,,0.0,0.0,0.0,0.0,0.0,0.0,0
55.958066,-4.409709,89.70,0.00,0.10,43.50,89.70,89.70,0.14,43.50,10200,2022-06-25 09:55:46.867,2022-06-25 10:55:46.867,14,0,0,14.669,55.958177,-4.409041,-0.10,0.00,0.00,-5.60,12.30,98.60,0,1,0,56,100,-7232,1881,14669,2984.50,8,P-GPS,1,0,0,0,0,0,0,1656150946867,3661,3655,3650,3680,0,0,27,,,,,,,0,0,0,56.00,123.00,986.00,0.00,0.00,981.00,6,897.00,1.00,435.01,-1.00,0.00,0.00,0,,,80,80,0,2,0,0,0,2,0,,,,,0.0,0.0,0.0,0.0,0.0,0.0,0
55.958066,-4.409709,89.70,0.00,0.10,43.51,89.70,89.70,0.14,43.51,10295,2022-06-25 09:55:46.962,2022-06-25 10:55:46.962,14,0,0,14.669,55.958177,-4.409041,-0.10,0.00,0.00,-5.70,11.80,98.60,0,1,0,56,100,-7232,1881,14669,2984.50,8,P-GPS,1,0,0,0,0,0,0,1656150946962,3661,3655,3650,3680,0,0,27,,,,,,,0,0,0,57.00,118.00,986.00,0.00,0.00,981.00,6,897.00,1.00,435.08,-1.00,0.00,0.00,0,,,80,80,0,2,0,0,0,2,0,,,,,0.0,0.0,0.0,0.0,0.0,0.0,0
55.958066,-4.409709,89.70,0.00,0.10,43.51,89.70,89.70,0.14,43.51,10403,2022-06-25 09:55:47.070,2022-06-25 10:55:47.070,14,0,0,14.669,55.958177,-4.409041,-0.10,0.00,0.00,-5.30,11.70,98.80,0,1,0,56,100,-7232,1881,14669,2984.50,8,P-GPS,1,0,0,0,0,0,0,1656150947070,3661,3655,3650,3680,0,0,27,,,,,,,0,0,0,53.00,117.00,988.00,0.00,0.00,981.00,6,897.00,1.00,435.13,-1.00,0.00,0.00,0,,,80,80,0,2,0,0,0,2,0,,,,,0.0,0.0,0.0,0.0,0.0,0.0,0
55.958066,-4.409709,89.70,0.00,0.10,43.52,89.70,89.70,0.14,43.52,10519,2022-06-25 09:55:47.186,2022-06-25 10:55:47.186,14,0,0,14.669,55.958177,-4.409041,-0.10,0.00,0.00,-5.20,11.60,98.70,0,1,0,56,100,-7232,1881,14669,2984.50,8,P-GPS,1,0,0,0,0,0,0,1656150947186,3661,3655,3650,3680,0,0,27,,,,,,,0,0,0,52.00,116.00,987.00,0.00,0.00,981.00,6,897.00,1.00,435.25,-1.00,0.00,0.00,0,,,80,80,0,2,0,0,0,2,0,,,,,0.0,0.0,0.0,0.0,0.0,0.0,0
55.958066,-4.409709,89.70,0.00,0.10,43.53,89.70,89.70,0.14,43.53,10650,2022-06-25 09:55:47.317,2022-06-25 10:55:47.317,14,0,0,14.669,55.958177,-4.409041,-0.10,0.00,0.00,-5.10,11.30,98.70,0,1,0,56,100,-7232,1881,14669,2984.50,8,P-GPS,1,0,0,0,0,0,0,1656150947317,3661,3655,3650,3680,0,0,27,,,,,,,0,0,0,51.00,113.00,987.00,0.00,0.00,981.00,6,897.00,1.00,435.29,-1.00,0.00,0.00,0,,,80,80,0,2,0,0,0,2,0,,,,,0.0,0.0,0.0,0.0,0.0,0.0,0
55.958066,-4.409709,89.70,0.00,0.10,43.54,89.70,89.70,0.14,43.54,10796,2022-06-25 09:55:47.463,2022-06-25 10:55:47.463,14,0,0,14.697,55.958177,-4.409041,-0.10,0.00,0.00,-4.40,11.20,98.80,0,1,0,56,100,-6797,1880,14697,2985.50,8,P-GPS,1,0,0,0,0,0,0,1656150947463,3661,3655,3650,3680,0,0,27,,,,,,,0,0,0,44.00,112.00,988.00,0.00,0.00,981.00,6,897.00,1.00,435.42,-1.00,0.00,0.00,0,,,80,80,0,2,0,0,0,2,0,,,,,0.0,0.0,0.0,0.0,0.0,0.0,0
55.958065,-4.409709,89.70,0.00,0.10,100.12,89.70,89.70,0.14,100.12,10895,2022-06-25 09:55:47.562,2022-06-25 10:55:47.562,14,0,0,14.697,55.958177,-4.409041,-0.10,0.00,0.00,-4.60,10.80,98.80,0,1,0,56,100,-6797,1880,14697,2985.50,8,P-GPS,1,0,0,0,0,0,0,1656150947562,3661,3655,3650,3680,0,0,27,,,,,,,0,0,0,46.00,108.00,988.00,0.00,0.00,981.00,6,897.00,1.00,1001.25,-1.00,0.00,0.00,0,,,80,80,0,2,0,0,0,2,2,,,,,0.0,0.0,0.0,0.0,0.0,0.0,0
55.958065,-4.409709,89.70,0.00,0.10,100.10,89.70,89.70,0.14,100.12,11011,2022-06-25 09:55:47.678,2022-06-25 10:55:47.678,14,0,0,14.697,55.958177,-4.409041,-0.10,0.00,0.00,-4.80,10.50,98.70,0,1,0,56,100,-6797,1880,14697,2985.50,8,P-GPS,1,0,0,0,0,0,0,1656150947678,3661,3655,3650,3680,0,0,27,,,,,,,0,0,0,48.00,105.00,987.00,0.00,0.00,981.00,6,897.00,1.00,1000.99,-1.00,0.00,0.00,0,,,80,80,0,2,0,0,0,2,2,,,,,0.0,0.0,0.0,0.0,0.0,0.0,0
55.958065,-4.409709,89.70,0.00,0.10,100.09,89.70,89.70,0.14,100.12,11099,2022-06-25 09:55:47.766,2022-06-25 10:55:47.766,14,0,0,14.697,55.958177,-4.409041,-0.10,0.00,0.00,-5.00,10.10,98.80,0,1,0,56,100,-6797,1880,14697,2985.50,8,P-GPS,1,0,0,0,0,0,0,1656150947766,3661,3655,3650,3680,0,0,27,,,,,,,0,0,0,50.00,101.00,988.00,0.00,0.00,981.00,6,897.00,1.00,1000.95,-1.00,0.00,0.00,0,,,80,80,0,2,0,0,0,2,2,,,,,0.0,0.0,0.0,0.0,0.0,0.0,0
55.958065,-4.409709,89.70,0.00,0.10,100.08,89.70,89.70,0.14,100.12,11205,2022-06-25 09:55:47.873,2022-06-25 10:55:47.872,14,0,0,14.697,55.958177,-4.409041,-0.10,0.00,0.00,-4.50,9.90,99.00,0,1,0,56,100,-6797,1880,14697,2985.50,8,P-GPS,1,0,0,0,0,0,0,1656150947872,3661,3655,3650,3680,0,0,27,,,,,,,0,0,0,45.00,99.00,990.00,0.00,0.00,981.00,6,897.00,1.00,1000.79,-1.00,0.00,0.00,0,,,80,80,0,2,0,0,0,2,2,,,,,0.0,0.0,0.0,0.0,0.0,0.0,0
55.958065,-4.409709,89.70,0.00,0.10,100.06,89.70,89.70,0.14,100.12,11298,2022-06-25 09:55:47.965,2022-06-25 10:55:47.965,14,0,0,14.697,55.958177,-4.409041,-0.10,0.00,0.00,-4.00,10.20,99.10,0,1,0,56,100,-6797,1880,14697,2985.50,8,P-GPS,1,0,0,0,0,0,0,1656150947965,3661,3655,3650,3680,0,0,27,,,,,,,0,0,0,40.00,102.00,991.00,0.00,0.00,981.00,6,897.00,1.00,1000.57,-1.00,0.00,0.00,0,,,80,80,0,2,0,0,0,2,2,,,,,0.0,0.0,0.0,0.0,0.0,0.0,0
55.958065,-4.409709,89.80,0.00,0.14,100.04,89.80,89.80,0.14,100.12,11398,2022-06-25 09:55:48.066,2022-06-25 10:55:48.065,14,0,0,14.697,55.958177,-4.409041,-0.10,0.00,0.10,-4.20,9.60,99.00,0,1,0,56,100,-6797,1880,14697,2985.50,8,P-GPS,1,0,0,0,0,0,0,1656150948065,3661,3655,3650,3680,0,0,27,,,,,,,0,0,0,42.00,96.00,990.00,0.00,0.00,981.00,6,898.00,1.41,1000.42,-1.00,0.00,1.00,0,,,80,80,0,2,0,0,0,2,2,,,,,0.0,0.0,0.0,0.0,0.0,0.0,0
55.958064,-4.409709,89.70,0.00,0.14,100.03,89.80,89.80,0.14,100.12,11504,2022-06-25 09:55:48.171,2022-06-25 10:55:48.171,14,0,0,14.697,55.958177,-4.409041,-0.10,0.00,0.10,-4.40,9.20,99.00,0,1,0,56,100,-6797,1880,14697,2985.50,8,P-GPS,1,0,0,0,0,0,0,1656150948171,3661,3655,3650,3680,0,0,27,,,,,,,0,0,0,44.00,92.00,990.00,0.00,0.00,981.00,6,897.00,1.41,1000.30,-1.00,0.00,1.00,0,,,80,80,0,2,0,0,0,2,2,,,,,0.0,0.0,0.0,0.0,0.0,0.0,0
55.958064,-4.409709,89.70,0.00,0.10,100.00,89.80,89.80,0.14,100.12,11597,2022-06-25 09:55:48.265,2022-06-25 10:55:48.265,14,0,0,14.697,55.958177,-4.409041,-0.10,0.00,0.00,-4.30,9.30,99.10,0,1,0,56,100,-6797,1880,14697,2985.50,8,P-GPS,1,0,0,0,0,0,0,1656150948264,3661,3655,3650,3680,0,0,27,,,,,,,0,0,0,43.00,93.00,991.00,0.00,0.00,981.00,6,897.00,1.00,1000.03,-1.00,0.00,0.00,0,,,80,80,0,2,0,0,0,2,2,,,,,0.0,0.0,0.0,0.0,0.0,0.0,0
55.958064,-4.409709,89.70,0.00,0.10,100.00,89.80,89.80,0.14,100.12,11691,2022-06-25 09:55:48.358,2022-06-25 10:55:48.358,14,0,0,14.697,55.958177,-4.409041,-0.10,0.00,0.00,-4.30,9.30,99.10,0,1,0,56,100,-6797,1880,14697,2985.50,8,P-GPS,1,0,0,0,0,0,0,1656150948358,3661,3655,3650,3680,0,0,27,,,,,,,0,0,0,43.00,93.00,991.00,0.00,0.00,981.00,6,897.00,1.00,1000.03,-1.00,0.00,0.00,0,,,80,80,0,2,0,0,0,2,2,,,,,0.0,0.0,0.0,0.0,0.0,0.0,0
55.958064,-4.409709,89.70,0.00,0.10,99.98,89.80,89.80,0.14,100.12,11796,2022-06-25 09:55:48.464,2022-06-25 10:55:48.463,14,0,0,14.697,55.958177,-4.409041,-0.10,0.00,0.00,-3.90,9.60,99.10,0,1,0,56,100,-6797,1880,14697,2985.50,8,P-GPS,1,0,0,0,0,0,0,1656150948463,3685,3677,3674,3696,0,0,27,,,,,,,0,0,0,39.00,96.00,991.00,0.00,0.00,981.00,6,897.00,1.00,999.77,-1.00,0.00,0.00,0,,,80,80,0,2,0,0,0,2,2,,,,,0.0,0.0,0.0,0.0,0.0,0.0,0
55.958064,-4.409709,89.80,0.00,0.10,99.96,89.80,89.80,0.14,100.12,11902,2022-06-25 09:55:48.571,2022-06-25 10:55:48.569,14,0,0,14.697,55.958177,-4.409041,-0.10,0.00,0.00,-4.10,9.00,99.00,0,1,0,56,100,-6797,1880,14697,2985.50,8,P-GPS,1,0,0,0,0,0,0,1656150948569,3685,3677,3674,3696,0,0,27,,,,,,,0,0,0,41.00,90.00,990.00,0.00,0.00,981.00,6,898.00,1.00,999.62,-1.00,0.00,0.00,0,,,80,80,0,2,0,0,0,2,2,,,,,0.0,0.0,0.0,0.0,0.0,0.0,0
55.958064,-4.409709,89.70,0.00,0.10,99.96,89.80,89.80,0.14,100.12,11997,2022-06-25 09:55:48.665,2022-06-25 10:55:48.664,14,0,0,14.697,55.958177,-4.409041,-0.10,0.00,0.00,-4.50,8.70,98.80,0,1,0,56,100,-6797,1880,14697,2985.50,8,P-GPS,1,0,0,0,0,0,0,1656150948664,3685,3677,3674,3696,0,0,27,,,,,,,0,0,0,45.00,87.00,988.00,0.00,0.00,981.00,6,897.00,1.00,999.63,-1.00,0.00,0.00,0,,,80,80,0,2,0,0,0,2,2,,,,,0.0,0.0,0.0,0.0,0.0,0.0,0
55.958064,-4.409709,89.70,0.00,0.10,99.94,89.80,89.80,0.14,100.12,12105,2022-06-25 09:55:48.773,2022-06-25 10:55:48.772,14,0,0,14.697,55.958177,-4.409041,-0.10,0.00,0.00,-4.90,8.40,98.80,0,1,0,56,100,-6797,1880,14697,2985.50,8,P-GPS,1,0,0,0,0,0,0,1656150948772,3685,3677,3674,3696,0,0,27,,,,,,,0,0,0,49.00,84.00,988.00,0.00,0.00,981.00,6,897.00,1.00,999.40,-1.00,0.00,0.00,0,,,80,80,0,2,0,0,0,2,2,,,,,0.0,0.0,0.0,0.0,0.0,0.0,0
55.958063,-4.409709,89.70,0.00,0.14,99.93,89.80,89.80,0.14,100.12,12197,2022-06-25 09:55:48.865,2022-06-25 10:55:48.864,14,0,0,14.697,55.958177,-4.409041,-0.10,0.00,0.10,-5.30,8.60,98.70,0,1,0,56,100,-6797,1880,14697,2985.50,8,P-GPS,1,0,0,0,0,0,0,1656150948864,3685,3677,3674,3696,0,0,27,,,,,,,0,0,0,53.00,86.00,987.00,0.00,0.00,981.00,6,897.00,1.41,999.30,-1.00,0.00,1.00,0,,,80,80,0,2,0,0,0,2,2,,,,,0.0,0.0,0.0,0.0,0.0,0.0,0
55.958063,-4.409709,89.70,0.00,0.22,99.92,89.80,89.80,0.22,100.12,12296,2022-06-25 09:55:48.963,2022-06-25 10:55:48.963,14,0,0,14.697,55.958177,-4.409041,-0.10,0.00,0.20,-5.30,8.00,98.70,0,1,0,56,100,-6797,1880,14697,2985.50,8,P-GPS,1,0,0,0,0,0,0,1656150948963,3685,3677,3674,3696,0,0,27,,,,,,,0,0,0,53.00,80.00,987.00,0.00,0.00,981.00,6,897.00,2.24,999.23,-1.00,0.00,2.00,0,,,80,80,0,2,0,0,0,2,2,,,,,0.0,0.0,0.0,0.0,0.0,0.0,0
55.958063,-4.409709,89.60,0.00,0.20,99.93,89.80,89.80,0.22,100.12,12396,2022-06-25 09:55:49.063,2022-06-25 10:55:49.063,14,0,0,14.697,55.958177,-4.409041,0.00,0.00,0.20,-5.20,8.10,98.90,0,1,0,56,100,-6797,1880,14697,2985.50,8,P-GPS,1,0,0,0,0,0,0,1656150949063,3685,3677,3674,3696,0,0,27,,,,,,,0,0,0,52.00,81.00,989.00,0.00,0.00,981.00,6,896.00,2.00,999.26,0.00,0.00,2.00,0,,,80,80,0,2,0,0,0,2,2,,,,,0.0,0.0,0.0,0.0,0.0,0.0,0
55.958063,-4.409709,89.60,0.00,0.10,99.91,89.80,89.80,0.22,100.12,12498,2022-06-25 09:55:49.165,2022-06-25 10:55:49.165,14,0,0,14.697,55.958177,-4.409041,0.00,0.00,0.10,-5.20,8.80,98.90,0,1,0,56,100,-6797,1880,14697,2985.50,8,P-GPS,1,0,0,0,0,0,0,1656150949165,3685,3677,3674,3696,0,0,27,,,,,,,0,0,0,52.00,88.00,989.00,0.00,0.00,981.00,6,896.00,1.00,999.14,0.00,0.00,1.00,0,,,80,80,0,2,0,0,0,2,2,,,,,0.0,0.0,0.0,0.0,0.0,0.0,0
55.958063,-4.409709,89.60,0.00,0.00,99.89,89.80,89.80,0.22,100.12,12599,2022-06-25 09:55:49.267,2022-06-25 10:55:49.266,14,0,0,14.697,55.958177,-4.409041,0.00,0.00,0.00,-5.40,8.90,99.00,0,1,0,56,100,-6797,1880,14697,2985.50,8,P-GPS,1,0,0,0,0,0,0,1656150949266,3685,3677,3674,3696,0,0,27,,,,,,,0,0,0,54.00,89.00,990.00,0.00,0.00,981.00,6,896.00,0.00,998.92,0.00,0.00,0.00,0,,,80,80,0,2,0,0,0,2,2,,,,,0.0,0.0,0.0,0.0,0.0,0.0,0
55.958063,-4.409709,89.60,0.00,0.00,99.89,89.80,89.80,0.22,100.12,12694,2022-06-25 09:55:49.361,2022-06-25 10:55:49.361,14,0,0,14.697,55.958177,-4.409041,0.00,0.00,0.00,-5.40,8.90,99.00,0,1,0,56,100,-6679,1878,14697,2985.50,8,P-GPS,1,0,0,0,0,0,0,1656150949361,3685,3677,3674,3696,0,0,27,,,,,,,0,0,0,54.00,89.00,990.00,0.00,0.00,981.00,6,896.00,0.00,998.92,0.00,0.00,0.00,0,,,80,80,0,2,0,0,0,2,2,,,,,0.0,0.0,0.0,0.0,0.0,0.0,0
55.958063,-4.409710,89.60,0.00,0.00,99.88,89.80,89.80,0.22,100.12,12796,2022-06-25 09:55:49.463,2022-06-25 10:55:49.463,14,0,0,14.697,55.958177,-4.409041,0.00,0.00,0.00,-5.30,9.50,99.10,0,1,0,56,100,-6679,1878,14697,2985.50,8,P-GPS,1,0,0,0,0,0,0,1656150949463,3685,3677,3674,3696,0,0,27,,,,,,,0,0,0,53.00,95.00,991.00,0.00,0.00,981.00,6,896.00,0.00,998.84,0.00,0.00,0.00,0,,,80,80,0,2,0,0,0,2,2,,,,,0.0,0.0,0.0,0.0,0.0,0.0,0
55.958063,-4.409709,89.60,0.00,0.00,99.87,89.80,89.80,0.22,100.12,12898,2022-06-25 09:55:49.565,2022-06-25 10:55:49.565,14,0,0,14.854,55.958177,-4.409041,0.00,0.00,0.00,-4.80,10.00,99.20,0,1,0,56,100,-5799,1876,14854,2985.50,8,P-GPS,1,0,0,0,0,0,0,1656150949565,3685,3677,3674,3696,0,0,27,,,,,,,0,0,0,48.00,100.00,992.00,0.00,0.00,981.00,6,896.00,0.00,998.66,0.00,0.00,0.00,0,,,80,80,0,2,0,0,0,2,2,,,,,0.0,0.0,0.0,0.0,0.0,0.0,0
55.958063,-4.409709,89.60,0.00,0.00,99.85,89.80,89.80,0.22,100.12,12998,2022-06-25 09:55:49.666,2022-06-25 10:55:49.665,14,0,0,14.854,55.958177,-4.409041,0.00,0.00,0.00,-4.80,9.70,99.10,0,1,0,56,100,-5799,1876,14854,2985.50,8,P-GPS,1,0,0,0,0,0,0,1656150949665,3685,3677,3674,3696,0,0,27,,,,,,,0,0,0,48.00,97.00,991.00,0.00,0.00,981.00,6,896.00,0.00,998.51,0.00,0.00,0.00,0,,,80,80,0,2,0,0,0,2,2,,,,,0.0,0.0,0.0,0.0,0.0,0.0,0
55.958063,-4.409709,89.70,0.00,0.00,99.84,89.80,89.80,0.22,100.12,13098,2022-06-25 09:55:49.766,2022-06-25 10:55:49.765,14,0,0,14.854,55.958177,-4.409041,0.00,0.00,0.00,-4.70,9.50,99.10,0,1,0,56,100,-5799,1876,14854,2985.50,8,P-GPS,1,0,0,0,0,0,0,1656150949765,3685,3677,3674,3696,0,0,27,,,,,,,0,0,0,47.00,95.00,991.00,0.00,0.00,981.00,6,897.00,0.00,998.38,0.00,0.00,0.00,0,,,80,80,0,2,0,0,0,2,2,,,,,0.0,0.0,0.0,0.0,0.0,0.0,0
55.958063,-4.409709,89.70,0.00,0.00,99.82,89.80,89.80,0.22,100.12,13196,2022-06-25 09:55:49.864,2022-06-25 10:55:49.863,14,0,0,14.854,55.958177,-4.409041,0.00,0.00,0.00,-4.20,9.60,99.20,0,1,0,56,100,-5799,1876,14854,2985.50,8,P-GPS,1,0,0,0,0,0,0,1656150949863,3685,3677,3674,3696,0,0,27,,,,,,,0,0,0,42.00,96.00,992.00,0.00,0.00,981.00,6,897.00,0.00,998.20,0.00,0.00,0.00,0,,,80,80,0,2,0,0,0,2,2,,,,,0.0,0.0,0.0,0.0,0.0,0.0,0
55.958063,-4.409709,89.70,0.00,0.10,99.79,89.80,89.80,0.22,100.12,13301,2022-06-25 09:55:49.968,2022-06-25 10:55:49.968,14,0,0,14.854,55.958177,-4.409041,0.00,0.10,0.00,-3.40,9.50,99.20,0,1,0,56,100,-5799,1876,14854,2985.50,8,P-GPS,1,0,0,0,0,0,0,1656150949968,3685,3677,3674,3696,0,0,27,,,,,,,0,0,0,34.00,95.00,992.00,0.00,0.00,981.00,6,897.00,1.00,997.92,0.00,1.00,0.00,0,,,80,80,0,2,0,0,0,2,2,,,,,0.0,0.0,0.0,0.0,0.0,0.0,0
55.958063,-4.409709,89.70,0.00,0.10,99.77,89.80,89.80,0.22,100.12,13397,2022-06-25 09:55:50.064,2022-06-25 10:55:50.064,14,0,0,14.854,55.958177,-4.409041,0.00,0.10,0.00,-2.90,9.40,99.10,0,1,0,56,100,-5799,1876,14854,2985.50,8,P-GPS,1,0,0,0,0,0,0,1656150950064,3685,3677,3674,3696,0,0,27,,,,,,,0,0,0,29.00,94.00,991.00,0.00,0.00,981.00,6,897.00,1.00,997.71,0.00,1.00,0.00,0,,,80,80,0,2,0,0,0,2,2,,,,,0.0,0.0,0.0,0.0,0.0,0.0,0
55.958063,-4.409709,89.70,0.00,0.00,99.76,89.80,89.80,0.22,100.12,13499,2022-06-25 09:55:50.167,2022-06-25 10:55:50.166,14,0,0,14.854,55.958177,-4.409041,0.00,0.00,0.00,-2.70,8.90,99.10,0,1,0,56,100,-5799,1876,14854,2985.50,8,P-GPS,1,0,0,0,0,0,0,1656150950166,3685,3677,3674,3696,0,0,27,,,,,,,0,0,0,27.00,89.00,991.00,0.00,0.00,981.00,6,897.00,0.00,997.60,0.00,0.00,0.00,0,,,80,100,0,2,0,0,0,2,2,,,,,0.0,0.0,0.0,0.0,0.0,0.0,0
55.958063,-4.409709,89.70,0.00,0.10,99.74,89.80,89.80,0.22,100.12,13599,2022-06-25 09:55:50.266,2022-06-25 10:55:50.266,14,0,0,14.854,55.958177,-4.409041,0.00,0.00,0.10,-2.70,8.40,99.10,0,1,0,56,100,-5799,1876,14854,2985.50,8,P-GPS,1,0,0,0,0,0,0,1656150950266,3685,3677,3674,3696,0,0,27,,,,,,,0,0,0,27.00,84.00,991.00,0.00,0.00,981.00,6,897.00,1.00,997.41,0.00,0.00,1.00,0,,,80,100,0,2,0,0,0,2,2,,,,,0.0,0.0,0.0,0.0,0.0,0.0,0
55.958063,-4.409709,89.70,0.00,0.10,99.73,89.80,89.80,0.22,100.12,13686,2022-06-25 09:55:50.353,2022-06-25 10:55:50.353,14,0,0,14.825,55.958177,-4.409041,-0.10,0.00,0.10,-2.70,8.40,99.10,0,1,0,56,100,-6236,1874,14825,2985.50,8,P-GPS,1,0,0,0,0,0,0,1656150950353,3685,3677,3674,3696,0,0,27,,,,,,,0,0,0,27.00,84.00,991.00,0.00,0.00,981.00,6,897.00,1.00,997.29,-1.00,0.00,1.00,0,,,80,100,0,2,0,0,0,2,2,,,,,0.0,0.0,0.0,0.0,0.0,0.0,0
55.958063,-4.409709,89.60,0.00,0.14,99.70,89.80,89.80,0.22,100.12,13799,2022-06-25 09:55:50.466,2022-06-25 10:55:50.466,14,0,0,14.825,55.958177,-4.409041,-0.10,0.00,0.10,-2.90,7.30,99.10,0,1,0,56,100,-6236,1874,14825,2985.50,8,P-GPS,1,0,0,0,0,0,0,1656150950466,3685,3677,3674,3696,0,0,27,,,,,,,0,0,0,29.00,73.00,991.00,0.00,0.00,981.00,6,896.00,1.41,997.03,-1.00,0.00,1.00,0,,,80,100,0,2,0,0,0,2,2,,,,,0.0,0.0,0.0,0.0,0.0,0.0,0
55.958063,-4.409709,89.50,0.00,0.14,99.69,89.80,89.80,0.22,100.12,13902,2022-06-25 09:55:50.570,2022-06-25 10:55:50.569,14,0,0,14.825,55.958177,-4.409041,-0.10,0.00,0.10,-3.00,7.20,99.10,0,1,0,56,100,-6236,1874,14825,2985.50,8,P-GPS,1,0,0,0,0,0,0,1656150950569,3685,3677,3674,3696,0,0,27,,,,,,,0,0,0,30.00,72.00,991.00,0.00,0.00,981.00,6,895.00,1.41,996.88,-1.00,0.00,1.00,0,,,80,100,0,2,0,0,0,2,2,,,,,0.0,0.0,0.0,0.0,0.0,0.0,0
55.958063,-4.409709,89.60,0.00,0.10,99.68,89.80,89.80,0.22,100.12,13997,2022-06-25 09:55:50.664,2022-06-25 10:55:50.664,14,0,0,14.825,55.958177,-4.409041,0.00,0.00,0.10,-3.00,6.90,99.20,0,1,0,56,100,-6236,1874,14825,2985.50,8,P-GPS,1,0,0,0,0,0,0,1656150950664,3685,3677,3674,3696,0,0,27,,,,,,,0,0,0,30.00,69.00,992.00,0.00,0.00,981.00,6,896.00,1.00,996.83,0.00,0.00,1.00,0,,,80,100,0,2,0,0,0,2,2,,,,,0.0,0.0,0.0,0.0,0.0,0.0,0
55.958063,-4.409708,89.50,0.00,0.10,99.68,89.80,89.80,0.22,100.12,14095,2022-06-25 09:55:50.763,2022-06-25 10:55:50.762,14,0,0,14.825,55.958177,-4.409041,0.00,0.00,0.10,-2.70,7.20,99.10,0,1,0,56,100,-6236,1874,14825,2985.50,8,P-GPS,1,0,0,0,0,0,0,1656150950762,3685,3677,3674,3696,0,0,27,,,,,,,0,0,0,27.00,72.00,991.00,0.00,0.00,981.00,6,895.00,1.00,996.77,0.00,0.00,1.00,0,,,80,100,0,2,0,0,0,2,2,,,,,0.0,0.0,0.0,0.0,0.0,0.0,0
55.958063,-4.409708,89.50,0.00,0.00,99.67,89.80,89.80,0.22,100.12,14196,2022-06-25 09:55:50.864,2022-06-25 10:55:50.863,14,0,0,14.825,55.958177,-4.409041,0.00,0.00,0.00,-2.80,7.10,99.10,0,1,0,56,100,-6236,1874,14825,2985.50,8,P-GPS,1,0,0,0,0,0,0,1656150950863,3685,3677,3674,3696,0,0,27,,,,,,,0,0,0,28.00,71.00,991.00,0.00,0.00,981.00,6,895.00,0.00,996.72,0.00,0.00,0.00,0,,,80,100,0,2,0,0,0,2,2,,,,,0.0,0.0,0.0,0.0,0.0,0.0,0
55.958063,-4.409709,89.50,0.00,0.00,99.68,89.80,89.80,0.22,100.12,14301,2022-06-25 09:55:50.968,2022-06-25 10:55:50.968,14,0,0,14.825,55.958177,-4.409041,0.00,0.00,0.00,-2.90,7.40,99.10,0,1,0,56,100,-6236,1874,14825,2985.50,8,P-GPS,1,0,0,0,0,0,0,1656150950968,3685,3677,3674,3696,0,0,27,,,,,,,0,0,0,29.00,74.00,991.00,0.00,0.00,981.00,6,895.00,0.00,996.80,0.00,0.00,0.00,0,,,80,100,0,2,0,0,0,2,2,,,,,0.0,0.0,0.0,0.0,0.0,0.0,0
55.958062,-4.409709,89.50,0.00,0.00,99.68,89.80,89.80,0.22,100.12,14400,2022-06-25 09:55:51.068,2022-06-25 10:55:51.067,14,0,0,14.825,55.958177,-4.409041,0.00,0.00,0.00,-3.10,7.60,99.10,0,1,0,56,100,-6236,1874,14825,2985.50,8,P-GPS,1,0,0,0,0,0,0,1656150951067,3685,3677,3674,3696,0,0,27,,,,,,,0,0,0,31.00,76.00,991.00,0.00,0.00,981.00,6,895.00,0.00,996.80,0.00,0.00,0.00,0,,,80,100,0,2,0,0,0,2,2,,,,,0.0,0.0,0.0,0.0,0.0,0.0,0
