latitude,longitude,altitude(m),ultrasonicHeight(m),speed(mps),distance(m),max_altitude(m),max_ascent(m),max_speed(mps),max_distance(m),time(millisecond),datetime(utc),datetime(local),satellites,pressure(Pa),temperature(F),voltage(v),home_latitude,home_longitude,velocityX(mps),velocityY(mps),velocityZ(mps),pitch(deg),roll(deg),yaw(deg),powerlevel,isflying,istakingphoto,remainPowerPercent,remainLifePercent,currentCurrent,currentElectricity,currentVoltage,batteryTemperature,dischargeCount,flightmode,isMotorsOn,isTakingVideo,Rc_elevator,Rc_aileron,Rc_throttle,Rc_rudder,Rc_gyro,timestamp,Battery_Cell1,Battery_Cell2,Battery_Cell3,Battery_Cell4,Battery_Cell5,Battery_Cell6,Dronetype,AppVersion,Planename,FlyControllerSerialNumber,RemoteSerialNumber,BatterySerialNumber,CENTER_BATTERY.productDate,CENTER_BATTERY.serialNo,CENTER_BATTERY.fullCapacity,CENTER_BATTERY.productDateRaw,pitchRaw,rollRaw,yawRaw,gimbalPitchRaw,gimbalRollRaw,gimbalYawRaw,flyState,altitudeRaw,speedRaw,distanceRaw,velocityXRaw,velocityYRaw,velocityZRaw,data_reuse,App_Tip,App_Warning,downlinkSignalQuality,uplinkSignalQuality,transmissionChannel,rcModeSwitch,rcHome,rcPause,rcTransform,rcJoystickMode,appMode,FlyControllerSerialNumber_legacy,RemoteSerialNumber_legacy,BatterySerialNumber_legacy,Battery2SerialNumber,frontAvoidDist,backAvoidDist,rightAvoidDist,leftAvoidDist,upAvoidDist,downAvoidDist,isBrakingToAvoid
55.936292,-4.407673,0.20,0.20,0.10,0.06,0.20,0.20,0.10,0.06,0,2022-04-18 10:07:53.065,2022-04-18 11:07:53.064,17,0,0,15.750,55.936292,-4.407674,0.00,0.00,-0.10,-0.20,0.60,160.90,0,1,0,63,100,-3031,2144,15750,3034.50,6,P-GPS,1,0,0,0,206,0,0,1650276473064,3942,3930,3933,3916,0,0,27,Litchi_4.22.2-g,CJTMAVIC,163DFAS001K45C,0VECFAK0072T52,0P2AFAL5340E87,,0,0,0,2.00,6.00,1609.00,0.00,0.00,1610.00,6,2.00,1.00,0.57,0.00,0.00,-1.00,0,,,100,100,0,2,0,0,0,2,0,,,,null,0.0,5.2,0.0,0.0,0.0,0.0,0
55.936292,-4.407673,0.20,0.30,0.20,0.06,0.20,0.20,0.20,0.06,97,2022-04-18 10:07:53.162,2022-04-18 11:07:53.161,17,0,0,15.750,55.936292,-4.407674,0.00,0.00,-0.20,-0.40,0.90,160.90,0,1,0,63,100,-3031,2144,15750,3034.50,6,P-GPS,1,0,0,0,209,0,0,1650276473161,3942,3930,3933,3916,0,0,27,,,,,,,0,0,0,4.00,9.00,1609.00,0.00,0.00,1610.00,6,2.00,2.00,0.59,0.00,0.00,-2.00,0,,,100,100,0,2,0,0,0,2,0,,,,,0.0,5.2,0.0,0.0,0.0,0.0,0
55.936292,-4.407673,0.20,0.30,0.20,0.06,0.20,0.20,0.20,0.06,202,2022-04-18 10:07:53.267,2022-04-18 11:07:53.266,17,0,0,15.750,55.936292,-4.407674,0.00,0.00,-0.20,-0.20,1.10,160.90,0,1,0,63,100,-3031,2144,15750,3034.50,6,P-GPS,1,0,0,0,203,0,0,1650276473266,3942,3930,3933,3916,0,0,27,,,,,,,0,0,0,2.00,11.00,1609.00,0.00,0.00,1610.00,6,2.00,2.00,0.60,0.00,0.00,-2.00,0,,,100,100,0,2,0,0,0,2,0,,,,,0.0,5.2,0.0,0.0,0.0,0.0,0
55.936292,-4.407673,0.30,0.30,0.30,0.06,0.30,0.30,0.30,0.06,302,2022-04-18 10:07:53.367,2022-04-18 11:07:53.366,17,0,0,15.750,55.936292,-4.407674,0.00,0.00,-0.30,-0.50,1.30,160.90,0,1,0,63,100,-3031,2144,15750,3034.50,6,P-GPS,1,0,0,0,213,0,0,1650276473366,3942,3930,3933,3916,0,0,27,,,,,,,0,0,0,5.00,13.00,1609.00,0.00,0.00,1610.00,6,3.00,3.00,0.65,0.00,0.00,-3.00,0,,,100,100,0,2,0,0,0,2,0,,,,,0.0,5.2,0.0,0.0,0.0,0.0,0
55.936292,-4.407673,0.30,0.30,0.30,0.06,0.30,0.30,0.30,0.06,401,2022-04-18 10:07:53.465,2022-04-18 11:07:53.465,17,0,0,15.750,55.936292,-4.407674,0.00,0.00,-0.30,-0.50,1.20,160.90,0,1,0,63,100,-3031,2144,15750,3034.50,6,P-GPS,1,0,0,0,224,0,0,1650276473465,3942,3930,3933,3916,0,0,27,,,,,,,0,0,0,5.00,12.00,1609.00,0.00,0.00,1610.00,6,3.00,3.00,0.65,0.00,0.00,-3.00,0,,,100,100,0,2,0,0,0,2,0,,,,,0.0,5.2,0.0,0.0,0.0,0.0,0
55.936292,-4.407673,0.40,0.40,0.30,0.07,0.40,0.40,0.30,0.07,499,2022-04-18 10:07:53.563,2022-04-18 11:07:53.563,17,0,0,15.750,55.936292,-4.407674,0.00,0.00,-0.30,-1.00,1.30,161.00,0,1,0,63,100,-3031,2144,15750,3034.50,6,P-GPS,1,0,0,0,224,0,0,1650276473563,3942,3930,3933,3916,0,0,27,,,,,,,0,0,0,10.00,13.00,1610.00,0.00,0.00,1610.00,6,4.00,3.00,0.71,0.00,0.00,-3.00,0,,,100,100,0,2,0,0,0,2,0,,,,,0.0,5.2,0.0,0.0,0.0,0.0,0
55.936292,-4.407673,0.40,0.40,0.30,0.07,0.40,0.40,0.30,0.07,606,2022-04-18 10:07:53.670,2022-04-18 11:07:53.670,17,0,0,15.569,55.936292,-4.407674,0.00,0.00,-0.30,-1.20,2.00,160.90,0,1,0,63,100,-6630,2143,15569,3035.50,6,P-GPS,1,0,18,0,232,0,0,1650276473670,3942,3930,3933,3916,0,0,27,,,,,,,0,0,0,12.00,20.00,1609.00,0.00,0.00,1610.00,6,4.00,3.00,0.74,0.00,0.00,-3.00,0,,,100,100,0,2,0,0,0,2,0,,,,,0.0,5.2,0.0,0.0,0.0,0.0,0
55.936292,-4.407672,0.50,0.40,0.30,0.09,0.50,0.50,0.30,0.09,698,2022-04-18 10:07:53.762,2022-04-18 11:07:53.762,17,0,0,15.569,55.936292,-4.407674,0.00,0.00,-0.30,-1.30,2.70,160.80,0,1,0,63,100,-6630,2143,15569,3035.50,6,P-GPS,1,0,66,0,236,0,0,1650276473762,3942,3930,3933,3916,0,0,27,,,,,,,0,0,0,13.00,27.00,1608.00,0.00,0.00,1610.00,6,5.00,3.00,0.91,0.00,0.00,-3.00,0,,,100,100,0,2,0,0,0,2,0,,,,,0.0,5.2,0.0,0.0,0.0,0.0,0
55.936292,-4.407672,0.50,0.50,0.41,0.10,0.50,0.50,0.41,0.10,798,2022-04-18 10:07:53.863,2022-04-18 11:07:53.862,17,0,0,15.569,55.936292,-4.407674,0.00,0.10,-0.40,-1.30,2.90,160.80,0,1,0,63,100,-6630,2143,15569,3035.50,6,P-GPS,1,0,103,0,236,0,0,1650276473862,3942,3930,3933,3916,0,0,27,,,,,,,0,0,0,13.00,29.00,1608.00,0.00,0.00,1610.00,6,5.00,4.12,0.99,0.00,1.00,-4.00,0,,,100,100,0,2,0,0,0,2,0,,,,,0.0,5.2,0.0,0.0,0.0,0.0,0
55.936292,-4.407672,0.60,0.50,0.41,0.11,0.60,0.60,0.41,0.11,898,2022-04-18 10:07:53.963,2022-04-18 11:07:53.963,17,0,0,15.569,55.936292,-4.407674,0.00,0.10,-0.40,-1.30,2.70,160.70,0,1,0,63,100,-6630,2143,15569,3035.50,6,P-GPS,1,0,137,0,231,0,0,1650276473962,3942,3930,3933,3916,0,0,27,,,,,,,0,0,0,13.00,27.00,1607.00,0.00,0.00,1610.00,6,6.00,4.12,1.07,0.00,1.00,-4.00,0,,,100,100,0,2,0,0,0,2,0,,,,,0.0,5.2,0.0,0.0,0.0,0.0,0
55.936292,-4.407672,0.60,0.50,0.41,0.12,0.60,0.60,0.41,0.12,1001,2022-04-18 10:07:54.065,2022-04-18 11:07:54.065,17,0,0,15.569,55.936292,-4.407674,0.00,0.10,-0.40,-1.70,2.80,160.70,0,1,0,63,100,-6630,2143,15569,3035.50,6,P-GPS,1,0,179,0,217,0,0,1650276474065,3942,3930,3933,3916,0,0,27,,,,,,,0,0,0,17.00,28.00,1607.00,0.00,0.00,1610.00,6,6.00,4.12,1.17,0.00,1.00,-4.00,0,,,100,100,0,2,0,0,0,2,0,,,,,0.0,5.2,0.0,0.0,0.0,0.0,0
55.936292,-4.407672,0.60,0.60,0.41,0.12,0.60,0.60,0.41,0.12,1095,2022-04-18 10:07:54.159,2022-04-18 11:07:54.159,17,0,0,15.569,55.936292,-4.407674,0.00,0.10,-0.40,-2.20,2.90,160.70,0,1,0,63,100,-6630,2143,15569,3035.50,6,P-GPS,1,0,206,0,216,0,0,1650276474159,3942,3930,3933,3916,0,0,27,,,,,,,0,0,0,22.00,29.00,1607.00,0.00,0.00,1610.00,6,6.00,4.12,1.18,0.00,1.00,-4.00,0,,,100,100,0,2,0,0,0,2,0,,,,,0.0,5.2,0.0,0.0,0.0,0.0,0
55.936292,-4.407672,0.60,0.60,0.32,0.13,0.60,0.60,0.41,0.13,1198,2022-04-18 10:07:54.263,2022-04-18 11:07:54.262,17,0,0,15.569,55.936292,-4.407674,0.00,0.10,-0.30,-2.80,2.90,160.70,0,1,0,63,100,-6630,2143,15569,3035.50,6,P-GPS,1,0,246,0,218,0,0,1650276474262,3942,3930,3933,3916,0,0,27,,,,,,,0,0,0,28.00,29.00,1607.00,0.00,0.00,1610.00,6,6.00,3.16,1.30,0.00,1.00,-3.00,0,,,100,100,0,2,0,0,0,2,0,,,,,0.0,5.2,0.0,0.0,0.0,0.0,0
55.936292,-4.407671,0.70,0.60,0.32,0.15,0.70,0.70,0.41,0.15,1301,2022-04-18 10:07:54.365,2022-04-18 11:07:54.365,17,0,0,15.569,55.936292,-4.407674,0.00,0.10,-0.30,-3.70,3.10,160.60,0,1,0,63,100,-6630,2143,15569,3035.50,6,P-GPS,1,0,275,0,218,0,0,1650276474365,3942,3930,3933,3916,0,0,27,,,,,,,0,0,0,37.00,31.00,1606.00,0.00,0.00,1610.00,6,7.00,3.16,1.45,0.00,1.00,-3.00,0,,,100,100,0,2,0,0,0,2,0,,,,,0.0,5.3,0.0,0.0,0.0,0.0,0
55.936292,-4.407671,0.70,0.60,0.32,0.16,0.70,0.70,0.41,0.16,1400,2022-04-18 10:07:54.464,2022-04-18 11:07:54.464,17,0,0,15.569,55.936292,-4.407674,0.00,0.10,-0.30,-4.90,3.20,160.60,0,1,0,63,100,-6630,2143,15569,3035.50,6,P-GPS,1,0,305,0,222,0,0,1650276474464,3942,3930,3933,3916,0,0,27,,,,,,,0,0,0,49.00,32.00,1606.00,0.00,0.00,1610.00,6,7.00,3.16,1.62,0.00,1.00,-3.00,0,,,100,100,0,2,0,0,0,2,0,,,,,0.0,5.3,0.0,0.0,0.0,0.0,0
55.936292,-4.407671,0.70,0.70,0.33,0.19,0.70,0.70,0.41,0.19,1498,2022-04-18 10:07:54.562,2022-04-18 11:07:54.562,16,0,0,15.569,55.936292,-4.407674,-0.10,0.10,-0.30,-5.80,3.20,160.50,0,1,0,63,100,-6630,2143,15569,3035.50,6,P-GPS,1,0,320,0,235,0,0,1650276474562,3942,3930,3933,3916,0,0,27,,,,,,,0,0,0,58.00,32.00,1605.00,0.00,0.00,1610.00,6,7.00,3.32,1.88,-1.00,1.00,-3.00,0,,,100,100,0,2,0,0,0,2,0,,,,,0.0,5.3,0.0,0.0,0.0,0.0,0
55.936291,-4.407671,0.70,0.70,0.37,0.22,0.70,0.70,0.41,0.22,1596,2022-04-18 10:07:54.661,2022-04-18 11:07:54.660,16,0,0,15.510,55.936292,-4.407674,-0.20,0.10,-0.30,-6.40,3.10,160.50,0,1,0,63,100,-7478,2141,15510,3035.50,6,P-GPS,1,0,326,0,240,0,0,1650276474660,3942,3930,3933,3916,0,0,27,,,,,,,0,0,0,64.00,31.00,1605.00,0.00,0.00,1610.00,6,7.00,3.74,2.16,-2.00,1.00,-3.00,0,,,100,100,0,2,0,0,0,2,0,,,,,0.0,5.3,0.0,0.0,0.0,0.0,0
55.936291,-4.407670,0.70,0.70,0.47,0.24,0.70,0.70,0.47,0.24,1700,2022-04-18 10:07:54.765,2022-04-18 11:07:54.764,16,0,0,15.510,55.936292,-4.407674,-0.30,0.20,-0.30,-6.80,3.00,160.60,0,1,0,63,100,-7478,2141,15510,3035.50,6,P-GPS,1,0,327,0,241,0,0,1650276474764,3942,3930,3933,3916,0,0,27,,,,,,,0,0,0,68.00,30.00,1606.00,0.00,0.00,1610.00,6,7.00,4.69,2.45,-3.00,2.00,-3.00,0,,,100,100,0,2,0,0,0,2,0,,,,,0.0,5.4,0.0,0.0,0.0,0.0,0
55.936291,-4.407670,0.80,0.70,0.54,0.29,0.80,0.80,0.54,0.29,1802,2022-04-18 10:07:54.866,2022-04-18 11:07:54.866,16,0,0,15.510,55.936292,-4.407674,-0.40,0.20,-0.30,-6.70,3.00,160.60,0,1,0,63,100,-7478,2141,15510,3035.50,6,P-GPS,1,0,327,0,241,0,0,1650276474866,3942,3930,3933,3916,0,0,27,,,,,,,0,0,0,67.00,30.00,1606.00,0.00,0.00,1610.00,6,8.00,5.39,2.91,-4.00,2.00,-3.00,0,,,100,100,0,2,0,0,0,2,0,,,,,0.0,5.4,0.0,0.0,0.0,0.0,0
55.936291,-4.407669,0.80,0.80,0.66,0.33,0.80,0.80,0.66,0.33,1896,2022-04-18 10:07:54.960,2022-04-18 11:07:54.960,17,0,0,15.510,55.936292,-4.407674,-0.50,0.30,-0.30,-6.50,3.10,160.60,0,1,0,63,100,-7478,2141,15510,3035.50,6,P-GPS,1,0,326,0,227,0,0,1650276474960,3942,3930,3933,3916,0,0,27,,,,,,,0,0,0,65.00,31.00,1606.00,0.00,0.00,1610.00,6,8.00,6.56,3.30,-5.00,3.00,-3.00,0,,,100,100,0,2,0,0,0,2,0,,,,,0.0,5.6,0.0,0.0,0.0,0.0,0
55.936290,-4.407669,0.80,0.80,0.73,0.40,0.80,0.80,0.73,0.40,2001,2022-04-18 10:07:55.065,2022-04-18 11:07:55.065,17,0,0,15.510,55.936292,-4.407674,-0.60,0.30,-0.30,-6.10,3.00,160.70,0,1,0,63,100,-7478,2141,15510,3035.50,6,P-GPS,1,0,322,0,206,0,0,1650276475065,3942,3930,3933,3916,0,0,27,,,,,,,0,0,0,61.00,30.00,1607.00,0.00,0.00,1610.00,6,8.00,7.35,3.96,-6.00,3.00,-3.00,0,,,100,100,0,2,0,0,0,2,0,,,,,0.0,5.6,0.0,0.0,0.0,0.0,0
55.936289,-4.407668,0.80,0.80,0.82,0.47,0.80,0.80,0.82,0.47,2101,2022-04-18 10:07:55.165,2022-04-18 11:07:55.165,17,0,0,15.510,55.936292,-4.407674,-0.70,0.30,-0.30,-5.80,3.00,160.50,0,1,0,63,100,-7478,2141,15510,3035.50,6,P-GPS,1,0,320,0,215,0,0,1650276475165,3942,3930,3933,3916,0,0,27,,,,,,,0,0,0,58.00,30.00,1605.00,0.00,0.00,1610.00,6,8.00,8.19,4.68,-7.00,3.00,-3.00,0,,,100,100,0,2,0,0,0,2,0,,,,,0.0,0.0,0.0,0.0,0.0,0.0,0
55.936289,-4.407668,0.90,0.90,0.91,0.55,0.90,0.90,0.91,0.55,2199,2022-04-18 10:07:55.264,2022-04-18 11:07:55.263,17,0,0,15.510,55.936292,-4.407674,-0.80,0.30,-0.30,-5.60,3.00,160.20,0,1,0,63,100,-7478,2141,15510,3035.50,6,P-GPS,1,0,318,0,235,0,0,1650276475263,3942,3930,3933,3916,0,0,27,,,,,,,0,0,0,56.00,30.00,1602.00,0.00,0.00,1610.00,6,9.00,9.06,5.54,-8.00,3.00,-3.00,0,,,100,100,0,2,0,0,0,2,0,,,,,0.0,0.0,0.0,0.0,0.0,0.0,0
55.936288,-4.407667,0.90,0.90,1.03,0.63,0.90,0.90,1.03,0.63,2297,2022-04-18 10:07:55.361,2022-04-18 11:07:55.361,17,0,0,15.510,55.936292,-4.407674,-0.90,0.40,-0.30,-5.40,2.70,160.30,0,1,0,63,100,-7478,2141,15510,3035.50,6,P-GPS,1,0,317,0,248,0,0,1650276475361,3942,3930,3933,3916,0,0,27,,,,,,,0,0,0,54.00,27.00,1603.00,0.00,0.00,1610.00,6,9.00,10.30,6.27,-9.00,4.00,-3.00,0,,,100,100,0,2,0,0,0,2,0,,,,,0.0,0.0,0.0,0.0,0.0,0.0,0
55.936287,-4.407666,0.90,1.00,1.12,0.73,0.90,0.90,1.12,0.73,2401,2022-04-18 10:07:55.465,2022-04-18 11:07:55.465,17,0,0,15.510,55.936292,-4.407674,-1.00,0.40,-0.30,-5.20,2.60,160.50,0,1,0,63,100,-7478,2141,15510,3035.50,6,P-GPS,1,0,312,0,257,0,0,1650276475465,3942,3930,3933,3916,0,0,27,,,,,,,0,0,0,52.00,26.00,1605.00,0.00,0.00,1610.00,6,9.00,11.18,7.28,-10.00,4.00,-3.00,0,,,100,100,0,2,0,0,0,2,0,,,,,0.0,0.0,0.0,0.0,0.0,0.0,0
55.936286,-4.407665,1.00,1.00,1.15,0.85,1.00,1.00,1.15,0.85,2504,2022-04-18 10:07:55.569,2022-04-18 11:07:55.568,17,0,0,15.510,55.936292,-4.407674,-1.00,0.40,-0.40,-5.00,2.50,160.50,0,1,0,63,100,-7478,2141,15510,3035.50,6,P-GPS,1,0,277,0,304,0,0,1650276475568,3942,3930,3933,3916,0,0,27,,,,,,,0,0,0,50.00,25.00,1605.00,0.00,0.00,1610.00,6,10.00,11.49,8.48,-10.00,4.00,-4.00,0,,,100,100,0,2,0,0,0,2,0,,,,,0.0,0.0,0.0,0.0,0.0,0.0,0
55.936285,-4.407664,1.00,1.10,1.27,0.97,1.00,1.00,1.27,0.97,2601,2022-04-18 10:07:55.665,2022-04-18 11:07:55.665,17,0,0,15.486,55.936292,-4.407674,-1.10,0.40,-0.50,-4.20,2.40,160.50,0,1,0,63,100,-7362,2137,15486,3034.50,6,P-GPS,1,0,222,0,323,0,0,1650276475665,3942,3930,3933,3916,0,0,27,,,,,,,0,0,0,42.00,24.00,1605.00,0.00,0.00,1610.00,6,10.00,12.73,9.67,-11.00,4.00,-5.00,0,,,100,100,0,2,0,0,0,2,0,,,,,0.0,0.0,0.0,0.0,0.0,0.0,0
55.936285,-4.407664,1.10,1.20,1.43,1.07,1.10,1.10,1.43,1.07,2699,2022-04-18 10:07:55.764,2022-04-18 11:07:55.763,18,0,0,15.486,55.936292,-4.407674,-1.20,0.50,-0.60,-2.70,2.60,160.60,0,1,0,63,100,-7362,2137,15486,3034.50,6,P-GPS,1,0,197,0,342,0,0,1650276475763,3942,3930,3933,3916,0,0,27,,,,,,,0,0,0,27.00,26.00,1606.00,0.00,0.00,1610.00,6,11.00,14.32,10.67,-12.00,5.00,-6.00,0,,,100,100,0,2,0,0,0,2,0,,,,,0.0,0.0,0.0,0.0,0.0,0.0,0
55.936284,-4.407663,1.10,1.30,1.48,1.19,1.10,1.10,1.48,1.19,2802,2022-04-18 10:07:55.866,2022-04-18 11:07:55.866,18,0,0,15.486,55.936292,-4.407674,-1.20,0.50,-0.70,-1.30,2.60,160.60,0,1,0,63,100,-7362,2137,15486,3034.50,6,P-GPS,1,0,197,0,365,0,0,1650276475866,3942,3930,3933,3916,0,0,27,,,,,,,0,0,0,13.00,26.00,1606.00,0.00,0.00,1610.00,6,11.00,14.76,11.94,-12.00,5.00,-7.00,0,,,100,100,0,2,0,0,0,2,0,,,,,0.0,0.0,0.0,0.0,0.0,0.0,0
55.936282,-4.407661,1.20,1.40,1.58,1.33,1.20,1.20,1.58,1.33,2902,2022-04-18 10:07:55.966,2022-04-18 11:07:55.966,18,0,0,15.486,55.936292,-4.407674,-1.20,0.50,-0.90,-0.50,2.90,160.70,0,1,0,63,100,-7362,2137,15486,3034.50,6,P-GPS,1,0,191,0,372,0,0,1650276475966,3942,3930,3933,3916,0,0,27,,,,,,,0,0,0,5.00,29.00,1607.00,0.00,0.00,1610.00,6,12.00,15.81,13.34,-12.00,5.00,-9.00,0,,,100,100,0,2,0,0,0,2,0,,,,,0.0,0.0,0.0,0.0,0.0,0.0,0
55.936281,-4.407661,1.30,1.50,1.64,1.46,1.30,1.30,1.64,1.46,2996,2022-04-18 10:07:56.061,2022-04-18 11:07:56.060,18,0,0,15.486,55.936292,-4.407674,-1.20,0.50,-1.00,-0.20,3.00,160.70,0,1,0,63,100,-7362,2137,15486,3034.50,6,P-GPS,1,0,187,0,375,0,0,1650276476060,3942,3930,3933,3916,0,0,27,,,,,,,0,0,0,2.00,30.00,1607.00,0.00,0.00,1610.00,6,13.00,16.40,14.63,-12.00,5.00,-10.00,0,,,100,100,0,2,0,0,0,2,0,,,,,0.0,0.0,0.0,0.0,0.0,0.0,0
55.936280,-4.407660,1.40,1.60,1.64,1.59,1.40,1.40,1.64,1.59,3109,2022-04-18 10:07:56.174,2022-04-18 11:07:56.173,18,0,0,15.486,55.936292,-4.407674,-1.20,0.50,-1.00,-0.30,3.10,160.60,0,1,0,63,100,-7362,2137,15486,3034.50,6,P-GPS,1,0,182,0,382,0,0,1650276476173,3942,3930,3933,3916,0,0,27,,,,,,,0,0,0,3.00,31.00,1606.00,0.00,0.00,1610.00,6,14.00,16.40,15.91,-12.00,5.00,-10.00,0,,,100,100,0,2,0,0,0,2,0,,,,,0.0,0.0,0.0,0.0,0.0,0.0,0
55.936279,-4.407659,1.50,1.70,1.70,1.72,1.50,1.50,1.70,1.72,3197,2022-04-18 10:07:56.261,2022-04-18 11:07:56.261,18,0,0,15.486,55.936292,-4.407674,-1.20,0.50,-1.10,-0.40,3.20,160.50,0,1,0,63,100,-7362,2137,15486,3034.50,6,P-GPS,1,0,180,0,386,0,0,1650276476261,3942,3930,3933,3916,0,0,27,,,,,,,0,0,0,4.00,32.00,1605.00,0.00,0.00,1610.00,6,15.00,17.03,17.17,-12.00,5.00,-11.00,0,,,100,100,0,2,0,0,0,2,0,,,,,0.0,0.0,0.0,0.0,0.0,0.0,0
55.936278,-4.407657,1.60,1.80,1.77,1.86,1.60,1.60,1.77,1.86,3306,2022-04-18 10:07:56.370,2022-04-18 11:07:56.370,18,0,0,15.486,55.936292,-4.407674,-1.20,0.50,-1.20,-0.20,3.30,160.60,0,1,0,63,100,-7362,2137,15486,3034.50,6,P-GPS,1,0,180,0,386,0,0,1650276476370,3942,3930,3933,3916,0,0,27,,,,,,,0,0,0,2.00,33.00,1606.00,0.00,0.00,1610.00,6,16.00,17.69,18.62,-12.00,5.00,-12.00,0,,,100,100,0,2,0,0,0,2,0,,,,,0.0,8.7,0.0,0.0,0.0,0.0,0
55.936277,-4.407657,1.70,1.90,1.70,1.99,1.70,1.70,1.77,1.99,3398,2022-04-18 10:07:56.463,2022-04-18 11:07:56.463,18,0,0,15.486,55.936292,-4.407674,-1.10,0.50,-1.20,-0.20,3.30,160.50,0,1,0,63,100,-7362,2137,15486,3034.50,6,P-GPS,1,0,179,0,386,0,0,1650276476462,3942,3930,3933,3916,0,0,27,,,,,,,0,0,0,2.00,33.00,1605.00,0.00,0.00,1610.00,6,17.00,17.03,19.87,-11.00,5.00,-12.00,0,,,100,100,0,2,0,0,0,2,0,,,,,0.0,8.7,0.0,0.0,0.0,0.0,0
55.936276,-4.407656,1.90,2.00,1.70,2.11,1.90,1.90,1.77,2.11,3505,2022-04-18 10:07:56.570,2022-04-18 11:07:56.569,18,0,0,15.486,55.936292,-4.407674,-1.10,0.50,-1.20,-0.20,3.20,160.50,0,1,0,63,100,-7362,2137,15486,3034.50,6,P-GPS,1,0,173,0,386,0,0,1650276476569,3942,3930,3933,3916,0,0,27,,,,,,,0,0,0,2.00,32.00,1605.00,0.00,0.00,1610.00,6,19.00,17.03,21.12,-11.00,5.00,-12.00,0,,,100,100,0,2,0,0,0,2,0,,,,,0.0,8.7,0.0,0.0,0.0,0.0,0
55.936275,-4.407655,2.00,2.20,1.70,2.23,2.00,2.00,1.77,2.23,3601,2022-04-18 10:07:56.666,2022-04-18 11:07:56.665,18,0,0,15.402,55.936292,-4.407674,-1.10,0.50,-1.20,-0.10,3.00,160.50,0,1,0,63,100,-8151,2134,15402,3034.50,6,P-GPS,1,0,169,0,386,0,0,1650276476665,3942,3930,3933,3916,0,0,27,,,,,,,0,0,0,1.00,30.00,1605.00,0.00,0.00,1610.00,6,20.00,17.03,22.33,-11.00,5.00,-12.00,0,,,100,100,0,2,0,0,0,2,0,,,,,0.0,0.0,0.0,0.0,0.0,0.0,0
55.936274,-4.407653,2.10,2.30,1.70,2.38,2.10,2.10,1.77,2.38,3697,2022-04-18 10:07:56.761,2022-04-18 11:07:56.761,18,0,0,15.402,55.936292,-4.407674,-1.10,0.50,-1.20,0.00,3.10,159.60,0,1,0,63,100,-8151,2134,15402,3034.50,6,P-GPS,1,0,168,0,387,0,0,1650276476761,3942,3930,3933,3916,0,0,27,,,,,,,0,0,0,-0.00,31.00,1596.00,0.00,0.00,1610.00,6,21.00,17.03,23.85,-11.00,5.00,-12.00,0,,,100,100,0,2,0,0,0,2,0,,,,,0.0,0.0,0.0,0.0,0.0,0.0,0
55.936273,-4.407652,2.20,2.40,1.70,2.51,2.20,2.20,1.77,2.51,3804,2022-04-18 10:07:56.869,2022-04-18 11:07:56.869,18,0,0,15.402,55.936292,-4.407674,-1.10,0.50,-1.20,0.00,3.10,157.50,0,1,0,63,100,-8151,2134,15402,3034.50,6,P-GPS,1,0,168,0,388,0,0,1650276476868,3942,3930,3933,3916,0,0,27,,,,,,,0,0,0,-0.00,31.00,1575.00,0.00,0.00,1610.00,6,22.00,17.03,25.05,-11.00,5.00,-12.00,0,,,100,100,0,2,0,0,0,2,0,,,,,0.0,0.0,0.0,0.0,0.0,0.0,0
55.936272,-4.407651,2.40,2.50,1.64,2.63,2.40,2.40,1.77,2.63,3896,2022-04-18 10:07:56.960,2022-04-18 11:07:56.960,18,0,0,15.402,55.936292,-4.407674,-1.00,0.50,-1.20,0.10,3.30,156.10,0,1,0,63,100,-8151,2134,15402,3034.50,6,P-GPS,1,0,167,0,388,0,0,1650276476960,3942,3930,3933,3916,0,0,27,,,,,,,0,0,0,-1.00,33.00,1561.00,0.00,0.00,1610.00,6,24.00,16.40,26.30,-10.00,5.00,-12.00,0,,,100,100,0,2,0,0,0,2,0,,,,,0.0,0.0,0.0,0.0,0.0,0.0,0
55.936271,-4.407650,2.50,2.70,1.67,2.75,2.50,2.50,1.77,2.75,4003,2022-04-18 10:07:57.067,2022-04-18 11:07:57.067,18,0,0,15.402,55.936292,-4.407674,-1.00,0.60,-1.20,0.20,3.80,155.30,0,1,0,63,100,-8151,2134,15402,3034.50,6,P-GPS,1,0,166,0,388,0,0,1650276477067,3942,3930,3933,3916,0,0,27,,,,,,,0,0,0,-2.00,38.00,1553.00,0.00,0.00,1610.00,6,25.00,16.73,27.47,-10.00,6.00,-12.00,0,,,100,100,0,2,0,0,0,2,0,,,,,0.0,0.0,0.0,0.0,0.0,0.0,0
55.936271,-4.407649,2.60,2.80,1.67,2.85,2.60,2.60,1.77,2.85,4096,2022-04-18 10:07:57.160,2022-04-18 11:07:57.160,18,0,0,15.402,55.936292,-4.407674,-1.00,0.60,-1.20,0.40,3.50,154.70,0,1,0,63,100,-8151,2134,15402,3034.50,6,P-GPS,1,0,166,0,388,0,0,1650276477160,3942,3930,3933,3916,0,0,27,,,,,,,0,0,0,-4.00,35.00,1547.00,0.00,0.00,1610.00,6,26.00,16.73,28.52,-10.00,6.00,-12.00,0,,,100,100,0,2,0,0,0,2,0,,,,,0.0,0.0,0.0,0.0,0.0,0.0,0
55.936270,-4.407649,2.80,2.90,1.58,2.96,2.80,2.80,1.77,2.96,4200,2022-04-18 10:07:57.264,2022-04-18 11:07:57.264,18,0,0,15.402,55.936292,-4.407674,-0.90,0.50,-1.20,0.10,3.30,154.30,0,1,0,63,100,-8151,2134,15402,3034.50,6,P-GPS,1,0,159,0,382,0,0,1650276477264,3942,3930,3933,3916,0,0,27,,,,,,,0,0,0,-1.00,33.00,1543.00,0.00,0.00,1610.00,6,28.00,15.81,29.64,-9.00,5.00,-12.00,0,,,100,100,0,2,0,0,0,2,0,,,,,0.0,0.0,0.0,0.0,0.0,0.0,0
55.936269,-4.407648,2.90,3.00,1.58,3.07,2.90,2.90,1.77,3.07,4296,2022-04-18 10:07:57.360,2022-04-18 11:07:57.360,18,0,0,15.402,55.936292,-4.407674,-0.90,0.50,-1.20,0.00,3.60,154.00,0,1,0,63,100,-8151,2134,15402,3034.50,6,P-GPS,1,0,150,0,369,0,0,1650276477360,3942,3930,3933,3916,0,0,27,,,,,,,0,0,0,-0.00,36.00,1540.00,0.00,0.00,1610.00,6,29.00,15.81,30.71,-9.00,5.00,-12.00,0,,,100,100,0,2,0,0,0,2,0,,,,,0.0,0.0,0.0,0.0,0.0,0.0,0
55.936268,-4.407647,3.00,3.10,1.58,3.18,3.00,3.00,1.77,3.18,4396,2022-04-18 10:07:57.460,2022-04-18 11:07:57.460,18,0,0,15.402,55.936292,-4.407674,-0.90,0.50,-1.20,0.20,3.90,153.90,0,1,0,63,100,-8151,2134,15402,3034.50,6,P-GPS,1,0,144,0,364,0,0,1650276477460,3942,3930,3933,3916,0,0,27,,,,,,,0,0,0,-2.00,39.00,1539.00,0.00,0.00,1610.00,6,30.00,15.81,31.79,-9.00,5.00,-12.00,0,,,100,100,0,2,0,0,0,2,0,,,,,0.0,0.0,0.0,0.0,0.0,0.0,0
55.936267,-4.407646,3.10,3.20,1.54,3.28,3.10,3.10,1.77,3.28,4501,2022-04-18 10:07:57.566,2022-04-18 11:07:57.565,18,0,0,15.402,55.936292,-4.407674,-0.90,0.60,-1.10,0.30,3.70,153.90,0,1,0,63,100,-8151,2134,15402,3034.50,6,P-GPS,1,0,120,0,349,0,0,1650276477565,3942,3930,3933,3916,0,0,27,,,,,,,0,0,0,-3.00,37.00,1539.00,0.00,0.00,1610.00,6,31.00,15.43,32.75,-9.00,6.00,-11.00,0,,,100,100,0,2,0,0,0,2,0,,,,,0.0,0.0,0.0,0.0,0.0,0.0,0
55.936267,-4.407645,3.20,3.40,1.44,3.38,3.20,3.20,1.77,3.38,4601,2022-04-18 10:07:57.665,2022-04-18 11:07:57.665,18,0,0,15.430,55.936292,-4.407674,-0.90,0.50,-1.00,0.70,4.30,154.00,0,1,0,63,100,-7891,2132,15430,3034.50,6,P-GPS,1,0,93,0,330,0,0,1650276477665,3942,3930,3933,3916,0,0,27,,,,,,,0,0,0,-7.00,43.00,1540.00,0.00,0.00,1610.00,6,32.00,14.35,33.78,-9.00,5.00,-10.00,0,,,100,100,0,2,0,0,0,2,0,,,,,0.0,0.0,0.0,0.0,0.0,0.0,0
55.936266,-4.407644,3.30,3.50,1.30,3.48,3.30,3.30,1.77,3.48,4693,2022-04-18 10:07:57.758,2022-04-18 11:07:57.758,18,0,0,15.430,55.936292,-4.407674,-0.80,0.50,-0.90,0.80,4.50,154.00,0,1,0,63,100,-7891,2132,15430,3034.50,6,P-GPS,1,0,49,0,255,0,0,1650276477757,3942,3930,3933,3916,0,0,27,,,,,,,0,0,0,-8.00,45.00,1540.00,0.00,0.00,1610.00,6,33.00,13.04,34.76,-8.00,5.00,-9.00,0,,,100,100,0,2,0,0,0,2,0,,,,,0.0,0.0,0.0,0.0,0.0,0.0,0
55.936265,-4.407644,3.40,3.50,1.24,3.57,3.40,3.40,1.77,3.57,4788,2022-04-18 10:07:57.853,2022-04-18 11:07:57.852,18,0,0,15.430,55.936292,-4.407674,-0.80,0.50,-0.80,1.70,4.60,153.80,0,1,0,63,100,-7891,2132,15430,3034.50,6,P-GPS,1,0,0,0,0,0,0,1650276477852,3942,3930,3933,3916,0,0,27,,,,,,,0,0,0,-17.00,46.00,1538.00,0.00,0.00,1610.00,6,34.00,12.37,35.73,-8.00,5.00,-8.00,0,,,100,100,0,2,0,0,0,2,0,,,,,0.0,0.0,0.0,0.0,0.0,0.0,0
55.936264,-4.407643,3.50,3.60,1.07,3.66,3.50,3.50,1.77,3.66,4904,2022-04-18 10:07:57.969,2022-04-18 11:07:57.968,18,0,0,15.430,55.936292,-4.407674,-0.80,0.50,-0.50,5.50,4.70,154.00,0,1,0,63,100,-7891,2132,15430,3034.50,6,P-GPS,1,0,0,0,0,0,0,1650276477968,3942,3930,3933,3916,0,0,27,,,,,,,0,0,0,-55.00,47.00,1540.00,0.00,0.00,1610.00,6,35.00,10.68,36.63,-8.00,5.00,-5.00,0,,,100,100,0,2,0,0,0,2,0,,,,,0.0,0.0,0.0,0.0,0.0,0.0,0
55.936264,-4.407642,3.50,3.60,0.88,3.75,3.50,3.50,1.77,3.75,4991,2022-04-18 10:07:58.056,2022-04-18 11:07:58.055,18,0,0,15.430,55.936292,-4.407674,-0.70,0.50,-0.20,8.10,4.70,154.20,0,1,0,63,100,-7891,2132,15430,3034.50,6,P-GPS,1,0,0,0,0,0,0,1650276478055,3942,3930,3933,3916,0,0,27,,,,,,,0,0,0,-81.00,47.00,1542.00,0.00,0.00,1610.00,6,35.00,8.83,37.50,-7.00,5.00,-2.00,0,,,100,100,0,2,0,0,0,2,0,,,,,0.0,0.0,0.0,0.0,0.0,0.0,0
55.936263,-4.407642,3.50,3.60,0.72,3.82,3.50,3.50,1.77,3.82,5102,2022-04-18 10:07:58.167,2022-04-18 11:07:58.166,18,0,0,15.430,55.936292,-4.407674,-0.60,0.40,0.00,9.20,4.30,154.20,0,1,0,63,100,-7891,2132,15430,3034.50,6,P-GPS,1,0,0,0,0,0,0,1650276478166,3942,3930,3933,3916,0,0,27,,,,,,,0,0,0,-92.00,43.00,1542.00,0.00,0.00,1610.00,6,35.00,7.21,38.16,-6.00,4.00,0.00,0,,,100,100,0,2,0,0,0,2,0,,,,,0.0,0.0,0.0,0.0,0.0,0.0,0
55.936263,-4.407641,3.50,3.60,0.58,3.88,3.50,3.50,1.77,3.88,5196,2022-04-18 10:07:58.260,2022-04-18 11:07:58.260,18,0,0,15.430,55.936292,-4.407674,-0.50,0.30,0.00,9.00,4.10,154.20,0,1,0,63,100,-7891,2132,15430,3034.50,6,P-GPS,1,0,0,0,0,0,0,1650276478260,3892,3894,3897,3876,0,0,27,,,,,,,0,0,0,-90.00,41.00,1542.00,0.00,0.00,1610.00,6,35.00,5.83,38.80,-5.00,3.00,0.00,0,,,100,100,0,2,0,0,0,2,0,,,,,0.0,0.0,0.0,0.0,0.0,0.0,0
55.936262,-4.407641,3.50,3.60,0.50,3.92,3.50,3.50,1.77,3.92,5303,2022-04-18 10:07:58.368,2022-04-18 11:07:58.367,18,0,0,15.430,55.936292,-4.407674,-0.40,0.30,0.00,8.10,4.10,154.20,0,1,0,63,100,-7891,2132,15430,3034.50,6,P-GPS,1,0,0,0,0,0,0,1650276478367,3892,3894,3897,3876,0,0,27,,,,,,,0,0,0,-81.00,41.00,1542.00,0.00,0.00,1610.00,6,35.00,5.00,39.20,-4.00,3.00,0.00,0,,,100,100,0,2,0,0,0,2,0,,,,,0.0,0.0,0.0,0.0,0.0,0.0,0
55.936262,-4.407640,3.50,3.60,0.36,3.96,3.50,3.50,1.77,3.96,5403,2022-04-18 10:07:58.467,2022-04-18 11:07:58.467,18,0,0,15.430,55.936292,-4.407674,-0.30,0.20,0.00,6.80,4.20,154.10,0,1,0,63,100,-7891,2132,15430,3034.50,6,P-GPS,1,0,0,0,0,0,0,1650276478467,3892,3894,3897,3876,0,0,27,,,,,,,0,0,0,-68.00,42.00,1541.00,0.00,0.00,1610.00,6,35.00,3.61,39.59,-3.00,2.00,0.00,0,,,100,100,0,2,0,0,0,2,0,,,,,0.0,0.0,0.0,0.0,0.0,0.0,0
55.936262,-4.407640,3.50,3.60,0.28,4.01,3.50,3.50,1.77,4.01,5504,2022-04-18 10:07:58.568,2022-04-18 11:07:58.568,18,0,0,15.430,55.936292,-4.407674,-0.20,0.20,0.00,5.60,4.10,153.90,0,1,0,63,100,-7891,2132,15430,3034.50,6,P-GPS,1,0,0,0,0,0,0,1650276478568,3892,3894,3897,3876,0,0,27,,,,,,,0,0,0,-56.00,41.00,1539.00,0.00,0.00,1610.00,6,35.00,2.83,40.13,-2.00,2.00,0.00,0,,,100,100,0,2,0,0,0,2,0,,,,,0.0,0.0,0.0,0.0,0.0,0.0,0
55.936262,-4.407639,3.50,3.60,0.22,4.04,3.50,3.50,1.77,4.04,5602,2022-04-18 10:07:58.668,2022-04-18 11:07:58.666,18,0,0,15.560,55.936292,-4.407674,-0.10,0.20,0.00,5.10,4.00,154.00,0,1,0,63,100,-6651,2130,15560,3034.50,6,P-GPS,1,0,0,0,0,0,0,1650276478666,3892,3894,3897,3876,0,0,27,,,,,,,0,0,0,-51.00,40.00,1540.00,0.00,0.00,1610.00,6,35.00,2.24,40.39,-1.00,2.00,0.00,0,,,100,100,0,2,0,0,0,2,0,,,,,0.0,0.0,0.0,0.0,0.0,0.0,0
55.936262,-4.407639,3.50,3.60,0.14,4.05,3.50,3.50,1.77,4.05,5695,2022-04-18 10:07:58.760,2022-04-18 11:07:58.759,18,0,0,15.560,55.936292,-4.407674,-0.10,0.10,0.00,4.70,3.70,153.90,0,1,0,63,100,-6651,2130,15560,3034.50,6,P-GPS,1,0,0,0,96,0,0,1650276478759,3892,3894,3897,3876,0,0,27,,,,,,,0,0,0,-47.00,37.00,1539.00,0.00,0.00,1610.00,6,35.00,1.41,40.50,-1.00,1.00,0.00,0,,,100,100,0,2,0,0,0,2,0,,,,,0.0,0.0,0.0,0.0,0.0,0.0,0
55.936261,-4.407639,3.40,3.60,0.10,4.06,3.50,3.50,1.77,4.06,5790,2022-04-18 10:07:58.854,2022-04-18 11:07:58.854,18,0,0,15.560,55.936292,-4.407674,0.00,0.10,0.00,4.40,3.60,154.10,0,1,0,63,100,-6651,2130,15560,3034.50,6,P-GPS,1,0,0,0,188,0,0,1650276478854,3892,3894,3897,3876,0,0,27,,,,,,,0,0,0,-44.00,36.00,1541.00,0.00,0.00,1610.00,6,34.00,1.00,40.65,0.00,1.00,0.00,0,,,100,100,0,2,0,0,0,2,0,,,,,0.0,0.0,0.0,0.0,0.0,0.0,0
55.936261,-4.407639,3.40,3.60,0.10,4.09,3.50,3.50,1.77,4.09,5897,2022-04-18 10:07:58.961,2022-04-18 11:07:58.961,18,0,0,15.560,55.936292,-4.407674,0.00,0.10,0.00,3.80,3.60,154.10,0,1,0,63,100,-6651,2130,15560,3034.50,6,P-GPS,1,0,0,0,214,0,0,1650276478961,3892,3894,3897,3876,0,0,27,,,,,,,0,0,0,-38.00,36.00,1541.00,0.00,0.00,1610.00,6,34.00,1.00,40.86,0.00,1.00,0.00,0,,,100,100,0,2,0,0,0,2,0,,,,,0.0,0.0,0.0,0.0,0.0,0.0,0
55.936261,-4.407639,3.40,3.60,0.00,4.09,3.50,3.50,1.77,4.09,6001,2022-04-18 10:07:59.066,2022-04-18 11:07:59.065,18,0,0,15.560,55.936292,-4.407674,0.00,0.00,0.00,3.30,3.70,154.20,0,1,0,63,100,-6651,2130,15560,3034.50,6,P-GPS,1,0,0,0,221,0,0,1650276479065,3892,3894,3897,3876,0,0,27,,,,,,,0,0,0,-33.00,37.00,1542.00,0.00,0.00,1610.00,6,34.00,0.00,40.93,0.00,0.00,0.00,0,,,100,100,0,2,0,0,0,2,0,,,,,0.0,0.0,0.0,0.0,0.0,0.0,0
55.936261,-4.407638,3.40,3.60,0.10,4.11,3.50,3.50,1.77,4.11,6098,2022-04-18 10:07:59.162,2022-04-18 11:07:59.162,18,0,0,15.560,55.936292,-4.407674,0.00,0.00,-0.10,2.80,3.60,154.10,0,1,0,63,100,-6651,2130,15560,3034.50,6,P-GPS,1,0,0,0,224,0,0,1650276479162,3892,3894,3897,3876,0,0,27,,,,,,,0,0,0,-28.00,36.00,1541.00,0.00,0.00,1610.00,6,34.00,1.00,41.05,0.00,0.00,-1.00,0,,,100,100,0,2,0,0,0,2,0,,,,,0.0,0.0,0.0,0.0,0.0,0.0,0
55.936261,-4.407638,3.40,3.60,0.20,4.11,3.50,3.50,1.77,4.11,6196,2022-04-18 10:07:59.260,2022-04-18 11:07:59.260,18,0,0,15.560,55.936292,-4.407674,0.00,0.00,-0.20,2.30,3.50,154.00,0,1,0,63,100,-6651,2130,15560,3034.50,6,P-GPS,1,0,0,0,227,0,0,1650276479260,3892,3894,3897,3876,0,0,27,,,,,,,0,0,0,-23.00,35.00,1540.00,0.00,0.00,1610.00,6,34.00,2.00,41.07,0.00,0.00,-2.00,0,,,100,100,0,2,0,0,0,2,0,,,,,0.0,0.0,0.0,0.0,0.0,0.0,0
55.936261,-4.407638,3.40,3.60,0.20,4.09,3.50,3.50,1.77,4.11,6302,2022-04-18 10:07:59.367,2022-04-18 11:07:59.366,18,0,0,15.560,55.936292,-4.407674,0.00,0.00,-0.20,1.90,3.20,154.00,0,1,0,63,100,-6651,2130,15560,3034.50,6,P-GPS,1,0,0,0,234,0,0,1650276479366,3892,3894,3897,3876,0,0,27,,,,,,,0,0,0,-19.00,32.00,1540.00,0.00,0.00,1610.00,6,34.00,2.00,40.89,0.00,0.00,-2.00,0,,,100,100,0,2,0,0,0,2,0,,,,,0.0,0.0,0.0,0.0,0.0,0.0,0
55.936261,-4.407638,3.50,3.60,0.30,4.09,3.50,3.50,1.77,4.11,6402,2022-04-18 10:07:59.466,2022-04-18 11:07:59.466,18,0,0,15.560,55.936292,-4.407674,0.00,0.00,-0.30,1.60,3.10,153.90,0,1,0,63,100,-6651,2130,15560,3034.50,6,P-GPS,1,0,0,0,244,0,0,1650276479466,3892,3894,3897,3876,0,0,27,,,,,,,0,0,0,-16.00,31.00,1539.00,0.00,0.00,1610.00,6,35.00,3.00,40.86,0.00,0.00,-3.00,0,,,100,100,0,2,0,0,0,2,0,,,,,0.0,0.0,0.0,0.0,0.0,0.0,0
55.936262,-4.407638,3.50,3.60,0.30,4.09,3.50,3.50,1.77,4.11,6500,2022-04-18 10:07:59.564,2022-04-18 11:07:59.564,18,0,0,15.560,55.936292,-4.407674,0.00,0.00,-0.30,1.00,3.20,153.80,0,1,0,63,100,-6651,2130,15560,3034.50,6,P-GPS,1,0,0,0,257,0,0,1650276479564,3892,3894,3897,3876,0,0,27,,,,,,,0,0,0,-10.00,32.00,1538.00,0.00,0.00,1610.00,6,35.00,3.00,40.86,0.00,0.00,-3.00,0,,,100,100,0,2,0,0,0,2,0,,,,,0.0,0.0,0.0,0.0,0.0,0.0,0
55.936262,-4.407638,3.50,3.60,0.40,4.08,3.50,3.50,1.77,4.11,6600,2022-04-18 10:07:59.666,2022-04-18 11:07:59.664,18,0,0,15.560,55.936292,-4.407674,0.00,0.00,-0.40,0.80,3.20,153.90,0,1,0,63,100,-6651,2130,15560,3034.50,6,P-GPS,1,0,0,0,282,0,0,1650276479664,3892,3894,3897,3876,0,0,27,,,,,,,0,0,0,-8.00,32.00,1539.00,0.00,0.00,1610.00,6,35.00,4.00,40.83,0.00,0.00,-4.00,0,,,100,100,0,2,0,0,0,2,0,,,,,0.0,0.0,0.0,0.0,0.0,0.0,0
55.936262,-4.407638,3.60,3.70,0.40,4.06,3.60,3.60,1.77,4.11,6697,2022-04-18 10:07:59.762,2022-04-18 11:07:59.761,18,0,0,15.560,55.936292,-4.407674,0.00,0.00,-0.40,0.60,3.00,153.80,0,1,0,63,100,-6651,2130,15560,3034.50,6,P-GPS,1,0,0,0,293,0,0,1650276479761,3892,3894,3897,3876,0,0,27,,,,,,,0,0,0,-6.00,30.00,1538.00,0.00,0.00,1610.00,6,36.00,4.00,40.59,0.00,0.00,-4.00,0,,,100,100,0,2,0,0,0,2,0,,,,,0.0,0.0,0.0,0.0,0.0,0.0,0
55.936262,-4.407638,3.60,3.70,0.50,4.06,3.60,3.60,1.77,4.11,6787,2022-04-18 10:07:59.851,2022-04-18 11:07:59.851,18,0,0,15.560,55.936292,-4.407674,0.00,0.00,-0.50,0.30,3.30,153.70,0,1,0,63,100,-6651,2130,15560,3034.50,6,P-GPS,1,0,0,0,302,0,0,1650276479851,3892,3894,3897,3876,0,0,27,,,,,,,0,0,0,-3.00,33.00,1537.00,0.00,0.00,1610.00,6,36.00,5.00,40.56,0.00,0.00,-5.00,0,,,100,100,0,2,0,0,0,2,0,,,,,0.0,0.0,0.0,0.0,0.0,0.0,0
55.936262,-4.407638,3.70,3.80,0.60,4.06,3.70,3.70,1.77,4.11,6897,2022-04-18 10:07:59.962,2022-04-18 11:07:59.962,18,0,0,15.560,55.936292,-4.407674,0.00,0.00,-0.60,0.50,3.40,153.90,0,1,0,63,100,-6651,2130,15560,3034.50,6,P-GPS,1,0,0,0,311,0,0,1650276479961,3892,3894,3897,3876,0,0,27,,,,,,,0,0,0,-5.00,34.00,1539.00,0.00,0.00,1610.00,6,37.00,6.00,40.58,0.00,0.00,-6.00,0,,,100,100,0,2,0,0,0,2,0,,,,,0.0,0.0,0.0,0.0,0.0,0.0,0
55.936262,-4.407638,3.80,3.90,0.60,4.06,3.80,3.80,1.77,4.11,6985,2022-04-18 10:08:00.050,2022-04-18 11:08:00.050,18,0,0,15.560,55.936292,-4.407674,0.00,0.00,-0.60,0.90,3.10,153.90,0,1,0,63,100,-6651,2130,15560,3034.50,6,P-GPS,1,0,0,0,318,0,0,1650276480049,3892,3894,3897,3876,0,0,27,,,,,,,0,0,0,-9.00,31.00,1539.00,0.00,0.00,1610.00,6,38.00,6.00,40.57,0.00,0.00,-6.00,0,,,100,100,0,2,0,0,0,2,0,,,,,0.0,0.0,0.0,0.0,0.0,0.0,0
55.936262,-4.407638,3.80,3.90,0.70,4.04,3.80,3.80,1.77,4.11,7093,2022-04-18 10:08:00.157,2022-04-18 11:08:00.157,18,0,0,15.560,55.936292,-4.407674,0.00,0.00,-0.70,0.70,3.00,153.90,0,1,0,63,100,-6651,2130,15560,3034.50,6,P-GPS,1,0,0,0,322,0,0,1650276480157,3892,3894,3897,3876,0,0,27,,,,,,,0,0,0,-7.00,30.00,1539.00,0.00,0.00,1610.00,6,38.00,7.00,40.39,0.00,0.00,-7.00,0,,,100,100,0,2,0,0,0,2,0,,,,,0.0,0.0,0.0,0.0,0.0,0.0,0
55.936262,-4.407638,3.90,4.00,0.80,4.04,3.90,3.90,1.77,4.11,7198,2022-04-18 10:08:00.262,2022-04-18 11:08:00.262,18,0,0,15.398,55.936292,-4.407674,0.00,0.00,-0.80,0.40,3.00,153.80,0,1,0,63,100,-7857,2128,15398,3034.50,6,P-GPS,1,0,0,0,324,0,0,1650276480262,3892,3894,3897,3876,0,0,27,,,,,,,0,0,0,-4.00,30.00,1538.00,0.00,0.00,1610.00,6,39.00,8.00,40.36,0.00,0.00,-8.00,0,,,100,100,0,2,0,0,0,2,0,,,,,0.0,0.0,0.0,0.0,0.0,0.0,0
55.936262,-4.407638,4.00,4.10,0.80,4.04,4.00,4.00,1.77,4.11,7311,2022-04-18 10:08:00.376,2022-04-18 11:08:00.375,18,0,0,15.398,55.936292,-4.407674,0.00,0.00,-0.80,0.50,3.00,153.90,0,1,0,63,100,-7857,2128,15398,3034.50,6,P-GPS,1,0,0,0,330,0,0,1650276480375,3892,3894,3897,3876,0,0,27,,,,,,,0,0,0,-5.00,30.00,1539.00,0.00,0.00,1610.00,6,40.00,8.00,40.37,0.00,0.00,-8.00,0,,,100,100,0,2,0,0,0,2,0,,,,,0.0,0.0,0.0,0.0,0.0,0.0,0
55.936262,-4.407638,4.10,4.10,0.80,4.04,4.10,4.10,1.77,4.11,7399,2022-04-18 10:08:00.463,2022-04-18 11:08:00.463,18,0,0,15.398,55.936292,-4.407674,0.00,0.00,-0.80,1.00,2.80,153.90,0,1,0,63,100,-7857,2128,15398,3034.50,6,P-GPS,1,0,0,0,353,0,0,1650276480463,3892,3894,3897,3876,0,0,27,,,,,,,0,0,0,-10.00,28.00,1539.00,0.00,0.00,1610.00,6,41.00,8.00,40.38,0.00,0.00,-8.00,0,,,100,100,0,2,0,0,0,2,0,,,,,0.0,0.0,0.0,0.0,0.0,0.0,0
55.936262,-4.407638,4.10,4.20,0.90,4.05,4.10,4.10,1.77,4.11,7498,2022-04-18 10:08:00.562,2022-04-18 11:08:00.562,18,0,0,15.375,55.936292,-4.407674,0.00,0.00,-0.90,1.50,2.60,153.90,0,1,0,63,100,-8078,2126,15375,3035.50,6,P-GPS,1,0,0,0,374,0,0,1650276480562,3892,3894,3897,3876,0,0,27,,,,,,,0,0,0,-15.00,26.00,1539.00,0.00,0.00,1610.00,6,41.00,9.00,40.45,0.00,0.00,-9.00,0,,,100,100,0,2,0,0,0,2,0,,,,,0.0,0.0,0.0,0.0,0.0,0.0,0
55.936262,-4.407638,4.20,4.30,1.00,4.05,4.20,4.20,1.77,4.11,7599,2022-04-18 10:08:00.663,2022-04-18 11:08:00.663,18,0,0,15.375,55.936292,-4.407674,0.00,0.00,-1.00,1.80,2.60,154.10,0,1,0,63,100,-8078,2126,15375,3035.50,6,P-GPS,1,0,0,0,390,0,0,1650276480663,3892,3894,3897,3876,0,0,27,,,,,,,0,0,0,-18.00,26.00,1541.00,0.00,0.00,1610.00,6,42.00,10.00,40.50,0.00,0.00,-10.00,0,,,100,100,0,2,0,0,0,2,0,,,,,0.0,0.0,0.0,0.0,0.0,0.0,0
55.936262,-4.407638,4.30,4.40,1.10,4.03,4.30,4.30,1.77,4.11,7690,2022-04-18 10:08:00.755,2022-04-18 11:08:00.754,18,0,0,15.375,55.936292,-4.407674,0.00,0.00,-1.10,2.20,2.70,154.00,0,1,0,63,100,-8078,2126,15375,3035.50,6,P-GPS,1,0,0,0,407,0,0,1650276480754,3892,3894,3897,3876,0,0,27,,,,,,,0,0,0,-22.00,27.00,1540.00,0.00,0.00,1610.00,6,43.00,11.00,40.28,0.00,0.00,-11.00,0,,,100,100,0,2,0,0,0,2,0,,,,,0.0,0.0,0.0,0.0,0.0,0.0,0
55.936262,-4.407638,4.50,4.50,1.20,4.03,4.50,4.50,1.77,4.11,7787,2022-04-18 10:08:00.851,2022-04-18 11:08:00.851,18,0,0,15.375,55.936292,-4.407674,0.00,0.00,-1.20,2.10,2.90,153.90,0,1,0,63,100,-8078,2126,15375,3035.50,6,P-GPS,1,0,0,0,411,0,0,1650276480851,3892,3894,3897,3876,0,0,27,,,,,,,0,0,0,-21.00,29.00,1539.00,0.00,0.00,1610.00,6,45.00,12.00,40.30,0.00,0.00,-12.00,0,,,100,100,0,2,0,0,0,2,0,,,,,0.0,0.0,0.0,0.0,0.0,0.0,0
55.936262,-4.407638,4.60,4.70,1.30,4.03,4.60,4.60,1.77,4.11,7900,2022-04-18 10:08:00.965,2022-04-18 11:08:00.964,18,0,0,15.375,55.936292,-4.407674,0.00,0.00,-1.30,2.10,2.90,153.90,0,1,0,63,100,-8078,2126,15375,3035.50,6,P-GPS,1,0,0,0,420,0,0,1650276480964,3892,3894,3897,3876,0,0,27,,,,,,,0,0,0,-21.00,29.00,1539.00,0.00,0.00,1610.00,6,46.00,13.00,40.33,0.00,0.00,-13.00,0,,,100,100,0,2,0,0,0,2,0,,,,,0.0,0.0,0.0,0.0,0.0,0.0,0
55.936262,-4.407638,4.70,4.80,1.40,4.03,4.70,4.70,1.77,4.11,7989,2022-04-18 10:08:01.053,2022-04-18 11:08:01.053,18,0,0,15.375,55.936292,-4.407674,0.00,0.00,-1.40,2.00,3.20,154.00,0,1,0,63,100,-8078,2126,15375,3035.50,6,P-GPS,1,0,0,0,434,0,0,1650276481053,3892,3894,3897,3876,0,0,27,,,,,,,0,0,0,-20.00,32.00,1540.00,0.00,0.00,1610.00,6,47.00,14.00,40.33,0.00,0.00,-14.00,0,,,100,100,0,2,0,0,0,2,0,,,,,0.0,0.0,0.0,0.0,0.0,0.0,0
55.936262,-4.407638,4.90,4.90,1.40,4.07,4.90,4.90,1.77,4.11,8100,2022-04-18 10:08:01.164,2022-04-18 11:08:01.164,18,0,0,15.375,55.936292,-4.407674,0.00,0.00,-1.40,2.00,3.40,154.00,0,1,0,63,100,-8078,2126,15375,3035.50,6,P-GPS,1,0,0,0,454,0,0,1650276481164,3892,3894,3897,3876,0,0,27,,,,,,,0,0,0,-20.00,34.00,1540.00,0.00,0.00,1610.00,6,49.00,14.00,40.72,0.00,0.00,-14.00,0,,,100,100,0,2,0,0,0,2,0,,,,,0.0,0.0,0.0,0.0,0.0,0.0,0
55.936262,-4.407638,5.00,5.10,1.60,4.07,5.00,5.00,1.77,4.11,8201,2022-04-18 10:08:01.265,2022-04-18 11:08:01.265,18,0,0,15.375,55.936292,-4.407674,0.00,0.00,-1.60,2.00,3.20,153.90,0,1,0,63,100,-8078,2126,15375,3035.50,6,P-GPS,1,0,0,0,454,0,0,1650276481265,3892,3894,3897,3876,0,0,27,,,,,,,0,0,0,-20.00,32.00,1539.00,0.00,0.00,1610.00,6,50.00,16.00,40.74,0.00,0.00,-16.00,0,,,100,100,0,2,0,0,0,2,0,,,,,0.0,0.0,0.0,0.0,0.0,0.0,0
55.936262,-4.407638,5.20,5.20,1.70,4.05,5.20,5.20,1.77,4.11,8291,2022-04-18 10:08:01.356,2022-04-18 11:08:01.355,18,0,0,15.375,55.936292,-4.407674,0.00,0.00,-1.70,1.90,3.70,154.00,0,1,0,63,100,-8078,2126,15375,3035.50,6,P-GPS,1,0,0,0,453,0,0,1650276481355,3892,3894,3897,3876,0,0,27,,,,,,,0,0,0,-19.00,37.00,1540.00,0.00,0.00,1610.00,6,52.00,17.00,40.54,0.00,0.00,-17.00,0,,,100,100,0,2,0,0,0,2,0,,,,,0.0,0.0,0.0,0.0,0.0,0.0,0
55.936262,-4.407638,5.20,5.20,1.70,4.05,5.20,5.20,1.77,4.11,8382,2022-04-18 10:08:01.446,2022-04-18 11:08:01.446,18,0,0,15.375,55.936292,-4.407674,0.00,0.00,-1.70,1.90,3.70,154.00,0,1,0,63,100,-8078,2126,15375,3035.50,6,P-GPS,1,0,0,0,458,0,0,1650276481446,3892,3894,3897,3876,0,0,27,,,,,,,0,0,0,-19.00,37.00,1540.00,0.00,0.00,1610.00,6,52.00,17.00,40.54,0.00,0.00,-17.00,0,,,100,100,0,2,0,0,0,2,0,,,,,0.0,0.0,0.0,0.0,0.0,0.0,0
55.936262,-4.407638,5.50,5.60,1.70,4.06,5.50,5.50,1.77,4.11,8490,2022-04-18 10:08:01.556,2022-04-18 11:08:01.554,18,0,0,15.375,55.936292,-4.407674,0.00,0.00,-1.70,1.20,4.30,153.90,0,1,0,63,100,-8078,2126,15375,3035.50,6,P-GPS,1,0,0,0,470,0,0,1650276481554,3892,3894,3897,3876,0,0,27,,,,,,,0,0,0,-12.00,43.00,1539.00,0.00,0.00,1610.00,6,55.00,17.00,40.63,0.00,0.00,-17.00,0,,,100,100,0,2,0,0,0,2,0,,,,,0.0,0.0,0.0,0.0,0.0,0.0,0
55.936262,-4.407638,5.70,5.70,1.80,4.06,5.70,5.70,1.80,4.11,8599,2022-04-18 10:08:01.663,2022-04-18 11:08:01.663,18,0,0,15.375,55.936292,-4.407674,0.00,0.00,-1.80,0.90,4.60,154.00,0,1,0,63,100,-8078,2126,15375,3035.50,6,P-GPS,1,0,0,0,476,0,0,1650276481663,3892,3894,3897,3876,0,0,27,,,,,,,0,0,0,-9.00,46.00,1540.00,0.00,0.00,1610.00,6,57.00,18.00,40.58,0.00,0.00,-18.00,0,,,100,100,0,2,0,0,0,2,0,,,,,0.0,0.0,0.0,0.0,0.0,0.0,0
55.936262,-4.407638,5.90,5.90,1.80,4.06,5.90,5.90,1.80,4.11,8700,2022-04-18 10:08:01.764,2022-04-18 11:08:01.764,18,0,0,15.375,55.936292,-4.407674,0.00,0.00,-1.80,0.30,4.50,153.80,0,1,0,63,100,-8078,2126,15375,3035.50,6,P-GPS,1,0,0,0,477,0,0,1650276481764,3892,3894,3897,3876,0,0,27,,,,,,,0,0,0,-3.00,45.00,1538.00,0.00,0.00,1610.00,6,59.00,18.00,40.58,0.00,0.00,-18.00,0,,,100,100,0,2,0,0,0,2,0,,,,,0.0,0.0,0.0,0.0,0.0,0.0,0
55.936262,-4.407638,6.10,6.10,1.90,4.05,6.10,6.10,1.90,4.11,8800,2022-04-18 10:08:01.865,2022-04-18 11:08:01.864,18,0,0,15.375,55.936292,-4.407674,0.00,0.00,-1.90,0.00,4.20,153.80,0,1,0,63,100,-8078,2126,15375,3035.50,6,P-GPS,1,0,0,0,437,0,0,1650276481864,3892,3894,3897,3876,0,0,27,,,,,,,0,0,0,-0.00,42.00,1538.00,0.00,0.00,1610.00,6,61.00,19.00,40.53,0.00,0.00,-19.00,0,,,100,100,0,2,0,0,0,2,0,,,,,0.0,0.0,0.0,0.0,0.0,0.0,0
55.936262,-4.407638,6.30,6.30,1.90,4.05,6.30,6.30,1.90,4.11,8898,2022-04-18 10:08:01.962,2022-04-18 11:08:01.962,17,0,0,15.375,55.936292,-4.407674,0.00,0.00,-1.90,0.30,4.40,154.00,0,1,0,63,100,-8078,2126,15375,3035.50,6,P-GPS,1,0,0,0,16,0,0,1650276481962,3892,3894,3897,3876,0,0,27,,,,,,,0,0,0,-3.00,44.00,1540.00,0.00,0.00,1610.00,6,63.00,19.00,40.52,0.00,0.00,-19.00,0,,,100,100,0,2,0,0,0,2,0,,,,,0.0,0.0,0.0,0.0,0.0,0.0,0
55.936262,-4.407638,6.50,6.50,1.60,4.05,6.50,6.50,1.90,4.11,8988,2022-04-18 10:08:02.052,2022-04-18 11:08:02.052,17,0,0,15.375,55.936292,-4.407674,0.00,0.00,-1.60,1.00,4.90,154.00,0,1,0,63,100,-8078,2126,15375,3035.50,6,P-GPS,1,0,0,0,0,0,0,1650276482052,3892,3894,3897,3876,0,0,27,,,,,,,0,0,0,-10.00,49.00,1540.00,0.00,0.00,1610.00,6,65.00,16.00,40.52,0.00,0.00,-16.00,0,,,100,100,0,2,0,0,0,2,0,,,,,0.0,0.0,0.0,0.0,0.0,0.0,0
55.936262,-4.407637,6.60,6.60,1.30,4.06,6.60,6.60,1.90,4.11,9091,2022-04-18 10:08:02.156,2022-04-18 11:08:02.155,17,0,0,15.375,55.936292,-4.407674,0.00,0.00,-1.30,1.70,5.30,154.20,0,1,0,63,100,-8078,2126,15375,3035.50,6,P-GPS,1,0,0,0,0,0,0,1650276482155,3892,3894,3897,3876,0,0,27,,,,,,,0,0,0,-17.00,53.00,1542.00,0.00,0.00,1610.00,6,66.00,13.00,40.60,0.00,0.00,-13.00,0,,,100,100,0,2,0,0,0,2,0,,,,,0.0,0.0,0.0,0.0,0.0,0.0,0
55.936262,-4.407637,6.70,6.70,0.90,4.06,6.70,6.70,1.90,4.11,9193,2022-04-18 10:08:02.257,2022-04-18 11:08:02.257,17,0,0,15.340,55.936292,-4.407674,0.00,0.00,-0.90,1.90,5.60,154.30,0,1,0,62,100,-8281,2124,15340,3034.50,6,P-GPS,1,0,0,0,0,0,0,1650276482257,3892,3894,3897,3876,0,0,27,,,,,,,0,0,0,-19.00,56.00,1543.00,0.00,0.00,1610.00,6,67.00,9.00,40.62,0.00,0.00,-9.00,0,,,100,100,0,2,0,0,0,2,0,,,,,0.0,0.0,0.0,0.0,0.0,0.0,0
55.936262,-4.407637,6.80,6.70,0.50,4.04,6.80,6.80,1.90,4.11,9302,2022-04-18 10:08:02.367,2022-04-18 11:08:02.366,18,0,0,15.340,55.936292,-4.407674,0.00,0.00,-0.50,1.80,5.50,154.30,0,1,0,62,100,-8281,2124,15340,3034.50,6,P-GPS,1,0,0,0,0,0,0,1650276482366,3892,3894,3897,3876,0,0,27,,,,,,,0,0,0,-18.00,55.00,1543.00,0.00,0.00,1610.00,6,68.00,5.00,40.38,0.00,0.00,-5.00,0,,,100,100,0,2,0,0,0,2,0,,,,,0.0,0.0,0.0,0.0,0.0,0.0,0
55.936262,-4.407637,6.80,6.80,0.20,4.03,6.80,6.80,1.90,4.11,9396,2022-04-18 10:08:02.461,2022-04-18 11:08:02.460,18,0,0,15.340,55.936292,-4.407674,0.00,0.00,-0.20,1.40,5.10,154.20,0,1,0,62,100,-8281,2124,15340,3034.50,6,P-GPS,1,0,0,0,0,0,0,1650276482460,3892,3894,3897,3876,0,0,27,,,,,,,0,0,0,-14.00,51.00,1542.00,0.00,0.00,1610.00,6,68.00,2.00,40.33,0.00,0.00,-2.00,0,,,100,100,0,2,0,0,0,2,0,,,,,0.0,0.0,0.0,0.0,0.0,0.0,0
55.936262,-4.407637,6.90,6.80,0.00,4.03,6.90,6.90,1.90,4.11,9499,2022-04-18 10:08:02.564,2022-04-18 11:08:02.563,18,0,0,15.340,55.936292,-4.407674,0.00,0.00,0.00,0.60,4.60,154.00,0,1,0,62,100,-8281,2124,15340,3034.50,6,P-GPS,1,0,0,0,0,0,0,1650276482563,3892,3894,3897,3876,0,0,27,,,,,,,0,0,0,-6.00,46.00,1540.00,0.00,0.00,1610.00,6,69.00,0.00,40.34,0.00,0.00,0.00,0,,,100,100,0,2,0,0,0,2,0,,,,,0.0,0.0,0.0,0.0,0.0,0.0,0
55.936262,-4.407637,6.90,6.80,0.00,4.03,6.90,6.90,1.90,4.11,9586,2022-04-18 10:08:02.651,2022-04-18 11:08:02.650,18,0,0,15.340,55.936292,-4.407674,0.00,0.00,0.00,-0.10,4.50,153.90,0,1,0,62,100,-8281,2124,15340,3034.50,6,P-GPS,1,0,0,0,0,0,0,1650276482650,3892,3894,3897,3876,0,0,27,,,,,,,0,0,0,1.00,45.00,1539.00,0.00,0.00,1610.00,6,69.00,0.00,40.25,0.00,0.00,0.00,0,,,100,100,0,2,0,0,0,2,0,,,,,0.0,0.0,0.0,0.0,0.0,0.0,0
55.936262,-4.407638,6.90,6.80,0.00,4.02,6.90,6.90,1.90,4.11,9698,2022-04-18 10:08:02.763,2022-04-18 11:08:02.762,18,0,0,15.340,55.936292,-4.407674,0.00,0.00,0.00,-0.60,4.50,153.90,0,1,0,62,100,-8281,2124,15340,3034.50,6,P-GPS,1,0,0,0,0,0,0,1650276482762,3892,3894,3897,3876,0,0,27,,,,,,,0,0,0,6.00,45.00,1539.00,0.00,0.00,1610.00,6,69.00,0.00,40.19,0.00,0.00,0.00,0,,,100,100,0,2,0,0,0,2,0,,,,,0.0,0.0,0.0,0.0,0.0,0.0,0
55.936262,-4.407638,6.80,6.70,0.00,4.01,6.90,6.90,1.90,4.11,9790,2022-04-18 10:08:02.855,2022-04-18 11:08:02.854,18,0,0,15.340,55.936292,-4.407674,0.00,0.00,0.00,-0.70,4.30,153.90,0,1,0,62,100,-8281,2124,15340,3034.50,6,P-GPS,1,0,0,0,0,0,0,1650276482854,3892,3894,3897,3876,0,0,27,,,,,,,0,0,0,7.00,43.00,1539.00,0.00,0.00,1610.00,6,68.00,0.00,40.12,0.00,0.00,0.00,0,,,100,100,0,2,0,0,0,2,0,,,,,0.0,0.0,0.0,0.0,0.0,0.0,0
55.936262,-4.407638,6.80,6.70,0.00,4.00,6.90,6.90,1.90,4.11,9906,2022-04-18 10:08:02.970,2022-04-18 11:08:02.970,18,0,0,15.340,55.936292,-4.407674,0.00,0.00,0.00,-0.80,4.10,153.90,0,1,0,62,100,-8281,2124,15340,3034.50,6,P-GPS,1,0,0,0,0,0,0,1650276482970,3892,3894,3897,3876,0,0,27,,,,,,,0,0,0,8.00,41.00,1539.00,0.00,0.00,1610.00,6,68.00,0.00,40.05,0.00,0.00,0.00,0,,,100,100,0,2,0,0,0,2,0,,,,,0.0,0.0,0.0,0.0,0.0,0.0,0
55.936262,-4.407638,6.80,6.70,0.00,4.00,6.90,6.90,1.90,4.11,9992,2022-04-18 10:08:03.057,2022-04-18 11:08:03.056,18,0,0,15.340,55.936292,-4.407674,0.00,0.00,0.00,-0.70,3.90,154.00,0,1,0,62,100,-8281,2124,15340,3034.50,6,P-GPS,1,0,0,0,0,0,0,1650276483056,3892,3894,3897,3876,0,0,27,,,,,,,0,0,0,7.00,39.00,1540.00,0.00,0.00,1610.00,6,68.00,0.00,40.01,0.00,0.00,0.00,0,,,100,100,0,2,0,0,0,2,0,,,,,0.0,0.0,0.0,0.0,0.0,0.0,0
55.936263,-4.407638,6.80,6.70,0.00,3.99,6.90,6.90,1.90,4.11,10088,2022-04-18 10:08:03.153,2022-04-18 11:08:03.152,18,0,0,15.340,55.936292,-4.407674,0.00,0.00,0.00,-0.50,3.80,153.90,0,1,0,62,100,-8281,2124,15340,3034.50,6,P-GPS,1,0,0,0,0,0,0,1650276483152,3892,3894,3897,3876,0,0,27,,,,,,,0,0,0,5.00,38.00,1539.00,0.00,0.00,1610.00,6,68.00,0.00,39.86,0.00,0.00,0.00,0,,,100,100,0,2,0,0,0,2,0,,,,,0.0,0.0,0.0,0.0,0.0,0.0,0
55.936263,-4.407638,6.80,6.70,0.00,3.99,6.90,6.90,1.90,4.11,10192,2022-04-18 10:08:03.257,2022-04-18 11:08:03.257,18,0,0,15.546,55.936292,-4.407674,0.00,0.00,0.00,0.00,3.70,153.90,0,1,0,62,100,-6346,2122,15546,3035.50,6,P-GPS,1,0,0,0,0,0,0,1650276483256,3892,3894,3897,3876,0,0,27,,,,,,,0,0,0,-0.00,37.00,1539.00,0.00,0.00,1610.00,6,68.00,0.00,39.86,0.00,0.00,0.00,0,,,100,100,0,2,0,0,0,2,0,,,,,0.0,0.0,0.0,0.0,0.0,0.0,0
55.936263,-4.407638,6.80,6.70,0.00,3.97,6.90,6.90,1.90,4.11,10299,2022-04-18 10:08:03.363,2022-04-18 11:08:03.363,18,0,0,15.546,55.936292,-4.407674,0.00,0.00,0.00,0.00,3.90,154.00,0,1,0,62,100,-6346,2122,15546,3035.50,6,P-GPS,1,0,0,0,0,0,0,1650276483363,3892,3894,3897,3876,0,0,27,,,,,,,0,0,0,-0.00,39.00,1540.00,0.00,0.00,1610.00,6,68.00,0.00,39.71,0.00,0.00,0.00,0,,,100,100,0,2,0,0,0,2,0,,,,,0.0,0.0,0.0,0.0,0.0,0.0,0
55.936263,-4.407638,6.80,6.70,0.00,3.97,6.90,6.90,1.90,4.11,10401,2022-04-18 10:08:03.466,2022-04-18 11:08:03.465,18,0,0,15.546,55.936292,-4.407674,0.00,0.00,0.00,0.10,3.70,153.90,0,1,0,62,100,-6346,2122,15546,3035.50,6,P-GPS,1,0,0,0,0,0,0,1650276483465,3892,3894,3897,3876,0,0,27,,,,,,,0,0,0,-1.00,37.00,1539.00,0.00,0.00,1610.00,6,68.00,0.00,39.72,0.00,0.00,0.00,0,,,100,100,0,2,0,0,0,2,0,,,,,0.0,0.0,0.0,0.0,0.0,0.0,0
55.936263,-4.407638,6.70,6.60,0.00,3.96,6.90,6.90,1.90,4.11,10491,2022-04-18 10:08:03.556,2022-04-18 11:08:03.555,18,0,0,15.546,55.936292,-4.407674,0.00,0.00,0.00,0.00,3.60,153.90,0,1,0,62,100,-6346,2122,15546,3035.50,6,P-GPS,1,0,0,0,0,0,0,1650276483555,3892,3894,3897,3876,0,0,27,,,,,,,0,0,0,-0.00,36.00,1539.00,0.00,0.00,1610.00,6,67.00,0.00,39.63,0.00,0.00,0.00,0,,,100,100,0,2,0,0,0,2,0,,,,,0.0,0.0,0.0,0.0,0.0,0.0,0
55.936263,-4.407638,6.70,6.60,0.00,3.97,6.90,6.90,1.90,4.11,10588,2022-04-18 10:08:03.653,2022-04-18 11:08:03.652,18,0,0,15.546,55.936292,-4.407674,0.00,0.00,0.00,0.30,3.80,154.00,0,1,0,62,100,-6346,2122,15546,3035.50,6,P-GPS,1,0,0,0,0,0,0,1650276483652,3892,3894,3897,3876,0,0,27,,,,,,,0,0,0,-3.00,38.00,1540.00,0.00,0.00,1610.00,6,67.00,0.00,39.67,0.00,0.00,0.00,0,,,100,100,0,2,0,0,0,2,0,,,,,0.0,0.0,0.0,0.0,0.0,0.0,0
55.936263,-4.407638,6.70,6.60,0.00,3.98,6.90,6.90,1.90,4.11,10707,2022-04-18 10:08:03.771,2022-04-18 11:08:03.771,18,0,0,15.546,55.936292,-4.407674,0.00,0.00,0.00,0.70,3.80,154.10,0,1,0,62,100,-6346,2122,15546,3035.50,6,P-GPS,1,0,0,0,0,0,0,1650276483771,3892,3894,3897,3876,0,0,27,,,,,,,0,0,0,-7.00,38.00,1541.00,0.00,0.00,1610.00,6,67.00,0.00,39.77,0.00,0.00,0.00,0,,,100,100,0,2,0,0,0,2,0,,,,,0.0,0.0,0.0,0.0,0.0,0.0,0
55.936263,-4.407638,6.70,6.60,0.00,3.98,6.90,6.90,1.90,4.11,10793,2022-04-18 10:08:03.857,2022-04-18 11:08:03.857,18,0,0,15.546,55.936292,-4.407674,0.00,0.00,0.00,1.30,4.10,154.20,0,1,0,62,100,-6346,2122,15546,3035.50,6,P-GPS,1,0,0,0,0,0,0,1650276483857,3892,3894,3897,3876,0,0,27,,,,,,,0,0,0,-13.00,41.00,1542.00,0.00,0.00,1610.00,6,67.00,0.00,39.84,0.00,0.00,0.00,0,,,100,100,0,2,0,0,0,2,0,,,,,0.0,0.0,0.0,0.0,0.0,0.0,0
55.936262,-4.407638,6.70,6.60,0.00,3.99,6.90,6.90,1.90,4.11,10889,2022-04-18 10:08:03.953,2022-04-18 11:08:03.953,18,0,0,15.546,55.936292,-4.407674,0.00,0.00,0.00,2.00,4.50,154.30,0,1,0,62,100,-6346,2122,15546,3035.50,6,P-GPS,1,0,0,0,0,0,0,1650276483953,3892,3894,3897,3876,0,0,27,,,,,,,0,0,0,-20.00,45.00,1543.00,0.00,0.00,1610.00,6,67.00,0.00,39.92,0.00,0.00,0.00,0,,,100,100,0,2,0,0,0,2,0,,,,,0.0,0.0,0.0,0.0,0.0,0.0,0
55.936262,-4.407638,6.70,6.60,0.00,3.99,6.90,6.90,1.90,4.11,10987,2022-04-18 10:08:04.052,2022-04-18 11:08:04.051,18,0,0,15.546,55.936292,-4.407674,0.00,0.00,0.00,1.60,4.30,154.10,0,1,0,62,100,-6346,2122,15546,3035.50,6,P-GPS,1,0,0,0,0,0,0,1650276484051,3892,3894,3897,3876,0,0,27,,,,,,,0,0,0,-16.00,43.00,1541.00,0.00,0.00,1610.00,6,67.00,0.00,39.95,0.00,0.00,0.00,0,,,100,100,0,2,0,0,0,2,0,,,,,0.0,0.0,0.0,0.0,0.0,0.0,0
55.936262,-4.407638,6.70,6.60,0.00,4.01,6.90,6.90,1.90,4.11,11097,2022-04-18 10:08:04.162,2022-04-18 11:08:04.161,18,0,0,15.546,55.936292,-4.407674,0.00,0.00,0.00,0.70,3.50,153.90,0,1,0,62,100,-6346,2122,15546,3035.50,6,P-GPS,1,0,0,0,0,0,0,1650276484161,3892,3894,3897,3876,0,0,27,,,,,,,0,0,0,-7.00,35.00,1539.00,0.00,0.00,1610.00,6,67.00,0.00,40.09,0.00,0.00,0.00,0,,,100,100,0,2,0,0,0,2,0,,,,,0.0,0.0,0.0,0.0,0.0,0.0,0
55.936262,-4.407638,6.70,6.70,0.00,4.01,6.90,6.90,1.90,4.11,11194,2022-04-18 10:08:04.258,2022-04-18 11:08:04.258,18,0,0,15.373,55.936292,-4.407674,0.00,0.00,0.00,0.20,3.30,153.90,0,1,0,62,100,-7176,2120,15373,3035.50,6,P-GPS,1,0,0,0,0,0,0,1650276484258,3892,3894,3897,3876,0,0,27,,,,,,,0,0,0,-2.00,33.00,1539.00,0.00,0.00,1610.00,6,67.00,0.00,40.09,0.00,0.00,0.00,0,,,100,100,0,2,0,0,0,2,0,,,,,0.0,0.0,0.0,0.0,0.0,0.0,0
55.936262,-4.407638,6.70,6.70,0.00,4.02,6.90,6.90,1.90,4.11,11296,2022-04-18 10:08:04.361,2022-04-18 11:08:04.360,18,0,0,15.373,55.936292,-4.407674,0.00,0.00,0.00,0.00,3.50,154.00,0,1,0,62,100,-7176,2120,15373,3035.50,6,P-GPS,1,0,0,0,0,0,0,1650276484360,3892,3894,3897,3876,0,0,27,,,,,,,0,0,0,-0.00,35.00,1540.00,0.00,0.00,1610.00,6,67.00,0.00,40.23,0.00,0.00,0.00,0,,,100,100,0,2,0,0,0,2,0,,,,,0.0,0.0,0.0,0.0,0.0,0.0,0
55.936262,-4.407638,6.70,6.70,0.00,4.03,6.90,6.90,1.90,4.11,11398,2022-04-18 10:08:04.463,2022-04-18 11:08:04.462,18,0,0,15.373,55.936292,-4.407674,0.00,0.00,0.00,0.10,4.10,154.10,0,1,0,62,100,-7176,2120,15373,3035.50,6,P-GPS,1,0,0,0,0,0,0,1650276484462,3892,3894,3897,3876,0,0,27,,,,,,,0,0,0,-1.00,41.00,1541.00,0.00,0.00,1610.00,6,67.00,0.00,40.26,0.00,0.00,0.00,0,,,100,100,0,2,0,0,0,2,0,,,,,0.0,0.0,0.0,0.0,0.0,0.0,0
55.936262,-4.407638,6.70,6.70,0.00,4.04,6.90,6.90,1.90,4.11,11497,2022-04-18 10:08:04.561,2022-04-18 11:08:04.561,18,0,0,15.373,55.936292,-4.407674,0.00,0.00,0.00,0.60,4.50,154.10,0,1,0,62,100,-7176,2120,15373,3035.50,6,P-GPS,1,0,0,0,0,0,0,1650276484561,3892,3894,3897,3876,0,0,27,,,,,,,0,0,0,-6.00,45.00,1541.00,0.00,0.00,1610.00,6,67.00,0.00,40.37,0.00,0.00,0.00,0,,,100,100,0,2,0,0,0,2,0,,,,,0.0,0.0,0.0,0.0,0.0,0.0,0
55.936262,-4.407638,6.70,6.70,0.00,4.04,6.90,6.90,1.90,4.11,11595,2022-04-18 10:08:04.659,2022-04-18 11:08:04.659,18,0,0,15.373,55.936292,-4.407674,0.00,0.00,0.00,0.60,4.60,153.90,0,1,0,62,100,-7176,2120,15373,3035.50,6,P-GPS,1,0,0,0,0,0,0,1650276484659,3892,3894,3897,3876,0,0,27,,,,,,,0,0,0,-6.00,46.00,1539.00,0.00,0.00,1610.00,6,67.00,0.00,40.42,0.00,0.00,0.00,0,,,100,100,0,2,0,0,0,2,0,,,,,0.0,0.0,0.0,0.0,0.0,0.0,0
55.936262,-4.407638,6.70,6.70,0.00,4.05,6.90,6.90,1.90,4.11,11696,2022-04-18 10:08:04.761,2022-04-18 11:08:04.760,18,0,0,15.373,55.936292,-4.407674,0.00,0.00,0.00,1.10,4.60,153.80,0,1,0,62,100,-7176,2120,15373,3035.50,6,P-GPS,1,0,0,0,0,0,0,1650276484760,3892,3894,3897,3876,0,0,27,,,,,,,0,0,0,-11.00,46.00,1538.00,0.00,0.00,1610.00,6,67.00,0.00,40.54,0.00,0.00,0.00,0,,,100,100,0,2,0,0,0,2,0,,,,,0.0,0.0,0.0,0.0,0.0,0.0,0
55.936262,-4.407638,6.70,6.70,0.00,4.06,6.90,6.90,1.90,4.11,11800,2022-04-18 10:08:04.864,2022-04-18 11:08:04.864,18,0,0,15.373,55.936292,-4.407674,0.00,0.00,0.00,1.00,4.60,153.90,0,1,0,62,100,-7176,2120,15373,3035.50,6,P-GPS,1,0,0,0,0,0,0,1650276484864,3892,3894,3897,3876,0,0,27,,,,,,,0,0,0,-10.00,46.00,1539.00,0.00,0.00,1610.00,6,67.00,0.00,40.59,0.00,0.00,0.00,0,,,100,100,0,2,0,0,0,2,0,,,,,0.0,0.0,0.0,0.0,0.0,0.0,0
55.936262,-4.407638,6.70,6.70,0.00,4.07,6.90,6.90,1.90,4.11,11897,2022-04-18 10:08:04.962,2022-04-18 11:08:04.961,18,0,0,15.373,55.936292,-4.407674,0.00,0.00,0.00,0.60,4.50,154.00,0,1,0,62,100,-7176,2120,15373,3035.50,6,P-GPS,1,0,0,0,0,0,0,1650276484961,3892,3894,3897,3876,0,0,27,,,,,,,0,0,0,-6.00,45.00,1540.00,0.00,0.00,1610.00,6,67.00,0.00,40.66,0.00,0.00,0.00,0,,,100,100,0,2,0,0,0,2,0,,,,,0.0,0.0,0.0,0.0,0.0,0.0,0
55.936262,-4.407638,6.70,6.70,0.00,4.07,6.90,6.90,1.90,4.11,12001,2022-04-18 10:08:05.065,2022-04-18 11:08:05.065,18,0,0,15.373,55.936292,-4.407674,0.00,0.00,0.00,0.00,4.30,154.00,0,1,0,62,100,-7176,2120,15373,3035.50,6,P-GPS,1,0,0,0,0,0,0,1650276485065,3892,3894,3897,3876,0,0,27,,,,,,,0,0,0,-0.00,43.00,1540.00,0.00,0.00,1610.00,6,67.00,0.00,40.68,0.00,0.00,0.00,0,,,100,100,0,2,0,0,0,2,0,,,,,0.0,0.0,0.0,0.0,0.0,0.0,0
55.936262,-4.407638,6.70,6.70,0.00,4.08,6.90,6.90,1.90,4.11,12097,2022-04-18 10:08:05.161,2022-04-18 11:08:05.161,18,0,0,15.373,55.936292,-4.407674,0.00,0.00,0.00,-0.30,4.40,154.00,0,1,0,62,100,-7176,2120,15373,3035.50,6,P-GPS,1,0,0,0,0,0,0,1650276485161,3892,3894,3897,3876,0,0,27,,,,,,,0,0,0,3.00,44.00,1540.00,0.00,0.00,1610.00,6,67.00,0.00,40.78,0.00,0.00,0.00,0,,,100,100,0,2,0,0,0,2,0,,,,,0.0,0.0,0.0,0.0,0.0,0.0,0
55.936262,-4.407638,6.70,6.70,0.00,4.08,6.90,6.90,1.90,4.11,12191,2022-04-18 10:08:05.256,2022-04-18 11:08:05.255,18,0,0,15.370,55.936292,-4.407674,0.00,0.00,0.00,0.00,4.70,153.90,0,1,0,62,100,-7427,2118,15370,3035.50,6,P-GPS,1,0,0,0,0,0,0,1650276485255,3892,3894,3897,3876,0,0,27,,,,,,,0,0,0,-0.00,47.00,1539.00,0.00,0.00,1610.00,6,67.00,0.00,40.85,0.00,0.00,0.00,0,,,100,100,0,2,0,0,0,2,0,,,,,0.0,0.0,0.0,0.0,0.0,0.0,0
55.936262,-4.407637,6.70,6.70,0.00,4.10,6.90,6.90,1.90,4.11,12295,2022-04-18 10:08:05.359,2022-04-18 11:08:05.359,18,0,0,15.370,55.936292,-4.407674,0.00,0.00,0.00,0.70,5.10,154.00,0,1,0,62,100,-7427,2118,15370,3035.50,6,P-GPS,1,0,0,0,0,0,0,1650276485359,3892,3894,3897,3876,0,0,27,,,,,,,0,0,0,-7.00,51.00,1540.00,0.00,0.00,1610.00,6,67.00,0.00,41.00,0.00,0.00,0.00,0,,,100,100,0,2,0,0,0,2,0,,,,,0.0,0.0,0.0,0.0,0.0,0.0,0
55.936262,-4.407637,6.80,6.70,0.10,4.11,6.90,6.90,1.90,4.11,12399,2022-04-18 10:08:05.463,2022-04-18 11:08:05.463,18,0,0,15.370,55.936292,-4.407674,0.00,0.10,0.00,1.50,5.50,154.10,0,1,0,62,100,-7427,2118,15370,3035.50,6,P-GPS,1,0,0,0,0,0,0,1650276485463,3892,3894,3897,3876,0,0,27,,,,,,,0,0,0,-15.00,55.00,1541.00,0.00,0.00,1610.00,6,68.00,1.00,41.12,0.00,1.00,0.00,0,,,100,100,0,2,0,0,0,2,0,,,,,0.0,0.0,0.0,0.0,0.0,0.0,0
55.936261,-4.407637,6.80,6.70,0.10,4.13,6.90,6.90,1.90,4.13,12504,2022-04-18 10:08:05.569,2022-04-18 11:08:05.568,18,0,0,15.370,55.936292,-4.407674,0.00,0.10,0.00,1.60,5.90,154.20,0,1,0,62,100,-7427,2118,15370,3035.50,6,P-GPS,1,0,0,0,0,0,0,1650276485568,3892,3894,3897,3876,0,0,27,,,,,,,0,0,0,-16.00,59.00,1542.00,0.00,0.00,1610.00,6,68.00,1.00,41.30,0.00,1.00,0.00,0,,,100,100,0,2,0,0,0,2,0,,,,,0.0,0.0,0.0,0.0,0.0,0.0,0
55.936261,-4.407637,6.80,6.70,0.00,4.14,6.90,6.90,1.90,4.14,12599,2022-04-18 10:08:05.663,2022-04-18 11:08:05.663,18,0,0,15.370,55.936292,-4.407674,0.00,0.00,0.00,1.80,6.30,154.40,0,1,0,62,100,-7427,2118,15370,3035.50,6,P-GPS,1,0,0,0,0,0,0,1650276485663,3892,3894,3897,3876,0,0,27,,,,,,,0,0,0,-18.00,63.00,1544.00,0.00,0.00,1610.00,6,68.00,0.00,41.42,0.00,0.00,0.00,0,,,100,100,0,2,0,0,0,2,0,,,,,0.0,0.0,0.0,0.0,0.0,0.0,0
55.936261,-4.407637,6.80,6.80,0.00,4.16,6.90,6.90,1.90,4.16,12689,2022-04-18 10:08:05.754,2022-04-18 11:08:05.753,18,0,0,15.370,55.936292,-4.407674,0.00,0.00,0.00,1.80,6.40,154.20,0,1,0,62,100,-7427,2118,15370,3035.50,6,P-GPS,1,0,0,0,0,0,0,1650276485753,3892,3894,3897,3876,0,0,27,,,,,,,0,0,0,-18.00,64.00,1542.00,0.00,0.00,1610.00,6,68.00,0.00,41.58,0.00,0.00,0.00,0,,,100,100,0,2,0,0,0,2,0,,,,,0.0,0.0,0.0,0.0,0.0,0.0,0
55.936261,-4.407637,6.80,6.80,0.00,4.17,6.90,6.90,1.90,4.17,12801,2022-04-18 10:08:05.865,2022-04-18 11:08:05.865,18,0,0,15.370,55.936292,-4.407674,0.00,0.00,0.00,1.50,6.30,154.10,0,1,0,62,100,-7427,2118,15370,3035.50,6,P-GPS,1,0,0,0,0,0,0,1650276485865,3892,3894,3897,3876,0,0,27,,,,,,,0,0,0,-15.00,63.00,1541.00,0.00,0.00,1610.00,6,68.00,0.00,41.66,0.00,0.00,0.00,0,,,100,100,0,2,0,0,0,2,0,,,,,0.0,0.0,0.0,0.0,0.0,0.0,0
55.936261,-4.407637,6.80,6.80,0.00,4.17,6.90,6.90,1.90,4.17,12896,2022-04-18 10:08:05.960,2022-04-18 11:08:05.960,18,0,0,15.370,55.936292,-4.407674,0.00,0.00,0.00,1.20,6.00,154.00,0,1,0,62,100,-7427,2118,15370,3035.50,6,P-GPS,1,0,0,0,0,0,0,1650276485960,3892,3894,3897,3876,0,0,27,,,,,,,0,0,0,-12.00,60.00,1540.00,0.00,0.00,1610.00,6,68.00,0.00,41.73,0.00,0.00,0.00,0,,,100,100,0,2,0,0,0,2,0,,,,,0.0,0.0,0.0,0.0,0.0,0.0,0
55.936261,-4.407637,6.80,6.80,0.00,4.18,6.90,6.90,1.90,4.18,12996,2022-04-18 10:08:06.060,2022-04-18 11:08:06.060,18,0,0,15.370,55.936292,-4.407674,0.00,0.00,0.00,0.70,5.90,153.90,0,1,0,62,100,-7427,2118,15370,3035.50,6,P-GPS,1,0,0,0,0,0,0,1650276486060,3892,3894,3897,3876,0,0,27,,,,,,,0,0,0,-7.00,59.00,1539.00,0.00,0.00,1610.00,6,68.00,0.00,41.75,0.00,0.00,0.00,0,,,100,100,0,2,0,0,0,2,0,,,,,0.0,0.0,0.0,0.0,0.0,0.0,0
55.936261,-4.407636,6.80,6.80,0.00,4.18,6.90,6.90,1.90,4.18,13088,2022-04-18 10:08:06.152,2022-04-18 11:08:06.152,18,0,0,15.370,55.936292,-4.407674,0.00,0.00,0.00,0.10,5.80,153.80,0,1,0,62,100,-7427,2118,15370,3035.50,6,P-GPS,1,0,0,0,0,0,0,1650276486152,3892,3894,3897,3876,0,0,27,,,,,,,0,0,0,-1.00,58.00,1538.00,0.00,0.00,1610.00,6,68.00,0.00,41.78,0.00,0.00,0.00,0,,,100,100,0,2,0,0,0,2,0,,,,,0.0,0.0,0.0,0.0,0.0,0.0,0
55.936261,-4.407637,6.80,6.80,0.00,4.18,6.90,6.90,1.90,4.18,13187,2022-04-18 10:08:06.251,2022-04-18 11:08:06.251,18,0,0,15.369,55.936292,-4.407674,0.00,0.00,0.00,-0.40,5.10,153.80,0,1,0,62,100,-7310,2116,15369,3035.50,6,P-GPS,1,0,0,0,0,0,0,1650276486251,3892,3894,3897,3876,0,0,27,,,,,,,0,0,0,4.00,51.00,1538.00,0.00,0.00,1610.00,6,68.00,0.00,41.76,0.00,0.00,0.00,0,,,100,100,0,2,0,0,0,2,0,,,,,0.0,0.0,0.0,0.0,0.0,0.0,0
55.936261,-4.407636,6.80,6.80,0.00,4.18,6.90,6.90,1.90,4.18,13288,2022-04-18 10:08:06.353,2022-04-18 11:08:06.352,18,0,0,15.369,55.936292,-4.407674,0.00,0.00,0.00,-0.70,5.00,153.80,0,1,0,62,100,-7310,2116,15369,3035.50,6,P-GPS,1,0,0,0,0,0,0,1650276486352,3892,3894,3897,3876,0,0,27,,,,,,,0,0,0,7.00,50.00,1538.00,0.00,0.00,1610.00,6,68.00,0.00,41.83,0.00,0.00,0.00,0,,,100,100,0,2,0,0,0,2,0,,,,,0.0,0.0,0.0,0.0,0.0,0.0,0
55.936261,-4.407636,6.80,6.80,0.00,4.18,6.90,6.90,1.90,4.18,13376,2022-04-18 10:08:06.441,2022-04-18 11:08:06.440,18,0,0,15.369,55.936292,-4.407674,0.00,0.00,0.00,-0.70,5.00,153.80,0,1,0,62,100,-7310,2116,15369,3035.50,6,P-GPS,1,0,0,0,0,0,0,1650276486440,3892,3894,3897,3876,0,0,27,,,,,,,0,0,0,7.00,50.00,1538.00,0.00,0.00,1610.00,6,68.00,0.00,41.83,0.00,0.00,0.00,0,,,100,100,0,2,0,0,0,2,0,,,,,0.0,0.0,0.0,0.0,0.0,0.0,0
55.936261,-4.407636,6.80,6.80,0.00,4.19,6.90,6.90,1.90,4.19,13495,2022-04-18 10:08:06.560,2022-04-18 11:08:06.559,18,0,0,15.369,55.936292,-4.407674,0.00,0.00,0.00,-0.50,4.90,153.70,0,1,0,62,100,-7310,2116,15369,3035.50,6,P-GPS,1,0,0,0,0,0,0,1650276486559,3892,3894,3897,3876,0,0,27,,,,,,,0,0,0,5.00,49.00,1537.00,0.00,0.00,1610.00,6,68.00,0.00,41.88,0.00,0.00,0.00,0,,,100,100,0,2,0,0,0,2,0,,,,,0.0,0.0,0.0,0.0,0.0,0.0,0
55.936261,-4.407636,6.80,6.80,0.00,4.19,6.90,6.90,1.90,4.19,13596,2022-04-18 10:08:06.661,2022-04-18 11:08:06.660,18,0,0,15.369,55.936292,-4.407674,0.00,0.00,0.00,-0.80,5.70,153.70,0,1,0,62,100,-7310,2116,15369,3035.50,6,P-GPS,1,0,0,0,0,0,0,1650276486660,3892,3894,3897,3876,0,0,27,,,,,,,0,0,0,8.00,57.00,1537.00,0.00,0.00,1610.00,6,68.00,0.00,41.92,0.00,0.00,0.00,0,,,100,100,0,2,0,0,0,2,0,,,,,0.0,0.0,0.0,0.0,0.0,0.0,0
