latitude,longitude,altitude(m),ultrasonicHeight(m),speed(mps),distance(m),max_altitude(m),max_ascent(m),max_speed(mps),max_distance(m),time(millisecond),datetime(utc),datetime(local),satellites,pressure(Pa),temperature(F),voltage(v),home_latitude,home_longitude,velocityX(mps),velocityY(mps),velocityZ(mps),pitch(deg),roll(deg),yaw(deg),powerlevel,isflying,istakingphoto,remainPowerPercent,remainLifePercent,currentCurrent,currentElectricity,currentVoltage,batteryTemperature,dischargeCount,flightmode,isMotorsOn,isTakingVideo,Rc_elevator,Rc_aileron,Rc_throttle,Rc_rudder,Rc_gyro,timestamp,Battery_Cell1,Battery_Cell2,Battery_Cell3,Battery_Cell4,Battery_Cell5,Battery_Cell6,Dronetype,AppVersion,Planename,FlyControllerSerialNumber,RemoteSerialNumber,BatterySerialNumber,CENTER_BATTERY.productDate,CENTER_BATTERY.serialNo,CENTER_BATTERY.fullCapacity,CENTER_BATTERY.productDateRaw,pitchRaw,rollRaw,yawRaw,gimbalPitchRaw,gimbalRollRaw,gimbalYawRaw,flyState,altitudeRaw,speedRaw,distanceRaw,velocityXRaw,velocityYRaw,velocityZRaw,data_reuse,App_Tip,App_Warning,downlinkSignalQuality,uplinkSignalQuality,transmissionChannel,rcModeSwitch,rcHome,rcPause,rcTransform,rcJoystickMode,appMode,FlyControllerSerialNumber_legacy,RemoteSerialNumber_legacy,BatterySerialNumber_legacy,Battery2SerialNumber,frontAvoidDist,backAvoidDist,rightAvoidDist,leftAvoidDist,upAvoidDist,downAvoidDist,isBrakingToAvoid
55.954268,-4.401839,83.40,0.00,0.00,51.39,83.40,83.40,0.00,51.39,0,2022-09-19 10:24:09.788,2022-09-19 11:24:09.788,18,0,0,15.712,55.954469,-4.402580,0.00,0.00,0.00,3.00,-2.10,82.50,0,1,0,0,0,0,0,15712,2940.50,0,P-GPS,1,0,0,0,0,0,0,1663583049788,0,0,0,0,0,0,27,Litchi_4.24.1-g,,,,null,,0,0,0,-30.00,-21.00,825.00,0.00,0.00,744.00,6,834.00,0.00,513.89,0.00,0.00,0.00,0,,,100,100,0,2,0,0,0,2,0,,,,null,0.0,0.0,0.0,0.0,0.0,0.0,0
55.954268,-4.401839,83.40,0.00,0.00,51.38,83.40,83.40,0.00,51.39,113,2022-09-19 10:24:09.902,2022-09-19 11:24:09.901,18,0,0,15.712,55.954469,-4.402580,0.00,0.00,0.00,3.20,-2.10,82.50,0,1,0,0,0,0,0,15712,2940.50,0,P-GPS,1,0,0,0,0,0,0,1663583049901,0,0,0,0,0,0,27,Litchi_4.24.1-g,CJTMAVIC,163DFAS001K45C,0VECFAK0072T52,0P2AFAL5340E87,,0,0,0,-32.00,-21.00,825.00,0.00,0.00,744.00,6,834.00,0.00,513.84,0.00,0.00,0.00,0,,,100,100,0,2,0,0,0,2,0,,,,null,0.0,0.0,0.0,0.0,0.0,0.0,0
55.954268,-4.401839,83.30,0.00,0.00,51.38,83.40,83.40,0.00,51.39,199,2022-09-19 10:24:09.987,2022-09-19 11:24:09.987,18,0,0,15.712,55.954469,-4.402580,0.00,0.00,0.00,3.20,-2.10,82.50,0,1,0,0,0,0,0,15712,2940.50,0,P-GPS,1,0,0,0,0,0,0,1663583049987,0,0,0,0,0,0,27,,,,,,,0,0,0,-32.00,-21.00,825.00,0.00,0.00,744.00,6,833.00,0.00,513.84,0.00,0.00,0.00,0,,,100,100,0,2,0,0,0,2,0,,,,,0.0,0.0,0.0,0.0,0.0,0.0,0
55.954268,-4.401839,83.30,0.00,0.00,51.39,83.40,83.40,0.00,51.39,297,2022-09-19 10:24:10.086,2022-09-19 11:24:10.085,18,0,0,15.712,55.954469,-4.402580,0.00,0.00,0.00,3.30,-2.10,82.50,0,1,0,0,0,0,0,15712,2940.50,0,P-GPS,1,0,0,0,0,0,0,1663583050085,0,0,0,0,0,0,27,,,,,,,0,0,0,-33.00,-21.00,825.00,0.00,0.00,744.00,6,833.00,0.00,513.87,0.00,0.00,0.00,0,,,100,100,0,2,0,0,0,2,0,,,,,0.0,0.0,0.0,0.0,0.0,0.0,0
55.954268,-4.401839,83.30,0.00,0.00,51.39,83.40,83.40,0.00,51.39,397,2022-09-19 10:24:10.186,2022-09-19 11:24:10.185,18,0,0,15.712,55.954469,-4.402580,0.00,0.00,0.00,3.20,-2.10,82.50,0,1,0,0,0,0,0,15712,2940.50,0,P-GPS,1,0,0,0,0,0,0,1663583050185,0,0,0,0,0,0,27,,,,,,,0,0,0,-32.00,-21.00,825.00,0.00,0.00,744.00,6,833.00,0.00,513.87,0.00,0.00,0.00,0,,,100,100,0,2,0,0,0,2,0,,,,,0.0,0.0,0.0,0.0,0.0,0.0,0
55.954268,-4.401839,83.30,0.00,0.00,51.39,83.40,83.40,0.00,51.39,513,2022-09-19 10:24:10.302,2022-09-19 11:24:10.301,18,0,0,15.712,55.954469,-4.402580,0.00,0.00,0.00,3.00,-2.10,82.50,0,1,0,0,0,0,0,15712,2940.50,0,P-GPS,1,0,0,0,0,0,0,1663583050301,0,0,0,0,0,0,27,,,,,,,0,0,0,-30.00,-21.00,825.00,0.00,0.00,744.00,6,833.00,0.00,513.94,0.00,0.00,0.00,0,,,100,100,0,2,0,0,0,2,0,,,,,0.0,0.0,0.0,0.0,0.0,0.0,0
55.954268,-4.401839,83.40,0.00,0.00,51.39,83.40,83.40,0.00,51.39,599,2022-09-19 10:24:10.387,2022-09-19 11:24:10.387,18,0,0,15.712,55.954469,-4.402580,0.00,0.00,0.00,3.00,-2.30,82.60,0,1,0,0,0,0,0,15712,2940.50,0,P-GPS,1,0,0,0,0,0,0,1663583050387,0,0,0,0,0,0,27,,,,,,,0,0,0,-30.00,-23.00,826.00,0.00,0.00,744.00,6,834.00,0.00,513.95,0.00,0.00,0.00,0,,,100,100,0,2,0,0,0,2,0,,,,,0.0,0.0,0.0,0.0,0.0,0.0,0
55.954268,-4.401838,83.40,0.00,0.00,51.40,83.40,83.40,0.00,51.40,710,2022-09-19 10:24:10.498,2022-09-19 11:24:10.498,18,0,0,15.712,55.954469,-4.402580,0.00,0.00,0.00,3.10,-2.30,82.60,0,1,0,0,0,0,0,15712,2940.50,0,P-GPS,1,0,0,0,0,0,0,1663583050498,0,0,0,0,0,0,27,,,,,,,0,0,0,-31.00,-23.00,826.00,0.00,0.00,744.00,6,834.00,0.00,514.02,0.00,0.00,0.00,0,,,100,100,0,2,0,0,0,2,0,,,,,0.0,0.0,0.0,0.0,0.0,0.0,0
55.954268,-4.401838,83.40,0.00,0.00,51.40,83.40,83.40,0.00,51.40,798,2022-09-19 10:24:10.586,2022-09-19 11:24:10.586,18,0,0,15.712,55.954469,-4.402580,0.00,0.00,0.00,3.20,-2.40,82.60,0,1,0,0,0,0,0,15712,2940.50,0,P-GPS,1,0,0,0,0,0,0,1663583050586,0,0,0,0,0,0,27,,,,,,,0,0,0,-32.00,-24.00,826.00,0.00,0.00,744.00,6,834.00,0.00,514.04,0.00,0.00,0.00,0,,,100,100,0,2,0,0,0,2,0,,,,,0.0,0.0,0.0,0.0,0.0,0.0,0
55.954268,-4.401838,83.40,0.00,0.00,51.40,83.40,83.40,0.00,51.40,888,2022-09-19 10:24:10.676,2022-09-19 11:24:10.676,18,0,0,15.699,55.954469,-4.402580,0.00,0.00,0.00,3.20,-2.40,82.60,0,1,0,97,100,-7364,3200,15699,2940.50,11,P-GPS,1,0,0,0,0,0,0,1663583050676,0,0,0,0,0,0,27,,,,,,,0,0,0,-32.00,-24.00,826.00,0.00,0.00,744.00,6,834.00,0.00,514.04,0.00,0.00,0.00,0,,,100,100,0,2,0,0,0,2,0,,,,,0.0,0.0,0.0,0.0,0.0,0.0,0
55.954268,-4.401838,83.40,0.00,0.00,51.41,83.40,83.40,0.00,51.41,998,2022-09-19 10:24:10.786,2022-09-19 11:24:10.786,18,0,0,15.699,55.954469,-4.402580,0.00,0.00,0.00,3.40,-2.30,82.60,0,1,0,97,100,-7364,3200,15699,2940.50,11,P-GPS,1,0,0,0,0,0,0,1663583050786,0,0,0,0,0,0,27,,,,,,,0,0,0,-34.00,-23.00,826.00,0.00,0.00,744.00,6,834.00,0.00,514.14,0.00,0.00,0.00,0,,,100,100,0,2,0,0,0,2,0,,,,,0.0,0.0,0.0,0.0,0.0,0.0,0
55.954268,-4.401838,83.40,0.00,0.00,51.42,83.40,83.40,0.00,51.42,1115,2022-09-19 10:24:10.903,2022-09-19 11:24:10.903,18,0,0,15.699,55.954469,-4.402580,0.00,0.00,0.00,3.50,-2.20,82.60,0,1,0,97,100,-7364,3200,15699,2940.50,11,P-GPS,1,0,0,0,0,0,0,1663583050903,0,0,0,0,0,0,27,,,,,,,0,0,0,-35.00,-22.00,826.00,0.00,0.00,744.00,6,834.00,0.00,514.19,0.00,0.00,0.00,0,,,100,100,0,2,0,0,0,2,0,,,,,0.0,0.0,0.0,0.0,0.0,0.0,0
55.954268,-4.401838,83.30,0.00,0.00,51.43,83.40,83.40,0.00,51.43,1308,2022-09-19 10:24:11.096,2022-09-19 11:24:11.096,18,0,0,15.699,55.954469,-4.402580,0.00,0.00,0.00,3.40,-2.00,82.60,0,1,0,97,100,-7364,3200,15699,2940.50,11,P-GPS,1,0,0,0,0,0,0,1663583051096,0,0,0,0,0,0,27,,,,,,,0,0,0,-34.00,-20.00,826.00,0.00,0.00,744.00,6,833.00,0.00,514.25,0.00,0.00,0.00,0,,,100,100,0,2,0,0,0,2,0,,,,,0.0,0.0,0.0,0.0,0.0,0.0,0
55.954268,-4.401838,83.30,0.00,0.00,51.43,83.40,83.40,0.00,51.43,1396,2022-09-19 10:24:11.185,2022-09-19 11:24:11.184,18,0,0,15.699,55.954469,-4.402580,0.00,0.00,0.00,3.50,-2.00,82.60,0,1,0,97,100,-7364,3200,15699,2940.50,11,P-GPS,1,0,0,0,0,0,0,1663583051184,0,0,0,0,0,0,27,,,,,,,0,0,0,-35.00,-20.00,826.00,0.00,0.00,744.00,6,833.00,0.00,514.28,0.00,0.00,0.00,0,,,100,100,0,2,0,0,0,2,0,,,,,0.0,0.0,0.0,0.0,0.0,0.0,0
55.954268,-4.401838,83.40,0.00,0.00,51.43,83.40,83.40,0.00,51.43,1511,2022-09-19 10:24:11.299,2022-09-19 11:24:11.299,18,0,0,15.699,55.954469,-4.402580,0.00,0.00,0.00,3.50,-2.20,82.60,0,1,0,97,100,-7364,3200,15699,2940.50,11,P-GPS,1,0,0,0,0,0,0,1663583051299,0,0,0,0,0,0,27,,,,,,,0,0,0,-35.00,-22.00,826.00,0.00,0.00,744.00,6,834.00,0.00,514.33,0.00,0.00,0.00,0,,,100,100,0,2,0,0,0,2,0,,,,,0.0,0.0,0.0,0.0,0.0,0.0,0
55.954268,-4.401838,83.40,0.00,0.00,51.44,83.40,83.40,0.00,51.44,1601,2022-09-19 10:24:11.389,2022-09-19 11:24:11.389,18,0,0,15.699,55.954469,-4.402580,0.00,0.00,0.00,3.60,-2.30,82.60,0,1,0,97,100,-7364,3200,15699,2940.50,11,P-GPS,1,0,0,0,0,0,0,1663583051389,0,0,0,0,0,0,27,,,,,,,0,0,0,-36.00,-23.00,826.00,0.00,0.00,744.00,6,834.00,0.00,514.36,0.00,0.00,0.00,0,,,100,100,0,2,0,0,0,2,0,,,,,0.0,0.0,0.0,0.0,0.0,0.0,0
55.954269,-4.401837,83.40,0.00,0.00,51.44,83.40,83.40,0.00,51.44,1700,2022-09-19 10:24:11.488,2022-09-19 11:24:11.488,18,0,0,15.699,55.954469,-4.402580,0.00,0.00,0.00,3.60,-2.30,82.60,0,1,0,97,100,-7364,3200,15699,2940.50,11,P-GPS,1,0,0,0,0,0,0,1663583051488,0,0,0,0,0,0,27,,,,,,,0,0,0,-36.00,-23.00,826.00,0.00,0.00,744.00,6,834.00,0.00,514.41,0.00,0.00,0.00,0,,,100,100,0,2,0,0,0,2,0,,,,,0.0,0.0,0.0,0.0,0.0,0.0,0
55.954269,-4.401837,83.40,0.00,0.00,51.44,83.40,83.40,0.00,51.44,1794,2022-09-19 10:24:11.583,2022-09-19 11:24:11.583,18,0,0,15.699,55.954469,-4.402580,0.00,0.00,0.00,3.60,-2.20,82.60,0,1,0,97,100,-7364,3200,15699,2940.50,11,P-GPS,1,0,0,0,0,0,0,1663583051582,0,0,0,0,0,0,27,,,,,,,0,0,0,-36.00,-22.00,826.00,0.00,0.00,744.00,6,834.00,0.00,514.44,0.00,0.00,0.00,0,,,100,100,0,2,0,0,0,2,0,,,,,0.0,0.0,0.0,0.0,0.0,0.0,0
55.954269,-4.401837,83.40,0.00,0.00,51.44,83.40,83.40,0.00,51.44,1895,2022-09-19 10:24:11.683,2022-09-19 11:24:11.683,18,0,0,15.734,55.954469,-4.402580,0.00,0.00,0.00,3.60,-2.20,82.60,0,1,0,97,100,-7252,3198,15734,2941.50,11,P-GPS,1,0,0,0,0,0,0,1663583051683,0,0,0,0,0,0,27,,,,,,,0,0,0,-36.00,-22.00,826.00,0.00,0.00,744.00,6,834.00,0.00,514.44,0.00,0.00,0.00,0,,,100,100,0,2,0,0,0,2,0,,,,,0.0,0.0,0.0,0.0,0.0,0.0,0
55.954269,-4.401837,83.30,0.00,0.00,51.45,83.40,83.40,0.00,51.45,1995,2022-09-19 10:24:11.783,2022-09-19 11:24:11.783,18,0,0,15.734,55.954469,-4.402580,0.00,0.00,0.00,3.60,-2.00,82.60,0,1,0,97,100,-7252,3198,15734,2941.50,11,P-GPS,1,0,0,0,0,0,0,1663583051783,0,0,0,0,0,0,27,,,,,,,0,0,0,-36.00,-20.00,826.00,0.00,0.00,744.00,6,833.00,0.00,514.48,0.00,0.00,0.00,0,,,100,100,0,2,0,0,0,2,0,,,,,0.0,0.0,0.0,0.0,0.0,0.0,0
55.954269,-4.401837,83.30,0.00,0.00,51.45,83.40,83.40,0.00,51.45,2098,2022-09-19 10:24:11.886,2022-09-19 11:24:11.886,18,0,0,15.734,55.954469,-4.402580,0.00,0.00,0.00,3.50,-1.80,82.60,0,1,0,97,100,-7252,3198,15734,2941.50,11,P-GPS,1,0,0,0,0,0,0,1663583051886,0,0,0,0,0,0,27,,,,,,,0,0,0,-35.00,-18.00,826.00,0.00,0.00,744.00,6,833.00,0.00,514.49,0.00,0.00,0.00,0,,,100,100,0,2,0,0,0,2,0,,,,,0.0,0.0,0.0,0.0,0.0,0.0,0
55.954269,-4.401837,83.30,0.00,0.00,51.45,83.40,83.40,0.00,51.45,2196,2022-09-19 10:24:11.985,2022-09-19 11:24:11.984,18,0,0,15.734,55.954469,-4.402580,0.00,0.00,0.00,3.50,-1.70,82.60,0,1,0,97,100,-7252,3198,15734,2941.50,11,P-GPS,1,0,0,0,0,0,0,1663583051984,0,0,0,0,0,0,27,,,,,,,0,0,0,-35.00,-17.00,826.00,0.00,0.00,744.00,6,833.00,0.00,514.51,0.00,0.00,0.00,0,,,100,100,0,2,0,0,0,2,0,,,,,0.0,0.0,0.0,0.0,0.0,0.0,0
55.954269,-4.401837,83.30,0.00,0.00,51.45,83.40,83.40,0.00,51.45,2304,2022-09-19 10:24:12.093,2022-09-19 11:24:12.093,18,0,0,15.734,55.954469,-4.402580,0.00,0.00,0.00,3.40,-1.70,82.60,0,1,0,97,100,-7252,3198,15734,2941.50,11,P-GPS,1,0,0,0,0,0,0,1663583052092,0,0,0,0,0,0,27,,,,,,,0,0,0,-34.00,-17.00,826.00,0.00,0.00,744.00,6,833.00,0.00,514.53,0.00,0.00,0.00,0,,,100,100,0,2,0,0,0,2,0,,,,,0.0,0.0,0.0,0.0,0.0,0.0,0
55.954269,-4.401837,83.30,0.00,0.00,51.45,83.40,83.40,0.00,51.45,2398,2022-09-19 10:24:12.186,2022-09-19 11:24:12.186,18,0,0,15.734,55.954469,-4.402580,0.00,0.00,0.00,3.30,-1.80,82.60,0,1,0,97,100,-7252,3198,15734,2941.50,11,P-GPS,1,0,0,0,0,0,0,1663583052186,0,0,0,0,0,0,27,,,,,,,0,0,0,-33.00,-18.00,826.00,0.00,0.00,744.00,6,833.00,0.00,514.55,0.00,0.00,0.00,0,,,100,100,0,2,0,0,0,2,0,,,,,0.0,0.0,0.0,0.0,0.0,0.0,0
55.954269,-4.401837,83.30,0.00,0.00,51.45,83.40,83.40,0.00,51.45,2495,2022-09-19 10:24:12.284,2022-09-19 11:24:12.283,18,0,0,15.734,55.954469,-4.402580,0.00,0.00,0.00,3.20,-1.90,82.60,0,1,0,97,100,-7252,3198,15734,2941.50,11,P-GPS,1,0,0,0,0,0,0,1663583052283,0,0,0,0,0,0,27,,,,,,,0,0,0,-32.00,-19.00,826.00,0.00,0.00,744.00,6,833.00,0.00,514.52,0.00,0.00,0.00,0,,,100,100,0,2,0,0,0,2,0,,,,,0.0,0.0,0.0,0.0,0.0,0.0,0
55.954269,-4.401837,83.30,0.00,0.00,51.45,83.40,83.40,0.00,51.45,2596,2022-09-19 10:24:12.385,2022-09-19 11:24:12.384,18,0,0,15.734,55.954469,-4.402580,0.00,0.00,0.00,3.10,-2.00,82.60,0,1,0,97,100,-7252,3198,15734,2941.50,11,P-GPS,1,0,0,0,0,0,0,1663583052384,0,0,0,0,0,0,27,,,,,,,0,0,0,-31.00,-20.00,826.00,0.00,0.00,744.00,6,833.00,0.00,514.54,0.00,0.00,0.00,0,,,100,100,0,2,0,0,0,2,0,,,,,0.0,0.0,0.0,0.0,0.0,0.0,0
55.954269,-4.401837,83.30,0.00,0.00,51.46,83.40,83.40,0.00,51.46,2697,2022-09-19 10:24:12.486,2022-09-19 11:24:12.485,18,0,0,15.734,55.954469,-4.402580,0.00,0.00,0.00,3.00,-2.20,82.60,0,1,0,97,100,-7252,3198,15734,2941.50,11,P-GPS,1,0,0,0,0,0,0,1663583052485,0,0,0,0,0,0,27,,,,,,,0,0,0,-30.00,-22.00,826.00,0.00,0.00,744.00,6,833.00,0.00,514.61,0.00,0.00,0.00,0,,,100,100,0,2,0,0,0,2,0,,,,,0.0,0.0,0.0,0.0,0.0,0.0,0
55.954269,-4.401837,83.30,0.00,0.00,51.46,83.40,83.40,0.00,51.46,2803,2022-09-19 10:24:12.592,2022-09-19 11:24:12.591,18,0,0,15.734,55.954469,-4.402580,0.00,0.00,0.00,3.00,-2.20,82.60,0,1,0,97,100,-7252,3198,15734,2941.50,11,P-GPS,1,0,0,0,0,0,0,1663583052591,0,0,0,0,0,0,27,,,,,,,0,0,0,-30.00,-22.00,826.00,0.00,0.00,744.00,6,833.00,0.00,514.64,0.00,0.00,0.00,0,,,100,100,0,2,0,0,0,2,0,,,,,0.0,0.0,0.0,0.0,0.0,0.0,0
55.954269,-4.401837,83.30,0.00,0.00,51.46,83.40,83.40,0.00,51.46,2896,2022-09-19 10:24:12.685,2022-09-19 11:24:12.684,18,0,0,15.726,55.954469,-4.402580,0.00,0.00,0.00,3.00,-2.30,82.60,0,1,0,96,100,-7232,3196,15726,2941.50,11,P-GPS,1,0,0,0,0,0,0,1663583052684,0,0,0,0,0,0,27,,,,,,,0,0,0,-30.00,-23.00,826.00,0.00,0.00,744.00,6,833.00,0.00,514.61,0.00,0.00,0.00,0,,,100,100,0,2,0,0,0,2,0,,,,,0.0,0.0,0.0,0.0,0.0,0.0,0
55.954269,-4.401837,83.30,0.00,0.00,51.46,83.40,83.40,0.00,51.46,2998,2022-09-19 10:24:12.786,2022-09-19 11:24:12.786,18,0,0,15.726,55.954469,-4.402580,0.00,0.00,0.00,3.00,-2.50,82.60,0,1,0,96,100,-7232,3196,15726,2941.50,11,P-GPS,1,0,0,0,0,0,0,1663583052786,0,0,0,0,0,0,27,,,,,,,0,0,0,-30.00,-25.00,826.00,0.00,0.00,744.00,6,833.00,0.00,514.64,0.00,0.00,0.00,0,,,100,100,0,2,0,0,0,2,0,,,,,0.0,0.0,0.0,0.0,0.0,0.0,0
55.954269,-4.401837,83.30,0.00,0.00,51.47,83.40,83.40,0.00,51.47,3116,2022-09-19 10:24:12.905,2022-09-19 11:24:12.904,18,0,0,15.726,55.954469,-4.402580,0.00,0.00,0.00,3.30,-2.30,82.50,0,1,0,96,100,-7232,3196,15726,2941.50,11,P-GPS,1,0,0,0,0,0,0,1663583052904,0,0,0,0,0,0,27,,,,,,,0,0,0,-33.00,-23.00,825.00,0.00,0.00,744.00,6,833.00,0.00,514.69,0.00,0.00,0.00,0,,,100,100,0,2,0,0,0,2,0,,,,,0.0,0.0,0.0,0.0,0.0,0.0,0
55.954269,-4.401837,83.30,0.00,0.00,51.47,83.40,83.40,0.00,51.47,3212,2022-09-19 10:24:13.001,2022-09-19 11:24:13.000,18,0,0,15.726,55.954469,-4.402580,0.00,0.00,0.00,3.60,-2.00,82.50,0,1,0,96,100,-7232,3196,15726,2941.50,11,P-GPS,1,0,0,0,0,0,0,1663583053000,0,0,0,0,0,0,27,,,,,,,0,0,0,-36.00,-20.00,825.00,0.00,0.00,744.00,6,833.00,0.00,514.73,0.00,0.00,0.00,0,,,100,100,0,2,0,0,0,2,0,,,,,0.0,0.0,0.0,0.0,0.0,0.0,0
55.954269,-4.401837,83.30,0.00,0.00,51.46,83.40,83.40,0.00,51.47,3311,2022-09-19 10:24:13.099,2022-09-19 11:24:13.099,18,0,0,15.726,55.954469,-4.402580,0.00,0.00,0.00,3.70,-1.70,82.50,0,1,0,96,100,-7232,3196,15726,2941.50,11,P-GPS,1,0,0,0,0,0,0,1663583053099,0,0,0,0,0,0,27,,,,,,,0,0,0,-37.00,-17.00,825.00,0.00,0.00,744.00,6,833.00,0.00,514.61,0.00,0.00,0.00,0,,,100,100,0,2,0,0,0,2,0,,,,,0.0,0.0,0.0,0.0,0.0,0.0,0
55.954269,-4.401837,83.30,0.00,0.00,51.46,83.40,83.40,0.00,51.47,3399,2022-09-19 10:24:13.188,2022-09-19 11:24:13.187,18,0,0,15.726,55.954469,-4.402580,0.00,0.00,0.00,3.70,-1.70,82.50,0,1,0,96,100,-7232,3196,15726,2941.50,11,P-GPS,1,0,0,0,0,0,0,1663583053187,0,0,0,0,0,0,27,,,,,,,0,0,0,-37.00,-17.00,825.00,0.00,0.00,744.00,6,833.00,0.00,514.63,0.00,0.00,0.00,0,,,100,100,0,2,0,0,0,2,0,,,,,0.0,0.0,0.0,0.0,0.0,0.0,0
55.954269,-4.401837,83.30,0.00,0.00,51.46,83.40,83.40,0.00,51.47,3496,2022-09-19 10:24:13.284,2022-09-19 11:24:13.284,18,0,0,15.726,55.954469,-4.402580,0.00,0.00,0.00,3.50,-1.90,82.50,0,1,0,96,100,-7232,3196,15726,2941.50,11,P-GPS,1,0,0,0,0,0,0,1663583053284,0,0,0,0,0,0,27,,,,,,,0,0,0,-35.00,-19.00,825.00,0.00,0.00,744.00,6,833.00,0.00,514.57,0.00,0.00,0.00,0,,,100,100,0,2,0,0,0,2,0,,,,,0.0,0.0,0.0,0.0,0.0,0.0,0
55.954269,-4.401837,83.30,0.00,0.00,51.46,83.40,83.40,0.00,51.47,3605,2022-09-19 10:24:13.393,2022-09-19 11:24:13.393,18,0,0,15.726,55.954469,-4.402580,0.00,0.00,0.00,3.40,-2.00,82.50,0,1,0,96,100,-7232,3196,15726,2941.50,11,P-GPS,1,0,0,0,0,0,-113,1663583053393,0,0,0,0,0,0,27,,,,,,,0,0,0,-34.00,-20.00,825.00,0.00,0.00,744.00,6,833.00,0.00,514.58,0.00,0.00,0.00,0,,,100,100,0,2,0,0,0,2,0,,,,,0.0,0.0,0.0,0.0,0.0,0.0,0
55.954269,-4.401837,83.30,0.00,0.00,51.45,83.40,83.40,0.00,51.47,3695,2022-09-19 10:24:13.484,2022-09-19 11:24:13.483,18,0,0,15.726,55.954469,-4.402580,0.00,0.00,0.00,3.30,-2.00,82.50,0,1,0,96,100,-7232,3196,15726,2941.50,11,P-GPS,1,0,0,0,0,0,-71,1663583053483,0,0,0,0,0,0,27,,,,,,,0,0,0,-33.00,-20.00,825.00,-1.00,0.00,744.00,6,833.00,0.00,514.53,0.00,0.00,0.00,0,,,100,100,0,2,0,0,0,2,0,,,,,0.0,0.0,0.0,0.0,0.0,0.0,0
55.954268,-4.401837,83.30,0.00,0.00,51.45,83.40,83.40,0.00,51.47,3797,2022-09-19 10:24:13.585,2022-09-19 11:24:13.585,18,0,0,15.726,55.954469,-4.402580,0.00,0.00,0.00,3.20,-2.10,82.50,0,1,0,96,100,-7232,3196,15726,2941.50,11,P-GPS,1,0,0,0,0,0,0,1663583053585,0,0,0,0,0,0,27,,,,,,,0,0,0,-32.00,-21.00,825.00,-4.00,0.00,744.00,6,833.00,0.00,514.53,0.00,0.00,0.00,0,,,100,100,0,2,0,0,0,2,0,,,,,0.0,0.0,0.0,0.0,0.0,0.0,0
55.954268,-4.401837,83.30,0.00,0.00,51.45,83.40,83.40,0.00,51.47,3911,2022-09-19 10:24:13.699,2022-09-19 11:24:13.699,18,0,0,15.726,55.954469,-4.402580,0.00,0.00,0.00,3.10,-2.10,82.50,0,1,0,96,100,-7291,3194,15726,2942.50,11,P-GPS,1,0,0,0,0,0,0,1663583053699,0,0,0,0,0,0,27,,,,,,,0,0,0,-31.00,-21.00,825.00,-4.00,0.00,744.00,6,833.00,0.00,514.50,0.00,0.00,0.00,0,,,100,100,0,2,0,0,0,2,0,,,,,0.0,0.0,0.0,0.0,0.0,0.0,0
55.954268,-4.401837,83.30,0.00,0.00,51.45,83.40,83.40,0.00,51.47,4001,2022-09-19 10:24:13.789,2022-09-19 11:24:13.789,18,0,0,15.726,55.954469,-4.402580,0.00,0.00,0.00,3.10,-2.00,82.50,0,1,0,96,100,-7291,3194,15726,2942.50,11,P-GPS,1,0,0,0,0,0,-427,1663583053789,0,0,0,0,0,0,27,,,,,,,0,0,0,-31.00,-20.00,825.00,-4.00,0.00,744.00,6,833.00,0.00,514.50,0.00,0.00,0.00,0,,,100,100,0,2,0,0,0,2,0,,,,,0.0,0.0,0.0,0.0,0.0,0.0,0
55.954268,-4.401837,83.30,0.00,0.00,51.45,83.40,83.40,0.00,51.47,4114,2022-09-19 10:24:13.903,2022-09-19 11:24:13.902,18,0,0,15.726,55.954469,-4.402580,0.00,0.00,0.00,3.10,-2.10,82.50,0,1,0,96,100,-7291,3194,15726,2942.50,11,P-GPS,1,0,0,0,0,0,-660,1663583053902,0,0,0,0,0,0,27,,,,,,,0,0,0,-31.00,-21.00,825.00,-7.00,0.00,744.00,6,833.00,0.00,514.48,0.00,0.00,0.00,0,,,100,100,0,2,0,0,0,2,0,,,,,0.0,0.0,0.0,0.0,0.0,0.0,0
55.954268,-4.401837,83.30,0.00,0.00,51.45,83.40,83.40,0.00,51.47,4201,2022-09-19 10:24:13.989,2022-09-19 11:24:13.989,18,0,0,15.726,55.954469,-4.402580,0.00,0.00,0.00,3.20,-2.20,82.50,0,1,0,96,100,-7291,3194,15726,2942.50,11,P-GPS,1,0,0,0,0,0,-660,1663583053989,0,0,0,0,0,0,27,,,,,,,0,0,0,-32.00,-22.00,825.00,-14.00,0.00,744.00,6,833.00,0.00,514.49,0.00,0.00,0.00,0,,,100,100,0,2,0,0,0,2,0,,,,,0.0,0.0,0.0,0.0,0.0,0.0,0
55.954268,-4.401838,83.30,0.00,0.00,51.44,83.40,83.40,0.00,51.47,4296,2022-09-19 10:24:14.085,2022-09-19 11:24:14.084,18,0,0,15.726,55.954469,-4.402580,0.00,0.00,0.00,3.30,-2.20,82.50,0,1,0,96,100,-7291,3194,15726,2942.50,11,P-GPS,1,0,0,0,0,0,-660,1663583054084,0,0,0,0,0,0,27,,,,,,,0,0,0,-33.00,-22.00,825.00,-28.00,0.00,744.00,6,833.00,0.00,514.41,0.00,0.00,0.00,0,,,100,100,0,2,0,0,0,2,0,,,,,0.0,0.0,0.0,0.0,0.0,0.0,0
55.954268,-4.401838,83.30,0.00,0.00,51.44,83.40,83.40,0.00,51.47,4396,2022-09-19 10:24:14.184,2022-09-19 11:24:14.184,18,0,0,15.726,55.954469,-4.402580,0.00,0.00,0.00,3.30,-2.10,82.50,0,1,0,96,100,-7291,3194,15726,2942.50,11,P-GPS,1,0,0,0,0,0,-660,1663583054184,3930,3926,3921,3938,0,0,27,,,,,,,0,0,0,-33.00,-21.00,825.00,-47.00,0.00,744.00,6,833.00,0.00,514.42,0.00,0.00,0.00,0,,,100,100,0,2,0,0,0,2,0,,,,,0.0,0.0,0.0,0.0,0.0,0.0,0
55.954268,-4.401838,83.30,0.00,0.00,51.45,83.40,83.40,0.00,51.47,4497,2022-09-19 10:24:14.286,2022-09-19 11:24:14.285,18,0,0,15.726,55.954469,-4.402580,0.00,0.00,0.00,3.40,-2.00,82.50,0,1,0,96,100,-7291,3194,15726,2942.50,11,P-GPS,1,0,0,0,0,0,-660,1663583054285,3930,3926,3921,3938,0,0,27,,,,,,,0,0,0,-34.00,-20.00,825.00,-70.00,0.00,744.00,6,833.00,0.00,514.51,0.00,0.00,0.00,0,,,100,100,0,2,0,0,0,2,0,,,,,0.0,0.0,0.0,0.0,0.0,0.0,0
55.954268,-4.401838,83.30,0.00,0.00,51.45,83.40,83.40,0.00,51.47,4597,2022-09-19 10:24:14.386,2022-09-19 11:24:14.385,18,0,0,15.726,55.954469,-4.402580,0.00,0.00,0.00,3.40,-2.10,82.50,0,1,0,96,100,-7291,3194,15726,2942.50,11,P-GPS,1,0,0,0,0,0,-660,1663583054385,3930,3926,3921,3938,0,0,27,,,,,,,0,0,0,-34.00,-21.00,825.00,-94.00,0.00,744.00,6,833.00,0.00,514.53,0.00,0.00,0.00,0,,,100,100,0,2,0,0,0,2,0,,,,,0.0,0.0,0.0,0.0,0.0,0.0,0
55.954268,-4.401838,83.30,0.00,0.00,51.44,83.40,83.40,0.00,51.47,4700,2022-09-19 10:24:14.488,2022-09-19 11:24:14.488,18,0,0,15.726,55.954469,-4.402580,0.00,0.00,0.00,3.40,-2.10,82.50,0,1,0,96,100,-7291,3194,15726,2942.50,11,P-GPS,1,0,0,0,0,0,-660,1663583054488,3930,3926,3921,3938,0,0,27,,,,,,,0,0,0,-34.00,-21.00,825.00,-117.00,0.00,744.00,6,833.00,0.00,514.43,0.00,0.00,0.00,0,,,100,100,0,2,0,0,0,2,0,,,,,0.0,0.0,0.0,0.0,0.0,0.0,0
55.954268,-4.401838,83.30,0.00,0.00,51.44,83.40,83.40,0.00,51.47,4800,2022-09-19 10:24:14.588,2022-09-19 11:24:14.588,18,0,0,15.726,55.954469,-4.402580,0.00,0.00,0.00,3.40,-2.10,82.50,0,1,0,96,100,-7291,3194,15726,2942.50,11,P-GPS,1,0,0,0,0,0,-660,1663583054588,3930,3926,3921,3938,0,0,27,,,,,,,0,0,0,-34.00,-21.00,825.00,-141.00,0.00,744.00,6,833.00,0.00,514.43,0.00,0.00,0.00,0,,,100,100,0,2,0,0,0,2,0,,,,,0.0,0.0,0.0,0.0,0.0,0.0,0
55.954268,-4.401838,83.30,0.00,0.00,51.45,83.40,83.40,0.00,51.47,4910,2022-09-19 10:24:14.699,2022-09-19 11:24:14.699,18,0,0,15.715,55.954469,-4.402580,0.00,0.00,0.00,3.40,-2.20,82.50,0,1,0,96,100,-7353,3192,15715,2942.50,11,P-GPS,1,0,0,0,0,0,-660,1663583054698,3930,3926,3921,3938,0,0,27,,,,,,,0,0,0,-34.00,-22.00,825.00,-165.00,0.00,744.00,6,833.00,0.00,514.50,0.00,0.00,0.00,0,,,100,100,0,2,0,0,0,2,0,,,,,0.0,0.0,0.0,0.0,0.0,0.0,0
55.954268,-4.401838,83.30,0.00,0.00,51.45,83.40,83.40,0.00,51.47,5000,2022-09-19 10:24:14.788,2022-09-19 11:24:14.788,18,0,0,15.715,55.954469,-4.402580,0.00,0.00,0.00,3.40,-2.20,82.60,0,1,0,96,100,-7353,3192,15715,2942.50,11,P-GPS,1,0,0,0,0,0,-660,1663583054788,3930,3926,3921,3938,0,0,27,,,,,,,0,0,0,-34.00,-22.00,826.00,-188.00,0.00,744.00,6,833.00,0.00,514.51,0.00,0.00,0.00,0,,,100,100,0,2,0,0,0,2,0,,,,,0.0,0.0,0.0,0.0,0.0,0.0,0
55.954268,-4.401838,83.30,0.00,0.00,51.46,83.40,83.40,0.00,51.47,5096,2022-09-19 10:24:14.885,2022-09-19 11:24:14.884,18,0,0,15.715,55.954469,-4.402580,0.00,0.00,0.00,3.40,-2.40,82.50,0,1,0,96,100,-7353,3192,15715,2942.50,11,P-GPS,1,0,0,0,0,0,-660,1663583054884,3930,3926,3921,3938,0,0,27,,,,,,,0,0,0,-34.00,-24.00,825.00,-212.00,0.00,744.00,6,833.00,0.00,514.57,0.00,0.00,0.00,0,,,100,100,0,2,0,0,0,2,0,,,,,0.0,0.0,0.0,0.0,0.0,0.0,0
55.954268,-4.401838,83.30,0.00,0.00,51.46,83.40,83.40,0.00,51.47,5200,2022-09-19 10:24:14.988,2022-09-19 11:24:14.988,18,0,0,15.715,55.954469,-4.402580,0.00,0.00,0.00,3.40,-2.40,82.50,0,1,0,96,100,-7353,3192,15715,2942.50,11,P-GPS,1,0,0,0,0,0,-660,1663583054988,3930,3926,3921,3938,0,0,27,,,,,,,0,0,0,-34.00,-24.00,825.00,-235.00,0.00,744.00,6,833.00,0.00,514.59,0.00,0.00,0.00,0,,,100,100,0,2,0,0,0,2,0,,,,,0.0,0.0,0.0,0.0,0.0,0.0,0
55.954268,-4.401838,83.30,0.00,0.00,51.45,83.40,83.40,0.00,51.47,5316,2022-09-19 10:24:15.105,2022-09-19 11:24:15.104,18,0,0,15.715,55.954469,-4.402580,0.00,0.00,0.00,3.40,-2.40,82.50,0,1,0,96,100,-7353,3192,15715,2942.50,11,P-GPS,1,0,0,0,0,0,-660,1663583055104,3930,3926,3921,3938,0,0,27,,,,,,,0,0,0,-34.00,-24.00,825.00,-259.00,0.00,744.00,6,833.00,0.00,514.48,0.00,0.00,0.00,0,,,100,100,0,2,0,0,0,2,0,,,,,0.0,0.0,0.0,0.0,0.0,0.0,0
55.954268,-4.401838,83.30,0.00,0.00,51.45,83.40,83.40,0.00,51.47,5409,2022-09-19 10:24:15.197,2022-09-19 11:24:15.197,18,0,0,15.715,55.954469,-4.402580,0.00,0.00,0.00,3.50,-2.40,82.50,0,1,0,96,100,-7353,3192,15715,2942.50,11,P-GPS,1,0,0,0,0,0,-660,1663583055197,3930,3926,3921,3938,0,0,27,,,,,,,0,0,0,-35.00,-24.00,825.00,-283.00,0.00,744.00,6,833.00,0.00,514.48,0.00,0.00,0.00,0,,,100,100,0,2,0,0,0,2,0,,,,,0.0,0.0,0.0,0.0,0.0,0.0,0
55.954268,-4.401838,83.30,0.00,0.00,51.45,83.40,83.40,0.00,51.47,5510,2022-09-19 10:24:15.298,2022-09-19 11:24:15.298,18,0,0,15.715,55.954469,-4.402580,0.00,0.00,0.00,3.40,-2.30,82.50,0,1,0,96,100,-7353,3192,15715,2942.50,11,P-GPS,1,0,0,0,0,0,-660,1663583055298,3930,3926,3921,3938,0,0,27,,,,,,,0,0,0,-34.00,-23.00,825.00,-306.00,0.00,744.00,6,833.00,0.00,514.46,0.00,0.00,0.00,0,,,100,100,0,2,0,0,0,2,0,,,,,0.0,0.0,0.0,0.0,0.0,0.0,0
55.954268,-4.401838,83.30,0.00,0.00,51.45,83.40,83.40,0.00,51.47,5598,2022-09-19 10:24:15.387,2022-09-19 11:24:15.386,18,0,0,15.715,55.954469,-4.402580,0.00,0.00,0.00,3.40,-2.20,82.50,0,1,0,96,100,-7353,3192,15715,2942.50,11,P-GPS,1,0,0,0,0,0,-660,1663583055386,3930,3926,3921,3938,0,0,27,,,,,,,0,0,0,-34.00,-22.00,825.00,-330.00,0.00,744.00,6,833.00,0.00,514.46,0.00,0.00,0.00,0,,,100,100,0,2,0,0,0,2,0,,,,,0.0,0.0,0.0,0.0,0.0,0.0,0
55.954268,-4.401838,83.40,0.00,0.00,51.45,83.40,83.40,0.00,51.47,5705,2022-09-19 10:24:15.494,2022-09-19 11:24:15.493,18,0,0,15.715,55.954469,-4.402580,0.00,0.00,0.00,3.60,-2.30,82.50,0,1,0,96,100,-7353,3192,15715,2942.50,11,P-GPS,1,0,0,0,0,0,-660,1663583055493,3930,3926,3921,3938,0,0,27,,,,,,,0,0,0,-36.00,-23.00,825.00,-354.00,0.00,744.00,6,834.00,0.00,514.53,0.00,0.00,0.00,0,,,100,100,0,2,0,0,0,2,0,,,,,0.0,0.0,0.0,0.0,0.0,0.0,0
55.954268,-4.401838,83.40,0.00,0.00,51.45,83.40,83.40,0.00,51.47,5818,2022-09-19 10:24:15.606,2022-09-19 11:24:15.606,18,0,0,15.715,55.954469,-4.402580,0.00,0.00,0.00,3.60,-2.40,82.50,0,1,0,96,100,-7353,3192,15715,2942.50,11,P-GPS,1,0,0,0,0,0,-660,1663583055606,3930,3926,3921,3938,0,0,27,,,,,,,0,0,0,-36.00,-24.00,825.00,-377.00,0.00,744.00,6,834.00,0.00,514.54,0.00,0.00,0.00,0,,,100,100,0,2,0,0,0,2,0,,,,,0.0,0.0,0.0,0.0,0.0,0.0,0
55.954268,-4.401838,83.30,0.00,0.00,51.45,83.40,83.40,0.00,51.47,5907,2022-09-19 10:24:15.695,2022-09-19 11:24:15.695,18,0,0,15.718,55.954469,-4.402580,0.00,0.00,0.00,3.60,-2.50,82.50,0,1,0,96,100,-7390,3190,15718,2943.50,11,P-GPS,1,0,0,0,0,0,-660,1663583055695,3930,3926,3921,3938,0,0,27,,,,,,,0,0,0,-36.00,-25.00,825.00,-401.00,0.00,744.00,6,833.00,0.00,514.52,0.00,0.00,0.00,0,,,100,100,0,2,0,0,0,2,0,,,,,0.0,0.0,0.0,0.0,0.0,0.0,0
55.954268,-4.401838,83.40,0.00,0.00,51.45,83.40,83.40,0.00,51.47,5997,2022-09-19 10:24:15.786,2022-09-19 11:24:15.785,18,0,0,15.718,55.954469,-4.402580,0.00,0.00,0.00,3.50,-2.40,82.50,0,1,0,96,100,-7390,3190,15718,2943.50,11,P-GPS,1,0,0,0,0,0,-660,1663583055785,3930,3926,3921,3938,0,0,27,,,,,,,0,0,0,-35.00,-24.00,825.00,-425.00,0.00,744.00,6,834.00,0.00,514.52,0.00,0.00,0.00,0,,,100,100,0,2,0,0,0,2,0,,,,,0.0,0.0,0.0,0.0,0.0,0.0,0
55.954268,-4.401838,83.40,0.00,0.00,51.45,83.40,83.40,0.00,51.47,6110,2022-09-19 10:24:15.898,2022-09-19 11:24:15.898,18,0,0,15.718,55.954469,-4.402580,0.00,0.00,0.00,3.50,-2.30,82.60,0,1,0,96,100,-7390,3190,15718,2943.50,11,P-GPS,1,0,0,0,0,0,-660,1663583055898,3930,3926,3921,3938,0,0,27,,,,,,,0,0,0,-35.00,-23.00,826.00,-448.00,0.00,744.00,6,834.00,0.00,514.50,0.00,0.00,0.00,0,,,100,100,0,2,0,0,0,2,0,,,,,0.0,0.0,0.0,0.0,0.0,0.0,0
55.954268,-4.401838,83.40,0.00,0.00,51.45,83.40,83.40,0.00,51.47,6196,2022-09-19 10:24:15.984,2022-09-19 11:24:15.984,18,0,0,15.718,55.954469,-4.402580,0.00,0.00,0.00,3.40,-2.20,82.60,0,1,0,96,100,-7390,3190,15718,2943.50,11,P-GPS,1,0,0,0,0,0,-660,1663583055984,3930,3926,3921,3938,0,0,27,,,,,,,0,0,0,-34.00,-22.00,826.00,-472.00,0.00,744.00,6,834.00,0.00,514.50,0.00,0.00,0.00,0,,,100,100,0,2,0,0,0,2,0,,,,,0.0,0.0,0.0,0.0,0.0,0.0,0
55.954268,-4.401838,83.40,0.00,0.00,51.46,83.40,83.40,0.00,51.47,6315,2022-09-19 10:24:16.104,2022-09-19 11:24:16.103,18,0,0,15.718,55.954469,-4.402580,0.00,0.00,0.00,3.30,-2.10,82.60,0,1,0,96,100,-7390,3190,15718,2943.50,11,P-GPS,1,0,0,0,0,0,-660,1663583056103,3930,3926,3921,3938,0,0,27,,,,,,,0,0,0,-33.00,-21.00,826.00,-495.00,0.00,744.00,6,834.00,0.00,514.55,0.00,0.00,0.00,0,,,100,100,0,2,0,0,0,2,0,,,,,0.0,0.0,0.0,0.0,0.0,0.0,0
55.954268,-4.401838,83.40,0.00,0.00,51.46,83.40,83.40,0.00,51.47,6401,2022-09-19 10:24:16.189,2022-09-19 11:24:16.189,18,0,0,15.718,55.954469,-4.402580,0.00,0.00,0.00,3.40,-2.20,82.50,0,1,0,96,100,-7390,3190,15718,2943.50,11,P-GPS,1,0,0,0,0,0,-660,1663583056189,3930,3926,3921,3938,0,0,27,,,,,,,0,0,0,-34.00,-22.00,825.00,-519.00,0.00,744.00,6,834.00,0.00,514.56,0.00,0.00,0.00,0,,,100,100,0,2,0,0,0,2,0,,,,,0.0,0.0,0.0,0.0,0.0,0.0,0
55.954267,-4.401838,83.40,0.00,0.00,51.45,83.40,83.40,0.00,51.47,6494,2022-09-19 10:24:16.283,2022-09-19 11:24:16.282,18,0,0,15.718,55.954469,-4.402580,0.00,0.00,0.00,3.40,-2.30,82.50,0,1,0,96,100,-7390,3190,15718,2943.50,11,P-GPS,1,0,0,0,0,0,-660,1663583056282,3930,3926,3921,3938,0,0,27,,,,,,,0,0,0,-34.00,-23.00,825.00,-543.00,0.00,744.00,6,834.00,0.00,514.54,0.00,0.00,0.00,0,,,100,100,0,2,0,0,0,2,0,,,,,0.0,0.0,0.0,0.0,0.0,0.0,0
55.954267,-4.401838,83.40,0.00,0.00,51.45,83.40,83.40,0.00,51.47,6599,2022-09-19 10:24:16.387,2022-09-19 11:24:16.387,18,0,0,15.718,55.954469,-4.402580,0.00,0.00,0.00,3.30,-2.20,82.50,0,1,0,96,100,-7390,3190,15718,2943.50,11,P-GPS,1,0,0,0,0,0,-660,1663583056387,3930,3926,3921,3938,0,0,27,,,,,,,0,0,0,-33.00,-22.00,825.00,-566.00,0.00,744.00,6,834.00,0.00,514.54,0.00,0.00,0.00,0,,,100,100,0,2,0,0,0,2,0,,,,,0.0,0.0,0.0,0.0,0.0,0.0,0
55.954267,-4.401838,83.40,0.00,0.00,51.46,83.40,83.40,0.00,51.47,6705,2022-09-19 10:24:16.494,2022-09-19 11:24:16.493,18,0,0,15.718,55.954469,-4.402580,0.00,0.00,0.00,3.30,-2.20,82.60,0,1,0,96,100,-7390,3190,15718,2943.50,11,P-GPS,1,0,0,0,0,0,-660,1663583056493,3930,3926,3921,3938,0,0,27,,,,,,,0,0,0,-33.00,-22.00,826.00,-590.00,0.00,744.00,6,834.00,0.00,514.55,0.00,0.00,0.00,0,,,100,100,0,2,0,0,0,2,0,,,,,0.0,0.0,0.0,0.0,0.0,0.0,0
55.954267,-4.401838,83.40,0.00,0.00,51.46,83.40,83.40,0.00,51.47,6805,2022-09-19 10:24:16.594,2022-09-19 11:24:16.593,18,0,0,15.718,55.954469,-4.402580,0.00,0.00,0.00,3.40,-2.30,82.60,0,1,0,96,100,-7390,3190,15718,2943.50,11,P-GPS,1,0,0,0,0,0,-660,1663583056593,3930,3926,3921,3938,0,0,27,,,,,,,0,0,0,-34.00,-23.00,826.00,-614.00,0.00,744.00,6,834.00,0.00,514.56,0.00,0.00,0.00,0,,,100,100,0,2,0,0,0,2,0,,,,,0.0,0.0,0.0,0.0,0.0,0.0,0
55.954267,-4.401838,83.40,0.00,0.00,51.45,83.40,83.40,0.00,51.47,6909,2022-09-19 10:24:16.698,2022-09-19 11:24:16.697,18,0,0,15.727,55.954469,-4.402580,0.00,0.00,0.00,3.60,-2.30,82.50,0,1,0,96,100,-7326,3188,15727,2943.50,11,P-GPS,1,0,0,0,0,0,-660,1663583056697,3930,3926,3921,3938,0,0,27,,,,,,,0,0,0,-36.00,-23.00,825.00,-637.00,0.00,744.00,6,834.00,0.00,514.48,0.00,0.00,0.00,0,,,100,100,0,2,0,0,0,2,0,,,,,0.0,0.0,0.0,0.0,0.0,0.0,0
55.954267,-4.401838,83.40,0.00,0.00,51.45,83.40,83.40,0.00,51.47,6997,2022-09-19 10:24:16.786,2022-09-19 11:24:16.785,18,0,0,15.727,55.954469,-4.402580,0.00,0.00,0.00,3.60,-2.40,82.50,0,1,0,96,100,-7326,3188,15727,2943.50,11,P-GPS,1,0,0,0,0,0,-660,1663583056785,3930,3926,3921,3938,0,0,27,,,,,,,0,0,0,-36.00,-24.00,825.00,-661.00,0.00,744.00,6,834.00,0.00,514.49,0.00,0.00,0.00,0,,,100,100,0,2,0,0,0,2,0,,,,,0.0,0.0,0.0,0.0,0.0,0.0,0
55.954267,-4.401838,83.40,0.00,0.00,51.44,83.40,83.40,0.00,51.47,7115,2022-09-19 10:24:16.903,2022-09-19 11:24:16.903,18,0,0,15.727,55.954469,-4.402580,0.00,0.00,0.00,3.60,-2.30,82.50,0,1,0,96,100,-7326,3188,15727,2943.50,11,P-GPS,1,0,0,0,0,0,-660,1663583056903,3930,3926,3921,3938,0,0,27,,,,,,,0,0,0,-36.00,-23.00,825.00,-685.00,0.00,744.00,6,834.00,0.00,514.41,0.00,0.00,0.00,0,,,100,100,0,2,0,0,0,2,0,,,,,0.0,0.0,0.0,0.0,0.0,0.0,0
55.954268,-4.401838,83.40,0.00,0.00,51.44,83.40,83.40,0.00,51.47,7298,2022-09-19 10:24:17.086,2022-09-19 11:24:17.086,18,0,0,15.727,55.954469,-4.402580,0.00,0.00,0.00,3.30,-2.20,82.50,0,1,0,96,100,-7326,3188,15727,2943.50,11,P-GPS,1,0,0,0,0,0,-660,1663583057086,3930,3926,3921,3938,0,0,27,,,,,,,0,0,0,-33.00,-22.00,825.00,-732.00,0.00,744.00,6,834.00,0.00,514.40,0.00,0.00,0.00,0,,,100,100,0,2,0,0,0,2,0,,,,,0.0,0.0,0.0,0.0,0.0,0.0,0
55.954268,-4.401838,83.40,0.00,0.00,51.44,83.40,83.40,0.00,51.47,7403,2022-09-19 10:24:17.191,2022-09-19 11:24:17.191,18,0,0,15.727,55.954469,-4.402580,0.00,0.00,0.00,3.40,-2.30,82.50,0,1,0,96,100,-7326,3188,15727,2943.50,11,P-GPS,1,0,0,0,0,0,-660,1663583057191,3930,3926,3921,3938,0,0,27,,,,,,,0,0,0,-34.00,-23.00,825.00,-755.00,0.00,744.00,6,834.00,0.00,514.39,0.00,0.00,0.00,0,,,100,100,0,2,0,0,0,2,0,,,,,0.0,0.0,0.0,0.0,0.0,0.0,0
55.954268,-4.401838,83.40,0.00,0.00,51.44,83.40,83.40,0.00,51.47,7499,2022-09-19 10:24:17.288,2022-09-19 11:24:17.287,18,0,0,15.727,55.954469,-4.402580,0.00,0.00,0.00,3.60,-2.50,82.50,0,1,0,96,100,-7326,3188,15727,2943.50,11,P-GPS,1,0,0,0,0,0,-660,1663583057287,3930,3926,3921,3938,0,0,27,,,,,,,0,0,0,-36.00,-25.00,825.00,-779.00,0.00,744.00,6,834.00,0.00,514.40,0.00,0.00,0.00,0,,,100,100,0,2,0,0,0,2,0,,,,,0.0,0.0,0.0,0.0,0.0,0.0,0
55.954268,-4.401838,83.40,0.00,0.00,51.44,83.40,83.40,0.00,51.47,7599,2022-09-19 10:24:17.388,2022-09-19 11:24:17.387,18,0,0,15.727,55.954469,-4.402580,0.00,0.00,0.00,3.70,-2.60,82.60,0,1,0,96,100,-7326,3188,15727,2943.50,11,P-GPS,1,0,0,0,0,0,-660,1663583057387,3930,3926,3921,3938,0,0,27,,,,,,,0,0,0,-37.00,-26.00,826.00,-803.00,0.00,744.00,6,834.00,0.00,514.41,0.00,0.00,0.00,0,,,100,100,0,2,0,0,0,2,0,,,,,0.0,0.0,0.0,0.0,0.0,0.0,0
55.954268,-4.401838,83.40,0.00,0.00,51.43,83.40,83.40,0.00,51.47,7708,2022-09-19 10:24:17.496,2022-09-19 11:24:17.496,18,0,0,15.727,55.954469,-4.402580,0.00,0.00,0.00,3.60,-2.60,82.50,0,1,0,96,100,-7326,3188,15727,2943.50,11,P-GPS,1,0,0,0,0,0,-660,1663583057496,3930,3926,3921,3938,0,0,27,,,,,,,0,0,0,-36.00,-26.00,825.00,-826.00,0.00,744.00,6,834.00,0.00,514.34,0.00,0.00,0.00,0,,,100,100,0,2,0,0,0,2,0,,,,,0.0,0.0,0.0,0.0,0.0,0.0,0
55.954268,-4.401838,83.40,0.00,0.00,51.43,83.40,83.40,0.00,51.47,7799,2022-09-19 10:24:17.587,2022-09-19 11:24:17.587,18,0,0,15.727,55.954469,-4.402580,0.00,0.00,0.00,3.50,-2.60,82.60,0,1,0,96,100,-7326,3188,15727,2943.50,11,P-GPS,1,0,0,0,0,0,-660,1663583057587,3930,3926,3921,3938,0,0,27,,,,,,,0,0,0,-35.00,-26.00,826.00,-850.00,0.00,744.00,6,834.00,0.00,514.32,0.00,0.00,0.00,0,,,100,100,0,2,0,0,0,2,0,,,,,0.0,0.0,0.0,0.0,0.0,0.0,0
55.954267,-4.401838,83.40,0.00,0.00,51.44,83.40,83.40,0.00,51.47,7907,2022-09-19 10:24:17.696,2022-09-19 11:24:17.695,18,0,0,15.739,55.954469,-4.402580,0.00,0.00,0.00,3.50,-2.70,82.60,0,1,0,96,100,-7279,3186,15739,2943.50,11,P-GPS,1,0,0,0,0,0,-660,1663583057695,3930,3926,3921,3938,0,0,27,,,,,,,0,0,0,-35.00,-27.00,826.00,-874.00,0.00,744.00,6,834.00,0.00,514.40,0.00,0.00,0.00,0,,,100,100,0,2,0,0,0,2,0,,,,,0.0,0.0,0.0,0.0,0.0,0.0,0
55.954267,-4.401838,83.40,0.00,0.00,51.44,83.40,83.40,0.00,51.47,7999,2022-09-19 10:24:17.790,2022-09-19 11:24:17.787,18,0,0,15.739,55.954469,-4.402580,0.00,0.00,0.00,3.60,-2.60,82.60,0,1,0,96,100,-7279,3186,15739,2943.50,11,P-GPS,1,0,0,0,0,0,-660,1663583057787,3930,3926,3921,3938,0,0,27,,,,,,,0,0,0,-36.00,-26.00,826.00,-897.00,0.00,744.00,6,834.00,0.00,514.39,0.00,0.00,0.00,0,,,100,100,0,2,0,0,0,2,0,,,,,0.0,0.0,0.0,0.0,0.0,0.0,0
55.954267,-4.401839,83.40,0.00,0.00,51.43,83.40,83.40,0.00,51.47,8102,2022-09-19 10:24:17.890,2022-09-19 11:24:17.890,18,0,0,15.739,55.954469,-4.402580,0.00,0.00,0.00,3.60,-2.50,82.60,0,1,0,96,100,-7279,3186,15739,2943.50,11,P-GPS,1,0,0,0,0,0,-660,1663583057890,3930,3926,3921,3938,0,0,27,,,,,,,0,0,0,-36.00,-25.00,826.00,-899.00,0.00,744.00,6,834.00,0.00,514.29,0.00,0.00,0.00,0,,,100,100,0,2,0,0,0,2,0,,,,,0.0,0.0,0.0,0.0,0.0,0.0,0
55.954267,-4.401839,83.40,0.00,0.00,51.43,83.40,83.40,0.00,51.47,8198,2022-09-19 10:24:17.987,2022-09-19 11:24:17.986,18,0,0,15.739,55.954469,-4.402580,0.00,0.00,0.00,3.60,-2.50,82.60,0,1,0,96,100,-7279,3186,15739,2943.50,11,P-GPS,1,0,0,0,0,0,-660,1663583057986,3930,3926,3921,3938,0,0,27,,,,,,,0,0,0,-36.00,-25.00,826.00,-900.00,0.00,744.00,6,834.00,0.00,514.27,0.00,0.00,0.00,0,,,100,100,0,2,0,0,0,2,0,,,,,0.0,0.0,0.0,0.0,0.0,0.0,0
55.954268,-4.401839,83.40,0.00,0.00,51.43,83.40,83.40,0.00,51.47,8295,2022-09-19 10:24:18.084,2022-09-19 11:24:18.083,18,0,0,15.739,55.954469,-4.402580,0.00,0.00,0.00,3.50,-2.40,82.60,0,1,0,96,100,-7279,3186,15739,2943.50,11,P-GPS,1,0,0,0,0,0,-660,1663583058083,3930,3926,3921,3938,0,0,27,,,,,,,0,0,0,-35.00,-24.00,826.00,-900.00,0.00,744.00,6,834.00,0.00,514.27,0.00,0.00,0.00,0,,,100,100,0,2,0,0,0,2,0,,,,,0.0,0.0,0.0,0.0,0.0,0.0,0
55.954268,-4.401839,83.40,0.00,0.00,51.42,83.40,83.40,0.00,51.47,8398,2022-09-19 10:24:18.186,2022-09-19 11:24:18.186,18,0,0,15.739,55.954469,-4.402580,0.00,0.00,0.00,3.50,-2.20,82.60,0,1,0,96,100,-7279,3186,15739,2943.50,11,P-GPS,1,0,0,0,0,0,-660,1663583058186,3930,3926,3921,3938,0,0,27,,,,,,,0,0,0,-35.00,-22.00,826.00,-900.00,0.00,744.00,6,834.00,0.00,514.24,0.00,0.00,0.00,0,,,100,100,0,2,0,0,0,2,0,,,,,0.0,0.0,0.0,0.0,0.0,0.0,0
55.954268,-4.401839,83.40,0.00,0.00,51.43,83.40,83.40,0.00,51.47,8498,2022-09-19 10:24:18.286,2022-09-19 11:24:18.286,18,0,0,15.739,55.954469,-4.402580,0.00,0.00,0.00,3.40,-2.10,82.60,0,1,0,96,100,-7279,3186,15739,2943.50,11,P-GPS,1,0,0,0,0,0,-660,1663583058286,3930,3926,3921,3938,0,0,27,,,,,,,0,0,0,-34.00,-21.00,826.00,-899.00,0.00,744.00,6,834.00,0.00,514.26,0.00,0.00,0.00,0,,,100,100,0,2,0,0,0,2,0,,,,,0.0,0.0,0.0,0.0,0.0,0.0,0
55.954268,-4.401839,83.40,0.00,0.00,51.42,83.40,83.40,0.00,51.47,8596,2022-09-19 10:24:18.384,2022-09-19 11:24:18.384,18,0,0,15.739,55.954469,-4.402580,0.00,0.00,0.00,3.40,-2.00,82.60,0,1,0,96,100,-7279,3186,15739,2943.50,11,P-GPS,1,0,0,0,0,0,-660,1663583058384,3930,3926,3921,3938,0,0,27,,,,,,,0,0,0,-34.00,-20.00,826.00,-899.00,0.00,744.00,6,834.00,0.00,514.22,0.00,0.00,0.00,0,,,100,100,0,2,0,0,0,2,0,,,,,0.0,0.0,0.0,0.0,0.0,0.0,0
55.954268,-4.401839,83.40,0.00,0.00,51.41,83.40,83.40,0.00,51.47,8695,2022-09-19 10:24:18.483,2022-09-19 11:24:18.483,18,0,0,15.739,55.954469,-4.402580,0.00,0.00,0.00,3.40,-2.00,82.60,0,1,0,96,100,-7279,3186,15739,2943.50,11,P-GPS,1,0,0,0,0,0,-660,1663583058483,3930,3926,3921,3938,0,0,27,,,,,,,0,0,0,-34.00,-20.00,826.00,-899.00,0.00,744.00,6,834.00,0.00,514.11,0.00,0.00,0.00,0,,,100,100,0,2,0,0,0,2,0,,,,,0.0,0.0,0.0,0.0,0.0,0.0,0
55.954268,-4.401839,83.40,0.00,0.00,51.41,83.40,83.40,0.00,51.47,8797,2022-09-19 10:24:18.585,2022-09-19 11:24:18.585,18,0,0,15.739,55.954469,-4.402580,0.00,0.00,0.00,3.40,-1.90,82.60,0,1,0,96,100,-7279,3186,15739,2943.50,11,P-GPS,1,0,0,0,0,0,-660,1663583058585,3930,3926,3921,3938,0,0,27,,,,,,,0,0,0,-34.00,-19.00,826.00,-900.00,0.00,744.00,6,834.00,0.00,514.08,0.00,0.00,0.00,0,,,100,100,0,2,0,0,0,2,0,,,,,0.0,0.0,0.0,0.0,0.0,0.0,0
55.954268,-4.401839,83.40,0.00,0.00,51.41,83.40,83.40,0.00,51.47,8887,2022-09-19 10:24:18.676,2022-09-19 11:24:18.675,18,0,0,15.732,55.954469,-4.402580,0.00,0.00,0.00,3.40,-1.90,82.60,0,1,0,96,100,-7302,3184,15732,2944.50,11,P-GPS,1,0,0,0,0,0,0,1663583058675,3930,3926,3921,3938,0,0,27,,,,,,,0,0,0,-34.00,-19.00,826.00,-899.00,0.00,744.00,6,834.00,0.00,514.08,0.00,0.00,0.00,0,,,100,100,0,2,0,0,0,2,0,,,,,0.0,0.0,0.0,0.0,0.0,0.0,0
55.954268,-4.401839,83.40,0.00,0.00,51.41,83.40,83.40,0.00,51.47,9003,2022-09-19 10:24:18.791,2022-09-19 11:24:18.791,18,0,0,15.732,55.954469,-4.402580,0.00,0.00,0.00,3.40,-2.00,82.50,0,1,0,96,100,-7302,3184,15732,2944.50,11,P-GPS,1,0,0,0,0,0,0,1663583058791,3930,3926,3921,3938,0,0,27,,,,,,,0,0,0,-34.00,-20.00,825.00,-899.00,0.00,744.00,6,834.00,0.00,514.14,0.00,0.00,0.00,0,,,100,100,0,2,0,0,0,2,0,,,,,0.0,0.0,0.0,0.0,0.0,0.0,0
55.954268,-4.401839,83.40,0.00,0.00,51.41,83.40,83.40,0.00,51.47,9099,2022-09-19 10:24:18.891,2022-09-19 11:24:18.887,18,0,0,15.732,55.954469,-4.402580,0.00,0.00,0.00,3.40,-2.10,82.50,0,1,0,96,100,-7302,3184,15732,2944.50,11,P-GPS,1,0,0,0,0,0,0,1663583058887,3930,3926,3921,3938,0,0,27,,,,,,,0,0,0,-34.00,-21.00,825.00,-899.00,0.00,744.00,6,834.00,0.00,514.14,0.00,0.00,0.00,0,,,100,100,0,2,0,0,0,2,0,,,,,0.0,0.0,0.0,0.0,0.0,0.0,0
55.954268,-4.401839,83.40,0.00,0.00,51.41,83.40,83.40,0.00,51.47,9199,2022-09-19 10:24:18.987,2022-09-19 11:24:18.987,18,0,0,15.732,55.954469,-4.402580,0.00,0.00,0.00,3.40,-2.10,82.50,0,1,0,96,100,-7302,3184,15732,2944.50,11,P-GPS,1,0,0,0,0,0,-71,1663583058987,3930,3926,3921,3938,0,0,27,,,,,,,0,0,0,-34.00,-21.00,825.00,-899.00,0.00,744.00,6,834.00,0.00,514.12,0.00,0.00,0.00,0,,,100,100,0,2,0,0,0,2,0,,,,,0.0,0.0,0.0,0.0,0.0,0.0,0
55.954268,-4.401838,83.40,0.00,0.00,51.42,83.40,83.40,0.00,51.47,9295,2022-09-19 10:24:19.083,2022-09-19 11:24:19.083,18,0,0,15.732,55.954469,-4.402580,0.00,0.00,0.00,3.40,-2.10,82.50,0,1,0,96,100,-7302,3184,15732,2944.50,11,P-GPS,1,0,0,0,0,0,-417,1663583059083,3930,3926,3921,3938,0,0,27,,,,,,,0,0,0,-34.00,-21.00,825.00,-900.00,0.00,744.00,6,834.00,0.00,514.19,0.00,0.00,0.00,0,,,100,100,0,2,0,0,0,2,0,,,,,0.0,0.0,0.0,0.0,0.0,0.0,0
55.954268,-4.401838,83.40,0.00,0.00,51.42,83.40,83.40,0.00,51.47,9406,2022-09-19 10:24:19.194,2022-09-19 11:24:19.194,18,0,0,15.732,55.954469,-4.402580,0.00,0.00,0.00,3.40,-2.10,82.60,0,1,0,96,100,-7302,3184,15732,2944.50,11,P-GPS,1,0,0,0,0,0,-660,1663583059194,3930,3926,3921,3938,0,0,27,,,,,,,0,0,0,-34.00,-21.00,826.00,-899.00,0.00,744.00,6,834.00,0.00,514.19,0.00,0.00,0.00,0,,,100,100,0,2,0,0,0,2,0,,,,,0.0,0.0,0.0,0.0,0.0,0.0,0
55.954268,-4.401838,83.40,0.00,0.00,51.42,83.40,83.40,0.00,51.47,9508,2022-09-19 10:24:19.296,2022-09-19 11:24:19.296,18,0,0,15.732,55.954469,-4.402580,0.00,0.00,0.00,3.50,-2.20,82.60,0,1,0,96,100,-7302,3184,15732,2944.50,11,P-GPS,1,0,0,0,0,0,-660,1663583059296,3930,3926,3921,3938,0,0,27,,,,,,,0,0,0,-35.00,-22.00,826.00,-899.00,0.00,744.00,6,834.00,0.00,514.16,0.00,0.00,0.00,0,,,100,100,0,2,0,0,0,2,0,,,,,0.0,0.0,0.0,0.0,0.0,0.0,0
55.954268,-4.401838,83.40,0.00,0.00,51.42,83.40,83.40,0.00,51.47,9595,2022-09-19 10:24:19.383,2022-09-19 11:24:19.383,18,0,0,15.732,55.954469,-4.402580,0.00,0.00,0.00,3.50,-2.20,82.60,0,1,0,96,100,-7302,3184,15732,2944.50,11,P-GPS,1,0,0,0,0,0,-355,1663583059383,3930,3926,3921,3938,0,0,27,,,,,,,0,0,0,-35.00,-22.00,826.00,-899.00,0.00,744.00,6,834.00,0.00,514.16,0.00,0.00,0.00,0,,,100,100,0,2,0,0,0,2,0,,,,,0.0,0.0,0.0,0.0,0.0,0.0,0
55.954268,-4.401838,83.40,0.00,0.00,51.43,83.40,83.40,0.00,51.47,9705,2022-09-19 10:24:19.494,2022-09-19 11:24:19.493,18,0,0,15.732,55.954469,-4.402580,0.00,0.00,0.00,3.50,-2.20,82.60,0,1,0,96,100,-7302,3184,15732,2944.50,11,P-GPS,1,0,0,0,0,0,0,1663583059493,3930,3926,3921,3938,0,0,27,,,,,,,0,0,0,-35.00,-22.00,826.00,-899.00,0.00,744.00,6,834.00,0.00,514.27,0.00,0.00,0.00,0,,,100,100,0,2,0,0,0,2,0,,,,,0.0,0.0,0.0,0.0,0.0,0.0,0
55.954268,-4.401838,83.40,0.00,0.00,51.43,83.40,83.40,0.00,51.47,9798,2022-09-19 10:24:19.586,2022-09-19 11:24:19.586,18,0,0,15.732,55.954469,-4.402580,0.00,0.00,0.00,3.50,-2.20,82.60,0,1,0,96,100,-7302,3184,15732,2944.50,11,P-GPS,1,0,0,0,0,0,0,1663583059586,3930,3926,3921,3938,0,0,27,,,,,,,0,0,0,-35.00,-22.00,826.00,-899.00,0.00,744.00,6,834.00,0.00,514.28,0.00,0.00,0.00,0,,,100,100,0,2,0,0,0,2,0,,,,,0.0,0.0,0.0,0.0,0.0,0.0,0
55.954268,-4.401838,83.40,0.00,0.00,51.43,83.40,83.40,0.00,51.47,9912,2022-09-19 10:24:19.701,2022-09-19 11:24:19.700,18,0,0,15.717,55.954469,-4.402580,0.00,0.00,0.00,3.50,-2.00,82.50,0,1,0,96,100,-7373,3182,15717,2944.50,11,P-GPS,1,0,0,0,0,0,0,1663583059700,3930,3926,3921,3938,0,0,27,,,,,,,0,0,0,-35.00,-20.00,825.00,-900.00,0.00,744.00,6,834.00,0.00,514.28,0.00,0.00,0.00,0,,,100,100,0,2,0,0,0,2,0,,,,,0.0,0.0,0.0,0.0,0.0,0.0,0
55.954268,-4.401838,83.40,0.00,0.00,51.43,83.40,83.40,0.00,51.47,10003,2022-09-19 10:24:19.792,2022-09-19 11:24:19.791,18,0,0,15.717,55.954469,-4.402580,0.00,0.00,0.00,3.50,-1.90,82.50,0,1,0,96,100,-7373,3182,15717,2944.50,11,P-GPS,1,0,0,0,0,0,-11,1663583059791,3930,3926,3921,3938,0,0,27,,,,,,,0,0,0,-35.00,-19.00,825.00,-899.00,0.00,744.00,6,834.00,0.00,514.29,0.00,0.00,0.00,0,,,100,100,0,2,0,0,0,2,0,,,,,0.0,0.0,0.0,0.0,0.0,0.0,0
55.954268,-4.401838,83.40,0.00,0.00,51.43,83.40,83.40,0.00,51.47,10101,2022-09-19 10:24:19.889,2022-09-19 11:24:19.889,18,0,0,15.717,55.954469,-4.402580,0.00,0.00,0.00,3.50,-1.80,82.50,0,1,0,96,100,-7373,3182,15717,2944.50,11,P-GPS,1,0,0,0,0,0,-379,1663583059889,3930,3926,3921,3938,0,0,27,,,,,,,0,0,0,-35.00,-18.00,825.00,-899.00,0.00,744.00,6,834.00,0.00,514.29,0.00,0.00,0.00,0,,,100,100,0,2,0,0,0,2,0,,,,,0.0,0.0,0.0,0.0,0.0,0.0,0
55.954268,-4.401838,83.40,0.00,0.00,51.43,83.40,83.40,0.00,51.47,10204,2022-09-19 10:24:19.994,2022-09-19 11:24:19.992,18,0,0,15.717,55.954469,-4.402580,0.00,0.00,0.00,3.50,-1.90,82.50,0,1,0,96,100,-7373,3182,15717,2944.50,11,P-GPS,1,0,0,0,0,0,-599,1663583059992,3930,3926,3921,3938,0,0,27,,,,,,,0,0,0,-35.00,-19.00,825.00,-899.00,0.00,744.00,6,834.00,0.00,514.31,0.00,0.00,0.00,0,,,100,100,0,2,0,0,0,2,0,,,,,0.0,0.0,0.0,0.0,0.0,0.0,0
55.954268,-4.401838,83.40,0.00,0.00,51.42,83.40,83.40,0.00,51.47,10300,2022-09-19 10:24:20.088,2022-09-19 11:24:20.088,18,0,0,15.717,55.954469,-4.402580,0.00,0.00,0.00,3.50,-2.10,82.50,0,1,0,96,100,-7373,3182,15717,2944.50,11,P-GPS,1,0,0,0,0,0,-660,1663583060088,3930,3926,3921,3938,0,0,27,,,,,,,0,0,0,-35.00,-21.00,825.00,-900.00,0.00,744.00,6,834.00,0.00,514.23,0.00,0.00,0.00,0,,,100,100,0,2,0,0,0,2,0,,,,,0.0,0.0,0.0,0.0,0.0,0.0,0
55.954269,-4.401838,83.40,0.00,0.00,51.42,83.40,83.40,0.00,51.47,10407,2022-09-19 10:24:20.195,2022-09-19 11:24:20.195,18,0,0,15.717,55.954469,-4.402580,0.00,0.00,0.00,3.60,-2.00,82.50,0,1,0,96,100,-7373,3182,15717,2944.50,11,P-GPS,1,0,0,0,0,0,-660,1663583060195,3930,3926,3921,3938,0,0,27,,,,,,,0,0,0,-36.00,-20.00,825.00,-899.00,0.00,744.00,6,834.00,0.00,514.24,0.00,0.00,0.00,0,,,100,100,0,2,0,0,0,2,0,,,,,0.0,0.0,0.0,0.0,0.0,0.0,0
55.954269,-4.401838,83.40,0.00,0.00,51.43,83.40,83.40,0.00,51.47,10503,2022-09-19 10:24:20.291,2022-09-19 11:24:20.291,18,0,0,15.717,55.954469,-4.402580,0.00,0.00,0.00,3.50,-2.20,82.50,0,1,0,96,100,-7373,3182,15717,2944.50,11,P-GPS,1,0,0,0,0,0,-660,1663583060291,3930,3926,3921,3938,0,0,27,,,,,,,0,0,0,-35.00,-22.00,825.00,-899.00,0.00,744.00,6,834.00,0.00,514.26,0.00,0.00,0.00,0,,,100,100,0,2,0,0,0,2,0,,,,,0.0,0.0,0.0,0.0,0.0,0.0,0
55.954269,-4.401838,83.40,0.00,0.00,51.43,83.40,83.40,0.00,51.47,10606,2022-09-19 10:24:20.395,2022-09-19 11:24:20.394,18,0,0,15.717,55.954469,-4.402580,0.00,0.00,0.00,3.40,-2.30,82.60,0,1,0,96,100,-7373,3182,15717,2944.50,11,P-GPS,1,0,0,0,0,0,-660,1663583060394,3930,3926,3921,3938,0,0,27,,,,,,,0,0,0,-34.00,-23.00,826.00,-900.00,0.00,744.00,6,834.00,0.00,514.27,0.00,0.00,0.00,0,,,100,100,0,2,0,0,0,2,0,,,,,0.0,0.0,0.0,0.0,0.0,0.0,0
55.954269,-4.401838,83.50,0.00,0.00,51.43,83.50,83.50,0.00,51.47,10695,2022-09-19 10:24:20.483,2022-09-19 11:24:20.483,18,0,0,15.717,55.954469,-4.402580,0.00,0.00,0.00,3.40,-2.30,82.60,0,1,0,96,100,-7373,3182,15717,2944.50,11,P-GPS,1,0,0,0,0,0,-37,1663583060483,3930,3926,3921,3938,0,0,27,,,,,,,0,0,0,-34.00,-23.00,826.00,-900.00,0.00,744.00,6,835.00,0.00,514.26,0.00,0.00,0.00,0,,,100,100,0,2,0,0,0,2,0,,,,,0.0,0.0,0.0,0.0,0.0,0.0,0
55.954269,-4.401837,83.50,0.00,0.00,51.43,83.50,83.50,0.00,51.47,10797,2022-09-19 10:24:20.585,2022-09-19 11:24:20.585,18,0,0,15.717,55.954469,-4.402580,0.00,0.00,0.00,3.50,-2.20,82.50,0,1,0,96,100,-7373,3182,15717,2944.50,11,P-GPS,1,0,0,0,0,0,0,1663583060585,3930,3926,3921,3938,0,0,27,,,,,,,0,0,0,-35.00,-22.00,825.00,-899.00,0.00,744.00,6,835.00,0.00,514.28,0.00,0.00,0.00,0,,,100,100,0,2,0,0,0,2,0,,,,,0.0,0.0,0.0,0.0,0.0,0.0,0
55.954269,-4.401838,83.50,0.00,0.00,51.43,83.50,83.50,0.00,51.47,10903,2022-09-19 10:24:20.691,2022-09-19 11:24:20.691,18,0,0,15.718,55.954469,-4.402580,0.00,0.00,0.00,3.50,-2.10,82.50,0,1,0,96,100,-7386,3180,15718,2945.50,11,P-GPS,1,0,0,0,0,0,0,1663583060691,3930,3926,3921,3938,0,0,27,,,,,,,0,0,0,-35.00,-21.00,825.00,-900.00,0.00,744.00,6,835.00,0.00,514.25,0.00,0.00,0.00,0,,,100,100,0,2,0,0,0,2,0,,,,,0.0,0.0,0.0,0.0,0.0,0.0,0
55.954269,-4.401838,83.40,0.00,0.00,51.43,83.50,83.50,0.00,51.47,11011,2022-09-19 10:24:20.799,2022-09-19 11:24:20.799,18,0,0,15.718,55.954469,-4.402580,0.00,0.00,0.00,3.50,-2.10,82.60,0,1,0,96,100,-7386,3180,15718,2945.50,11,P-GPS,1,0,0,0,0,0,0,1663583060799,3930,3926,3921,3938,0,0,27,,,,,,,0,0,0,-35.00,-21.00,826.00,-899.00,0.00,744.00,6,834.00,0.00,514.26,0.00,0.00,0.00,0,,,100,100,0,2,0,0,0,2,0,,,,,0.0,0.0,0.0,0.0,0.0,0.0,0
55.954269,-4.401837,83.40,0.00,0.00,51.43,83.50,83.50,0.00,51.47,11107,2022-09-19 10:24:20.896,2022-09-19 11:24:20.895,18,0,0,15.718,55.954469,-4.402580,0.00,0.00,0.00,3.50,-2.00,82.60,0,1,0,96,100,-7386,3180,15718,2945.50,11,P-GPS,1,0,0,0,0,0,-72,1663583060895,3930,3926,3921,3938,0,0,27,,,,,,,0,0,0,-35.00,-20.00,826.00,-900.00,0.00,744.00,6,834.00,0.00,514.33,0.00,0.00,0.00,0,,,100,100,0,2,0,0,0,2,0,,,,,0.0,0.0,0.0,0.0,0.0,0.0,0
55.954269,-4.401837,83.40,0.00,0.00,51.43,83.50,83.50,0.00,51.47,11203,2022-09-19 10:24:20.991,2022-09-19 11:24:20.991,18,0,0,15.718,55.954469,-4.402580,0.00,0.00,0.00,3.50,-2.00,82.60,0,1,0,96,100,-7386,3180,15718,2945.50,11,P-GPS,1,0,0,0,0,0,-398,1663583060991,3930,3926,3921,3938,0,0,27,,,,,,,0,0,0,-35.00,-20.00,826.00,-899.00,0.00,744.00,6,834.00,0.00,514.34,0.00,0.00,0.00,0,,,100,100,0,2,0,0,0,2,0,,,,,0.0,0.0,0.0,0.0,0.0,0.0,0
55.954269,-4.401838,83.40,0.00,0.00,51.42,83.50,83.50,0.00,51.47,11297,2022-09-19 10:24:21.085,2022-09-19 11:24:21.085,18,0,0,15.718,55.954469,-4.402580,0.00,0.00,0.00,3.40,-1.90,82.50,0,1,0,96,100,-7386,3180,15718,2945.50,11,P-GPS,1,0,0,0,0,0,-660,1663583061085,3930,3926,3921,3938,0,0,27,,,,,,,0,0,0,-34.00,-19.00,825.00,-900.00,0.00,744.00,6,834.00,0.00,514.24,0.00,0.00,0.00,0,,,100,100,0,2,0,0,0,2,0,,,,,0.0,0.0,0.0,0.0,0.0,0.0,0
55.954269,-4.401837,83.40,0.00,0.00,51.42,83.50,83.50,0.00,51.47,11397,2022-09-19 10:24:21.185,2022-09-19 11:24:21.185,18,0,0,15.718,55.954469,-4.402580,0.00,0.00,0.00,3.40,-1.80,82.50,0,1,0,96,100,-7386,3180,15718,2945.50,11,P-GPS,1,0,0,0,0,0,-660,1663583061185,3930,3926,3921,3938,0,0,27,,,,,,,0,0,0,-34.00,-18.00,825.00,-900.00,0.00,744.00,6,834.00,0.00,514.25,0.00,0.00,0.00,0,,,100,100,0,2,0,0,0,2,0,,,,,0.0,0.0,0.0,0.0,0.0,0.0,0
55.954269,-4.401838,83.40,0.00,0.00,51.42,83.50,83.50,0.00,51.47,11496,2022-09-19 10:24:21.285,2022-09-19 11:24:21.284,18,0,0,15.718,55.954469,-4.402580,0.00,0.00,0.00,3.50,-1.80,82.50,0,1,0,96,100,-7386,3180,15718,2945.50,11,P-GPS,1,0,0,0,0,0,-660,1663583061284,3930,3926,3921,3938,0,0,27,,,,,,,0,0,0,-35.00,-18.00,825.00,-899.00,0.00,744.00,6,834.00,0.00,514.24,0.00,0.00,0.00,0,,,100,100,0,2,0,0,0,2,0,,,,,0.0,0.0,0.0,0.0,0.0,0.0,0
55.954269,-4.401838,83.40,0.00,0.00,51.42,83.50,83.50,0.00,51.47,11599,2022-09-19 10:24:21.388,2022-09-19 11:24:21.387,18,0,0,15.718,55.954469,-4.402580,0.00,0.00,0.00,3.50,-1.90,82.60,0,1,0,96,100,-7386,3180,15718,2945.50,11,P-GPS,1,0,0,0,0,0,-660,1663583061387,3930,3926,3921,3938,0,0,27,,,,,,,0,0,0,-35.00,-19.00,826.00,-900.00,0.00,744.00,6,834.00,0.00,514.25,0.00,0.00,0.00,0,,,100,100,0,2,0,0,0,2,0,,,,,0.0,0.0,0.0,0.0,0.0,0.0,0
55.954269,-4.401838,83.40,0.00,0.00,51.43,83.50,83.50,0.00,51.47,11703,2022-09-19 10:24:21.492,2022-09-19 11:24:21.491,18,0,0,15.718,55.954469,-4.402580,0.00,0.00,0.00,3.50,-2.00,82.60,0,1,0,96,100,-7386,3180,15718,2945.50,11,P-GPS,1,0,0,0,0,0,-623,1663583061491,3930,3926,3921,3938,0,0,27,,,,,,,0,0,0,-35.00,-20.00,826.00,-899.00,0.00,744.00,6,834.00,0.00,514.25,0.00,0.00,0.00,0,,,100,100,0,2,0,0,0,2,0,,,,,0.0,0.0,0.0,0.0,0.0,0.0,0
55.954269,-4.401838,83.40,0.00,0.00,51.43,83.50,83.50,0.00,51.47,11794,2022-09-19 10:24:21.583,2022-09-19 11:24:21.582,18,0,0,15.718,55.954469,-4.402580,0.00,0.00,0.00,3.40,-2.10,82.60,0,1,0,96,100,-7386,3180,15718,2945.50,11,P-GPS,1,0,0,0,0,0,0,1663583061582,3930,3926,3921,3938,0,0,27,,,,,,,0,0,0,-34.00,-21.00,826.00,-899.00,0.00,744.00,6,834.00,0.00,514.26,0.00,0.00,0.00,0,,,100,100,0,2,0,0,0,2,0,,,,,0.0,0.0,0.0,0.0,0.0,0.0,0
55.954269,-4.401838,83.40,0.00,0.00,51.42,83.50,83.50,0.00,51.47,11907,2022-09-19 10:24:21.695,2022-09-19 11:24:21.695,18,0,0,15.733,55.954469,-4.402580,0.00,0.00,0.00,3.40,-2.10,82.50,0,1,0,96,100,-7353,3178,15733,2946.50,11,P-GPS,1,0,0,0,0,0,0,1663583061695,3930,3926,3921,3938,0,0,27,,,,,,,0,0,0,-34.00,-21.00,825.00,-900.00,0.00,744.00,6,834.00,0.00,514.19,0.00,0.00,0.00,0,,,100,100,0,2,0,0,0,2,0,,,,,0.0,0.0,0.0,0.0,0.0,0.0,0
55.954269,-4.401838,83.40,0.00,0.00,51.42,83.50,83.50,0.00,51.47,12013,2022-09-19 10:24:21.801,2022-09-19 11:24:21.801,18,0,0,15.733,55.954469,-4.402580,0.00,0.00,0.00,3.40,-2.20,82.50,0,1,0,96,100,-7353,3178,15733,2946.50,11,P-GPS,1,0,0,0,0,0,0,1663583061801,3930,3926,3921,3938,0,0,27,,,,,,,0,0,0,-34.00,-22.00,825.00,-899.00,0.00,744.00,6,834.00,0.00,514.19,0.00,0.00,0.00,0,,,100,100,0,2,0,0,0,2,0,,,,,0.0,0.0,0.0,0.0,0.0,0.0,0
55.954269,-4.401838,83.40,0.00,0.00,51.42,83.50,83.50,0.00,51.47,12113,2022-09-19 10:24:21.901,2022-09-19 11:24:21.901,18,0,0,15.733,55.954469,-4.402580,0.00,0.00,0.00,3.40,-2.10,82.50,0,1,0,96,100,-7353,3178,15733,2946.50,11,P-GPS,1,0,0,0,0,0,0,1663583061901,3930,3926,3921,3938,0,0,27,,,,,,,0,0,0,-34.00,-21.00,825.00,-900.00,0.00,744.00,6,834.00,0.00,514.18,0.00,0.00,0.00,0,,,100,100,0,2,0,0,0,2,0,,,,,0.0,0.0,0.0,0.0,0.0,0.0,0
55.954269,-4.401838,83.50,0.00,0.00,51.42,83.50,83.50,0.00,51.47,12294,2022-09-19 10:24:22.082,2022-09-19 11:24:22.082,18,0,0,15.733,55.954469,-4.402580,0.00,0.00,0.00,3.20,-2.20,82.50,0,1,0,96,100,-7353,3178,15733,2946.50,11,P-GPS,1,0,0,0,0,0,0,1663583062082,3930,3926,3921,3938,0,0,27,,,,,,,0,0,0,-32.00,-22.00,825.00,-900.00,0.00,744.00,6,835.00,0.00,514.18,0.00,0.00,0.00,0,,,100,100,0,2,0,0,0,2,0,,,,,0.0,0.0,0.0,0.0,0.0,0.0,0
55.954269,-4.401838,83.50,0.00,0.00,51.42,83.50,83.50,0.00,51.47,12400,2022-09-19 10:24:22.188,2022-09-19 11:24:22.188,18,0,0,15.733,55.954469,-4.402580,0.00,0.00,0.00,3.20,-2.20,82.50,0,1,0,96,100,-7353,3178,15733,2946.50,11,P-GPS,1,0,0,0,0,0,0,1663583062188,3930,3926,3921,3938,0,0,27,,,,,,,0,0,0,-32.00,-22.00,825.00,-900.00,0.00,744.00,6,835.00,0.00,514.18,0.00,0.00,0.00,0,,,100,100,0,2,0,0,0,2,0,,,,,0.0,0.0,0.0,0.0,0.0,0.0,0
55.954269,-4.401838,83.40,0.00,0.00,51.41,83.50,83.50,0.00,51.47,12508,2022-09-19 10:24:22.297,2022-09-19 11:24:22.296,18,0,0,15.733,55.954469,-4.402580,0.00,0.00,0.00,3.10,-2.20,82.50,0,1,0,96,100,-7353,3178,15733,2946.50,11,P-GPS,1,0,0,0,0,0,0,1663583062296,3930,3926,3921,3938,0,0,27,,,,,,,0,0,0,-31.00,-22.00,825.00,-900.00,0.00,744.00,6,834.00,0.00,514.10,0.00,0.00,0.00,0,,,100,100,0,2,0,0,0,2,0,,,,,0.0,0.0,0.0,0.0,0.0,0.0,0
55.954269,-4.401838,83.50,0.00,0.00,51.41,83.50,83.50,0.00,51.47,12597,2022-09-19 10:24:22.386,2022-09-19 11:24:22.385,18,0,0,15.733,55.954469,-4.402580,0.00,0.00,0.00,3.10,-2.20,82.50,0,1,0,96,100,-7353,3178,15733,2946.50,11,P-GPS,1,0,0,0,0,0,0,1663583062385,3930,3926,3921,3938,0,0,27,,,,,,,0,0,0,-31.00,-22.00,825.00,-900.00,0.00,744.00,6,835.00,0.00,514.10,0.00,0.00,0.00,0,,,100,100,0,2,0,0,0,2,0,,,,,0.0,0.0,0.0,0.0,0.0,0.0,0
55.954269,-4.401838,83.50,0.00,0.00,51.41,83.50,83.50,0.00,51.47,12711,2022-09-19 10:24:22.499,2022-09-19 11:24:22.499,18,0,0,15.733,55.954469,-4.402580,0.00,0.00,0.00,3.10,-2.40,82.50,0,1,0,96,100,-7353,3178,15733,2946.50,11,P-GPS,1,0,0,0,0,0,0,1663583062499,3930,3926,3921,3938,0,0,27,,,,,,,0,0,0,-31.00,-24.00,825.00,-900.00,0.00,744.00,6,835.00,0.00,514.12,0.00,0.00,0.00,0,,,100,100,0,2,0,0,0,2,0,,,,,0.0,0.0,0.0,0.0,0.0,0.0,0
55.954269,-4.401838,83.50,0.00,0.00,51.41,83.50,83.50,0.00,51.47,12802,2022-09-19 10:24:22.590,2022-09-19 11:24:22.590,18,0,0,15.733,55.954469,-4.402580,0.00,0.00,0.00,3.20,-2.50,82.50,0,1,0,96,100,-7353,3178,15733,2946.50,11,P-GPS,1,0,0,0,0,0,0,1663583062590,3930,3926,3921,3938,0,0,27,,,,,,,0,0,0,-32.00,-25.00,825.00,-900.00,0.00,744.00,6,835.00,0.00,514.14,0.00,0.00,0.00,0,,,100,100,0,2,0,0,0,2,0,,,,,0.0,0.0,0.0,0.0,0.0,0.0,0
55.954269,-4.401838,83.50,0.00,0.00,51.42,83.50,83.50,0.00,51.47,12903,2022-09-19 10:24:22.692,2022-09-19 11:24:22.691,18,0,0,15.728,55.954469,-4.402580,0.00,0.00,0.00,3.20,-2.40,82.60,0,1,0,96,100,-7385,3176,15728,2946.50,11,P-GPS,1,0,0,0,0,0,0,1663583062691,3930,3926,3921,3938,0,0,27,,,,,,,0,0,0,-32.00,-24.00,826.00,-900.00,0.00,744.00,6,835.00,0.00,514.15,0.00,0.00,0.00,0,,,100,100,0,2,0,0,0,2,0,,,,,0.0,0.0,0.0,0.0,0.0,0.0,0
55.954269,-4.401838,83.50,0.00,0.00,51.42,83.50,83.50,0.00,51.47,12994,2022-09-19 10:24:22.783,2022-09-19 11:24:22.782,18,0,0,15.728,55.954469,-4.402580,0.00,0.00,0.00,3.40,-2.40,82.60,0,1,0,96,100,-7385,3176,15728,2946.50,11,P-GPS,1,0,0,0,0,0,0,1663583062782,3930,3926,3921,3938,0,0,27,,,,,,,0,0,0,-34.00,-24.00,826.00,-899.00,0.00,744.00,6,835.00,0.00,514.18,0.00,0.00,0.00,0,,,100,100,0,2,0,0,0,2,0,,,,,0.0,0.0,0.0,0.0,0.0,0.0,0
55.954269,-4.401838,83.50,0.00,0.00,51.42,83.50,83.50,0.00,51.47,13104,2022-09-19 10:24:22.892,2022-09-19 11:24:22.892,18,0,0,15.728,55.954469,-4.402580,0.00,0.00,0.00,3.50,-2.40,82.60,0,1,0,96,100,-7385,3176,15728,2946.50,11,P-GPS,1,0,0,0,0,0,0,1663583062892,3930,3926,3921,3938,0,0,27,,,,,,,0,0,0,-35.00,-24.00,826.00,-899.00,0.00,744.00,6,835.00,0.00,514.18,0.00,0.00,0.00,0,,,100,100,0,2,0,0,0,2,0,,,,,0.0,0.0,0.0,0.0,0.0,0.0,0
55.954269,-4.401838,83.50,0.00,0.00,51.42,83.50,83.50,0.00,51.47,13196,2022-09-19 10:24:22.985,2022-09-19 11:24:22.984,18,0,0,15.728,55.954469,-4.402580,0.00,0.00,0.00,3.60,-2.30,82.60,0,1,0,96,100,-7385,3176,15728,2946.50,11,P-GPS,1,0,0,0,0,0,0,1663583062984,3930,3926,3921,3938,0,0,27,,,,,,,0,0,0,-36.00,-23.00,826.00,-900.00,0.00,744.00,6,835.00,0.00,514.20,0.00,0.00,0.00,0,,,100,100,0,2,0,0,0,2,0,,,,,0.0,0.0,0.0,0.0,0.0,0.0,0
55.954269,-4.401838,83.50,0.00,0.00,51.42,83.50,83.50,0.00,51.47,13305,2022-09-19 10:24:23.094,2022-09-19 11:24:23.093,18,0,0,15.728,55.954469,-4.402580,0.00,0.00,0.00,3.60,-2.30,82.60,0,1,0,96,100,-7385,3176,15728,2946.50,11,P-GPS,1,0,0,0,0,0,0,1663583063093,3930,3926,3921,3938,0,0,27,,,,,,,0,0,0,-36.00,-23.00,826.00,-899.00,0.00,744.00,6,835.00,0.00,514.19,0.00,0.00,0.00,0,,,100,100,0,2,0,0,0,2,0,,,,,0.0,0.0,0.0,0.0,0.0,0.0,0
55.954269,-4.401838,83.50,0.00,0.00,51.42,83.50,83.50,0.00,51.47,13401,2022-09-19 10:24:23.190,2022-09-19 11:24:23.189,18,0,0,15.728,55.954469,-4.402580,0.00,0.00,0.00,3.80,-2.20,82.60,0,1,0,96,100,-7385,3176,15728,2946.50,11,P-GPS,1,0,0,0,0,0,0,1663583063189,3930,3926,3921,3938,0,0,27,,,,,,,0,0,0,-38.00,-22.00,826.00,-899.00,0.00,744.00,6,835.00,0.00,514.21,0.00,0.00,0.00,0,,,100,100,0,2,0,0,0,2,0,,,,,0.0,0.0,0.0,0.0,0.0,0.0,0
55.954269,-4.401838,83.50,0.00,0.00,51.43,83.50,83.50,0.00,51.47,13500,2022-09-19 10:24:23.288,2022-09-19 11:24:23.288,18,0,0,15.728,55.954469,-4.402580,0.00,0.00,0.00,3.90,-2.20,82.60,0,1,0,96,100,-7385,3176,15728,2946.50,11,P-GPS,1,0,0,0,0,0,0,1663583063288,3930,3926,3921,3938,0,0,27,,,,,,,0,0,0,-39.00,-22.00,826.00,-899.00,0.00,744.00,6,835.00,0.00,514.26,0.00,0.00,0.00,0,,,100,100,0,2,0,0,0,2,0,,,,,0.0,0.0,0.0,0.0,0.0,0.0,0
55.954269,-4.401837,83.50,0.00,0.00,51.43,83.50,83.50,0.00,51.47,13598,2022-09-19 10:24:23.387,2022-09-19 11:24:23.386,18,0,0,15.728,55.954469,-4.402580,0.00,0.00,0.00,4.00,-2.30,82.60,0,1,0,96,100,-7385,3176,15728,2946.50,11,P-GPS,1,0,0,0,0,0,0,1663583063386,3930,3926,3921,3938,0,0,27,,,,,,,0,0,0,-40.00,-23.00,826.00,-899.00,0.00,744.00,6,835.00,0.00,514.29,0.00,0.00,0.00,0,,,100,100,0,2,0,0,0,2,0,,,,,0.0,0.0,0.0,0.0,0.0,0.0,0
55.954269,-4.401837,83.50,0.00,0.00,51.43,83.50,83.50,0.00,51.47,13701,2022-09-19 10:24:23.489,2022-09-19 11:24:23.489,18,0,0,15.728,55.954469,-4.402580,0.00,0.00,0.00,4.10,-2.30,82.60,0,1,0,96,100,-7385,3176,15728,2946.50,11,P-GPS,1,0,0,0,0,0,0,1663583063489,3930,3926,3921,3938,0,0,27,,,,,,,0,0,0,-41.00,-23.00,826.00,-899.00,0.00,744.00,6,835.00,0.00,514.34,0.00,0.00,0.00,0,,,100,100,0,2,0,0,0,2,0,,,,,0.0,0.0,0.0,0.0,0.0,0.0,0
55.954269,-4.401837,83.50,0.00,0.00,51.44,83.50,83.50,0.00,51.47,13798,2022-09-19 10:24:23.587,2022-09-19 11:24:23.587,18,0,0,15.728,55.954469,-4.402580,0.00,0.00,0.00,4.20,-2.40,82.60,0,1,0,96,100,-7385,3176,15728,2946.50,11,P-GPS,1,0,0,0,0,0,0,1663583063586,3930,3926,3921,3938,0,0,27,,,,,,,0,0,0,-42.00,-24.00,826.00,-899.00,0.00,744.00,6,835.00,0.00,514.37,0.00,0.00,0.00,0,,,100,100,0,2,0,0,0,2,0,,,,,0.0,0.0,0.0,0.0,0.0,0.0,0
