latitude,longitude,altitude(m),ultrasonicHeight(m),speed(mps),distance(m),max_altitude(m),max_ascent(m),max_speed(mps),max_distance(m),time(millisecond),datetime(utc),datetime(local),satellites,pressure(Pa),temperature(F),voltage(v),home_latitude,home_longitude,velocityX(mps),velocityY(mps),velocityZ(mps),pitch(deg),roll(deg),yaw(deg),powerlevel,isflying,istakingphoto,remainPowerPercent,remainLifePercent,currentCurrent,currentElectricity,currentVoltage,batteryTemperature,dischargeCount,flightmode,isMotorsOn,isTakingVideo,Rc_elevator,Rc_aileron,Rc_throttle,Rc_rudder,Rc_gyro,timestamp,Battery_Cell1,Battery_Cell2,Battery_Cell3,Battery_Cell4,Battery_Cell5,Battery_Cell6,Dronetype,AppVersion,Planename,FlyControllerSerialNumber,RemoteSerialNumber,BatterySerialNumber,CENTER_BATTERY.productDate,CENTER_BATTERY.serialNo,CENTER_BATTERY.fullCapacity,CENTER_BATTERY.productDateRaw,pitchRaw,rollRaw,yawRaw,gimbalPitchRaw,gimbalRollRaw,gimbalYawRaw,flyState,altitudeRaw,speedRaw,distanceRaw,velocityXRaw,velocityYRaw,velocityZRaw,data_reuse,App_Tip,App_Warning,downlinkSignalQuality,uplinkSignalQuality,transmissionChannel,rcModeSwitch,rcHome,rcPause,rcTransform,rcJoystickMode,appMode,FlyControllerSerialNumber_legacy,RemoteSerialNumber_legacy,BatterySerialNumber_legacy,Battery2SerialNumber,frontAvoidDist,backAvoidDist,rightAvoidDist,leftAvoidDist,upAvoidDist,downAvoidDist,isBrakingToAvoid
55.952636,-4.403288,0.40,0.50,0.59,116.84,0.40,0.40,0.59,116.84,0,2022-10-02 09:44:04.090,2022-10-02 10:44:04.090,18,0,0,16.593,55.952636,-4.403293,0.10,0.30,-0.50,5.90,0.70,75.20,0,1,0,89,100,-4327,2986,16593,2979.50,13,TakeOff,1,0,0,0,0,0,0,1664703844090,4222,4211,4226,4213,0,0,27,Litchi_4.24.1-g,CJTMAVIC,163DFAS001K45C,0VECFAK0072T52,0P2AFAL5340E87,,0,0,0,-59.00,7.00,752.00,0.00,0.00,772.00,11,4.00,5.92,1168.43,1.00,3.00,-5.00,0,,,100,100,0,2,0,0,0,2,2,,,,null,2.3,2.6,0.0,0.0,0.0,0.0,1
55.952636,-4.403288,0.40,0.50,0.58,116.82,0.40,0.40,0.59,116.84,87,2022-10-02 09:44:04.178,2022-10-02 10:44:04.177,18,0,0,16.593,55.952636,-4.403293,0.00,0.30,-0.50,6.20,0.50,75.40,0,1,0,89,100,-4327,2986,16593,2979.50,13,TakeOff,1,0,0,0,0,0,0,1664703844177,4222,4211,4226,4213,0,0,27,,,,,,,0,0,0,-62.00,5.00,754.00,0.00,0.00,772.00,11,4.00,5.83,1168.25,0.00,3.00,-5.00,0,,,100,100,0,2,0,0,0,2,2,,,,,2.3,2.6,0.0,0.0,0.0,0.0,1
55.952636,-4.403287,0.50,0.60,0.58,117.10,0.50,0.50,0.59,117.10,199,2022-10-02 09:44:04.289,2022-10-02 10:44:04.289,18,0,0,16.593,55.952636,-4.403293,0.00,0.30,-0.50,6.40,0.40,75.30,0,1,0,89,100,-4327,2986,16593,2979.50,13,TakeOff,1,0,0,0,0,0,0,1664703844289,4222,4211,4226,4213,0,0,27,,,,,,,0,0,0,-64.00,4.00,753.00,0.00,0.00,771.00,11,5.00,5.83,1170.99,0.00,3.00,-5.00,0,,,100,100,0,2,0,0,0,2,2,,,,,2.2,2.6,0.0,0.0,0.0,0.0,1
55.952636,-4.403287,0.50,0.60,0.54,117.38,0.50,0.50,0.59,117.38,286,2022-10-02 09:44:04.376,2022-10-02 10:44:04.376,18,0,0,16.593,55.952636,-4.403293,0.00,0.20,-0.50,6.60,0.00,75.30,0,1,0,89,100,-4327,2986,16593,2979.50,13,TakeOff,1,0,0,0,0,0,0,1664703844376,4222,4211,4226,4213,0,0,27,,,,,,,0,0,0,-66.00,0.00,753.00,0.00,0.00,771.00,11,5.00,5.39,1173.76,0.00,2.00,-5.00,0,,,100,100,0,2,0,0,0,2,2,,,,,2.2,2.6,0.0,0.0,0.0,0.0,1
55.952636,-4.403286,0.60,0.70,0.54,117.62,0.60,0.60,0.59,117.62,400,2022-10-02 09:44:04.492,2022-10-02 10:44:04.491,18,0,0,16.318,55.952636,-4.403293,0.00,0.20,-0.50,6.40,0.20,75.30,0,1,0,89,100,-5893,2985,16318,2979.50,13,TakeOff,1,0,0,0,0,0,0,1664703844490,4222,4211,4226,4213,0,0,27,,,,,,,0,0,0,-64.00,2.00,753.00,0.00,0.00,771.00,11,6.00,5.39,1176.20,0.00,2.00,-5.00,0,,,100,100,0,2,0,0,0,2,2,,,,,2.2,2.6,0.0,0.0,0.0,0.0,1
55.952636,-4.403286,0.60,0.70,0.54,117.88,0.60,0.60,0.59,117.88,487,2022-10-02 09:44:04.577,2022-10-02 10:44:04.577,18,0,0,16.318,55.952636,-4.403293,0.00,0.20,-0.50,5.90,-0.30,75.50,0,1,0,89,100,-5893,2985,16318,2979.50,13,TakeOff,1,0,0,0,0,0,0,1664703844577,4222,4211,4226,4213,0,0,27,,,,,,,0,0,0,-59.00,-3.00,755.00,0.00,0.00,770.00,11,6.00,5.39,1178.84,0.00,2.00,-5.00,0,,,100,100,0,2,0,0,0,2,2,,,,,2.2,2.6,0.0,0.0,0.0,0.0,1
55.952636,-4.403285,0.70,0.80,0.54,118.17,0.70,0.70,0.59,118.17,588,2022-10-02 09:44:04.679,2022-10-02 10:44:04.678,18,0,0,16.318,55.952636,-4.403293,0.00,0.20,-0.50,6.00,-0.30,75.50,0,1,0,89,100,-5893,2985,16318,2979.50,13,TakeOff,1,0,0,0,0,0,0,1664703844678,4222,4211,4226,4213,0,0,27,,,,,,,0,0,0,-60.00,-3.00,755.00,0.00,0.00,770.00,11,7.00,5.39,1181.69,0.00,2.00,-5.00,0,,,100,100,0,2,0,0,0,2,2,,,,,0.0,2.8,0.0,0.0,0.0,0.0,1
55.952636,-4.403285,0.80,0.80,0.58,118.44,0.80,0.80,0.59,118.44,689,2022-10-02 09:44:04.779,2022-10-02 10:44:04.779,18,0,0,16.318,55.952636,-4.403293,0.00,0.30,-0.50,6.60,-0.40,75.50,0,1,0,89,100,-5893,2985,16318,2979.50,13,TakeOff,1,0,0,0,0,0,0,1664703844779,4222,4211,4226,4213,0,0,27,,,,,,,0,0,0,-66.00,-4.00,755.00,0.00,0.00,770.00,11,8.00,5.83,1184.42,0.00,3.00,-5.00,0,,,100,100,0,2,0,0,0,2,2,,,,,0.0,2.8,0.0,0.0,0.0,0.0,1
55.952636,-4.403284,0.80,0.90,0.58,118.69,0.80,0.80,0.59,118.69,792,2022-10-02 09:44:04.882,2022-10-02 10:44:04.882,18,0,0,16.318,55.952636,-4.403293,0.00,0.30,-0.50,7.30,-0.40,75.50,0,1,0,89,100,-5893,2985,16318,2979.50,13,TakeOff,1,0,0,0,0,0,0,1664703844882,4222,4211,4226,4213,0,0,27,,,,,,,0,0,0,-73.00,-4.00,755.00,0.00,0.00,770.00,11,8.00,5.83,1186.93,0.00,3.00,-5.00,0,,,100,100,0,2,0,0,0,2,2,,,,,0.0,3.0,0.0,0.0,0.0,0.0,1
55.952636,-4.403284,0.90,0.90,0.50,118.67,0.90,0.90,0.59,118.69,893,2022-10-02 09:44:04.984,2022-10-02 10:44:04.983,18,0,0,16.318,55.952636,-4.403293,0.00,0.30,-0.40,7.60,-0.50,75.50,0,1,0,89,100,-5893,2985,16318,2979.50,13,TakeOff,1,0,0,0,0,0,0,1664703844983,4222,4211,4226,4213,0,0,27,,,,,,,0,0,0,-76.00,-5.00,755.00,0.00,0.00,770.00,11,9.00,5.00,1186.69,0.00,3.00,-4.00,0,,,100,100,0,2,0,0,0,2,2,,,,,0.0,3.0,0.0,0.0,0.0,0.0,1
55.952636,-4.403284,0.90,1.00,0.50,119.25,0.90,0.90,0.59,119.25,1004,2022-10-02 09:44:05.094,2022-10-02 10:44:05.094,18,0,0,16.318,55.952636,-4.403293,0.00,0.30,-0.40,7.90,-0.50,75.60,0,1,0,89,100,-5893,2985,16318,2979.50,13,TakeOff,1,0,0,0,0,0,0,1664703845094,4222,4211,4226,4213,0,0,27,,,,,,,0,0,0,-79.00,-5.00,756.00,0.00,0.00,770.00,11,9.00,5.00,1192.52,0.00,3.00,-4.00,0,,,100,100,0,2,0,0,0,2,2,,,,,0.0,3.0,0.0,0.0,0.0,0.0,1
55.952636,-4.403282,1.00,1.10,0.58,119.50,1.00,1.00,0.59,119.50,1201,2022-10-02 09:44:05.292,2022-10-02 10:44:05.291,18,0,0,16.318,55.952636,-4.403293,0.00,0.30,-0.50,8.30,0.00,75.50,0,1,0,89,100,-5893,2985,16318,2979.50,13,TakeOff,1,0,0,0,0,0,0,1664703845291,4222,4211,4226,4213,0,0,27,,,,,,,0,0,0,-83.00,0.00,755.00,0.00,0.00,769.00,6,10.00,5.83,1195.01,0.00,3.00,-5.00,0,,,100,100,0,2,0,0,0,2,2,,,,,0.0,3.0,0.0,0.0,0.0,0.0,1
55.952637,-4.403282,1.10,1.10,0.42,119.77,1.10,1.10,0.59,119.77,1287,2022-10-02 09:44:05.377,2022-10-02 10:44:05.377,18,0,0,16.318,55.952636,-4.403293,0.00,0.30,-0.30,9.00,0.20,75.50,0,1,0,89,100,-5893,2985,16318,2979.50,13,P-GPS,1,0,0,0,0,0,0,1664703845377,4222,4211,4226,4213,0,0,27,,,,,,,0,0,0,-90.00,2.00,755.00,0.00,0.00,769.00,6,11.00,4.24,1197.68,0.00,3.00,-3.00,0,,,100,100,0,2,0,0,0,2,2,,,,,0.0,3.3,0.0,0.0,0.0,0.0,1
55.952636,-4.403281,1.10,1.20,0.36,120.03,1.10,1.10,0.59,120.03,1387,2022-10-02 09:44:05.477,2022-10-02 10:44:05.477,18,0,0,16.294,55.952636,-4.403293,0.00,0.30,-0.20,9.10,0.30,75.50,0,1,0,89,100,-6689,2983,16294,2979.50,13,P-GPS,1,0,0,0,0,0,0,1664703845477,4222,4211,4226,4213,0,0,27,,,,,,,0,0,0,-91.00,3.00,755.00,0.00,0.00,769.00,6,11.00,3.61,1200.25,0.00,3.00,-2.00,0,,,100,100,0,2,0,0,0,2,2,,,,,0.0,3.3,0.0,0.0,0.0,0.0,1
55.952636,-4.403281,1.10,1.20,0.30,120.30,1.10,1.10,0.59,120.30,1493,2022-10-02 09:44:05.583,2022-10-02 10:44:05.583,18,0,0,16.294,55.952636,-4.403293,0.00,0.30,0.00,8.60,0.40,75.40,0,1,0,89,100,-6689,2983,16294,2979.50,13,P-GPS,1,0,0,0,0,0,0,1664703845583,4222,4211,4226,4213,0,0,27,,,,,,,0,0,0,-86.00,4.00,754.00,0.00,0.00,769.00,6,11.00,3.00,1203.02,0.00,3.00,0.00,0,,,100,100,0,2,0,0,0,2,2,,,,,0.0,3.3,0.0,0.0,0.0,0.0,1
55.952636,-4.403280,1.10,1.20,0.30,120.56,1.10,1.10,0.59,120.56,1593,2022-10-02 09:44:05.683,2022-10-02 10:44:05.683,18,0,0,16.294,55.952636,-4.403293,0.00,0.30,0.00,8.00,-0.70,75.60,0,1,0,89,100,-6689,2983,16294,2979.50,13,P-GPS,1,0,0,0,0,0,0,1664703845683,4222,4211,4226,4213,0,0,27,,,,,,,0,0,0,-80.00,-7.00,756.00,0.00,0.00,769.00,17,11.00,3.00,1205.57,0.00,3.00,0.00,0,,,100,100,0,2,0,0,0,2,2,,,,,0.0,3.3,0.0,0.0,0.0,0.0,1
55.952636,-4.403280,1.10,1.20,0.20,120.82,1.10,1.10,0.59,120.82,1689,2022-10-02 09:44:05.779,2022-10-02 10:44:05.779,18,0,0,16.294,55.952636,-4.403293,0.00,0.20,0.00,7.40,-1.70,75.50,0,1,0,89,100,-6689,2983,16294,2979.50,13,Joystick,1,0,0,0,0,0,0,1664703845779,4222,4211,4226,4213,0,0,27,,,,,,,0,0,0,-74.00,-17.00,755.00,3.00,0.00,769.00,17,11.00,2.00,1208.19,0.00,2.00,0.00,0,,,100,100,0,2,0,0,0,2,2,,,,,0.0,3.3,0.0,0.0,0.0,0.0,1
55.952636,-4.403279,1.10,1.20,0.20,121.08,1.10,1.10,0.59,121.08,1787,2022-10-02 09:44:05.877,2022-10-02 10:44:05.877,18,0,0,16.294,55.952636,-4.403293,0.00,0.20,0.00,7.00,-2.00,75.50,0,1,0,89,100,-6689,2983,16294,2979.50,13,Joystick,1,0,0,0,0,0,0,1664703845877,4222,4211,4226,4213,0,0,27,,,,,,,0,0,0,-70.00,-20.00,755.00,7.00,0.00,769.00,17,11.00,2.00,1210.80,0.00,2.00,0.00,0,,,100,100,0,2,0,0,0,2,2,,,,,0.0,3.3,0.0,0.0,0.0,0.0,1
55.952636,-4.403279,1.10,1.20,0.20,121.36,1.10,1.10,0.59,121.36,1887,2022-10-02 09:44:05.977,2022-10-02 10:44:05.977,18,0,0,16.294,55.952636,-4.403293,0.00,0.20,0.00,7.20,-2.40,75.50,0,1,0,89,100,-6689,2983,16294,2979.50,13,Joystick,1,0,0,0,0,0,0,1664703845977,4222,4211,4226,4213,0,0,27,,,,,,,0,0,0,-72.00,-24.00,755.00,12.00,0.00,769.00,17,11.00,2.00,1213.57,0.00,2.00,0.00,0,,,100,100,0,2,0,0,0,2,2,,,,,0.0,3.3,0.0,0.0,0.0,0.0,1
55.952636,-4.403278,1.10,1.20,0.20,121.65,1.10,1.10,0.59,121.65,1990,2022-10-02 09:44:06.080,2022-10-02 10:44:06.080,18,0,0,16.294,55.952636,-4.403293,0.00,0.20,0.00,7.20,-2.40,75.70,0,1,0,89,100,-6689,2983,16294,2979.50,13,Joystick,1,0,0,0,0,0,0,1664703846080,4222,4211,4226,4213,0,0,27,,,,,,,0,0,0,-72.00,-24.00,757.00,18.00,0.00,769.00,17,11.00,2.00,1216.54,0.00,2.00,0.00,0,,,100,100,0,2,0,0,0,2,2,,,,,0.0,3.3,0.0,0.0,0.0,0.0,1
55.952636,-4.403278,1.10,1.20,0.42,121.91,1.10,1.10,0.59,121.91,2087,2022-10-02 09:44:06.177,2022-10-02 10:44:06.177,18,0,0,16.294,55.952636,-4.403293,0.00,0.30,-0.30,6.80,-2.00,76.00,0,1,0,89,100,-6689,2983,16294,2979.50,13,Joystick,1,0,0,0,0,0,0,1664703846177,4222,4211,4226,4213,0,0,27,,,,,,,0,0,0,-68.00,-20.00,760.00,25.00,0.00,769.00,17,11.00,4.24,1219.11,0.00,3.00,-3.00,0,,,100,100,0,2,0,0,0,2,2,,,,,0.0,3.3,0.0,0.0,0.0,0.0,1
55.952636,-4.403278,1.20,1.30,0.67,122.18,1.20,1.20,0.67,122.18,2192,2022-10-02 09:44:06.282,2022-10-02 10:44:06.282,18,0,0,16.294,55.952636,-4.403293,0.00,0.30,-0.60,7.20,-1.80,76.20,0,1,0,89,100,-6689,2983,16294,2979.50,13,Joystick,1,0,0,0,0,0,0,1664703846282,4222,4211,4226,4213,0,0,27,,,,,,,0,0,0,-72.00,-18.00,762.00,32.00,0.00,769.00,17,12.00,6.71,1221.77,0.00,3.00,-6.00,0,,,100,100,0,2,0,0,0,2,2,,,,,0.0,3.3,0.0,0.0,0.0,0.0,1
55.952636,-4.403277,1.30,1.40,1.04,122.15,1.30,1.30,1.04,122.18,2288,2022-10-02 09:44:06.379,2022-10-02 10:44:06.378,18,0,0,16.294,55.952636,-4.403293,0.00,0.30,-1.00,7.20,-2.30,76.30,0,1,0,89,100,-6689,2983,16294,2979.50,13,Joystick,1,0,0,0,0,0,0,1664703846378,4222,4211,4226,4213,0,0,27,,,,,,,0,0,0,-72.00,-23.00,763.00,39.00,0.00,769.00,17,13.00,10.44,1221.46,0.00,3.00,-10.00,0,,,100,100,0,2,0,0,0,2,2,,,,,0.0,3.4,0.0,0.0,0.0,0.0,1
55.952636,-4.403277,1.40,1.50,1.63,122.72,1.40,1.40,1.63,122.72,2404,2022-10-02 09:44:06.494,2022-10-02 10:44:06.494,18,0,0,16.299,55.952636,-4.403293,0.00,0.30,-1.60,7.60,-2.30,76.80,0,1,0,89,100,-6246,2980,16299,2980.50,13,Joystick,1,0,0,0,0,0,0,1664703846494,4222,4211,4226,4213,0,0,27,,,,,,,0,0,0,-76.00,-23.00,768.00,45.00,0.00,770.00,17,14.00,16.28,1227.17,0.00,3.00,-16.00,0,,,100,100,0,2,0,0,0,2,2,,,,,0.0,3.4,0.0,0.0,0.0,0.0,1
55.952636,-4.403276,1.60,1.70,2.12,122.69,1.60,1.60,2.12,122.72,2503,2022-10-02 09:44:06.593,2022-10-02 10:44:06.593,18,0,0,16.299,55.952636,-4.403293,0.00,0.30,-2.10,9.10,-2.00,77.30,0,1,0,89,100,-6246,2980,16299,2980.50,13,Joystick,1,0,0,0,0,0,0,1664703846593,4222,4211,4226,4213,0,0,27,,,,,,,0,0,0,-91.00,-20.00,773.00,52.00,0.00,770.00,17,16.00,21.21,1226.90,0.00,3.00,-21.00,0,,,100,100,0,2,0,0,0,2,2,,,,,0.0,3.5,0.0,0.0,0.0,0.0,1
55.952636,-4.403276,1.80,2.00,2.61,122.99,1.80,1.80,2.61,122.99,2589,2022-10-02 09:44:06.680,2022-10-02 10:44:06.679,18,0,0,16.299,55.952636,-4.403293,0.00,0.20,-2.60,9.40,-1.80,77.60,0,1,0,89,100,-6246,2980,16299,2980.50,13,Joystick,1,0,0,0,0,0,0,1664703846679,4222,4211,4226,4213,0,0,27,,,,,,,0,0,0,-94.00,-18.00,776.00,57.00,0.00,770.00,17,18.00,26.08,1229.86,0.00,2.00,-26.00,0,,,100,100,0,2,0,0,0,2,2,,,,,0.0,3.5,0.0,0.0,0.0,0.0,1
55.952636,-4.403275,2.10,2.30,3.11,123.26,2.10,2.10,3.11,123.26,2687,2022-10-02 09:44:06.777,2022-10-02 10:44:06.777,18,0,0,16.299,55.952636,-4.403293,0.00,0.20,-3.10,9.00,-1.50,78.00,0,1,0,89,100,-6246,2980,16299,2980.50,13,Joystick,1,0,0,0,0,0,0,1664703846777,4222,4211,4226,4213,0,0,27,,,,,,,0,0,0,-90.00,-15.00,780.00,62.00,0.00,771.00,17,21.00,31.06,1232.56,0.00,2.00,-31.00,0,,,100,100,0,2,0,0,0,2,2,,,,,0.0,3.8,0.0,0.0,0.0,0.0,1
55.952636,-4.403275,2.10,2.30,3.11,123.56,2.10,2.10,3.11,123.56,2775,2022-10-02 09:44:06.865,2022-10-02 10:44:06.865,18,0,0,16.299,55.952636,-4.403293,0.00,0.20,-3.10,9.00,-1.50,78.00,0,1,0,89,100,-6246,2980,16299,2980.50,13,Joystick,1,0,0,0,0,0,0,1664703846865,4222,4211,4226,4213,0,0,27,,,,,,,0,0,0,-90.00,-15.00,780.00,66.00,0.00,772.00,17,21.00,31.06,1235.56,0.00,2.00,-31.00,0,,,100,100,0,2,0,0,0,2,2,,,,,0.0,3.8,0.0,0.0,0.0,0.0,1
55.952636,-4.403275,2.80,3.00,3.70,123.81,2.80,2.80,3.70,123.81,2888,2022-10-02 09:44:06.978,2022-10-02 10:44:06.978,18,0,0,16.299,55.952636,-4.403293,0.00,0.10,-3.70,8.20,-1.10,79.60,0,1,0,89,100,-6246,2980,16299,2980.50,13,Joystick,1,0,0,0,0,0,0,1664703846978,4222,4211,4226,4213,0,0,27,,,,,,,0,0,0,-82.00,-11.00,796.00,66.00,0.00,773.00,17,28.00,37.01,1238.09,0.00,1.00,-37.00,0,,,100,100,0,2,0,0,0,2,2,,,,,0.0,3.8,0.0,0.0,0.0,0.0,1
55.952636,-4.403274,3.20,3.40,3.80,124.08,3.20,3.20,3.80,124.08,2988,2022-10-02 09:44:07.078,2022-10-02 10:44:07.078,18,0,0,16.299,55.952636,-4.403293,0.00,0.10,-3.80,8.30,-0.40,80.60,0,1,0,89,100,-6246,2980,16299,2980.50,13,Joystick,1,0,0,0,0,0,0,1664703847078,4222,4211,4226,4213,0,0,27,,,,,,,0,0,0,-83.00,-4.00,806.00,65.00,0.00,776.00,17,32.00,38.01,1240.80,0.00,1.00,-38.00,0,,,100,100,0,2,0,0,0,2,2,,,,,0.0,3.8,0.0,0.0,0.0,0.0,1
55.952636,-4.403274,3.20,3.40,3.80,124.38,3.20,3.20,3.80,124.38,3087,2022-10-02 09:44:07.178,2022-10-02 10:44:07.177,18,0,0,16.299,55.952636,-4.403293,0.00,0.10,-3.80,8.30,-0.40,80.60,0,1,0,89,100,-6246,2980,16299,2980.50,13,Joystick,1,0,0,0,0,0,0,1664703847177,3965,3931,3920,3894,0,0,27,,,,,,,0,0,0,-83.00,-4.00,806.00,63.00,0.00,780.00,17,32.00,38.01,1243.77,0.00,1.00,-38.00,0,,,100,100,0,2,0,0,0,2,2,,,,,0.0,3.9,0.0,0.0,0.0,0.0,0
55.952636,-4.403274,4.00,4.10,4.00,124.66,4.00,4.00,4.00,124.66,3189,2022-10-02 09:44:07.280,2022-10-02 10:44:07.279,18,0,0,16.299,55.952636,-4.403293,0.00,0.10,-4.00,7.10,-0.10,83.00,0,1,0,89,100,-6246,2980,16299,2980.50,13,Joystick,1,0,0,0,0,0,0,1664703847279,3965,3931,3920,3894,0,0,27,,,,,,,0,0,0,-71.00,-1.00,830.00,62.00,0.00,786.00,17,40.00,40.01,1246.64,0.00,1.00,-40.00,0,,,100,100,0,2,0,0,0,2,2,,,,,0.0,3.9,0.0,0.0,0.0,0.0,0
55.952636,-4.403274,4.40,4.50,4.10,124.95,4.40,4.40,4.10,124.95,3292,2022-10-02 09:44:07.382,2022-10-02 10:44:07.382,18,0,0,16.299,55.952636,-4.403293,0.10,0.10,-4.10,7.10,0.10,84.50,0,1,0,89,100,-6246,2980,16299,2980.50,13,Joystick,1,0,0,0,0,0,0,1664703847382,3965,3931,3920,3894,0,0,27,,,,,,,0,0,0,-71.00,1.00,845.00,60.00,0.00,794.00,17,44.00,41.02,1249.54,1.00,1.00,-41.00,0,,,100,100,0,2,0,0,0,2,2,,,,,0.0,0.0,0.0,0.0,0.0,0.0,0
55.952637,-4.403273,4.80,4.90,4.21,125.22,4.80,4.80,4.21,125.22,3390,2022-10-02 09:44:07.480,2022-10-02 10:44:07.480,18,0,0,15.710,55.952636,-4.403293,0.10,0.20,-4.20,8.20,1.00,86.20,0,1,0,89,100,-11292,2976,15710,2980.50,13,Joystick,1,0,0,0,0,0,0,1664703847480,3965,3931,3920,3894,0,0,27,,,,,,,0,0,0,-82.00,10.00,862.00,58.00,0.00,806.00,17,48.00,42.06,1252.22,1.00,2.00,-42.00,0,,,100,100,0,2,0,0,0,2,2,,,,,0.0,0.0,0.0,0.0,0.0,0.0,0
55.952637,-4.403273,5.20,5.30,4.11,125.21,5.20,5.20,4.21,125.22,3494,2022-10-02 09:44:07.585,2022-10-02 10:44:07.584,18,0,0,15.710,55.952636,-4.403293,0.10,0.20,-4.10,9.50,2.50,87.90,0,1,0,89,100,-11292,2976,15710,2980.50,13,Joystick,1,0,0,0,0,0,0,1664703847584,3965,3931,3920,3894,0,0,27,,,,,,,0,0,0,-95.00,25.00,879.00,56.00,0.00,821.00,17,52.00,41.06,1252.14,1.00,2.00,-41.00,0,,,100,100,0,2,0,0,0,2,2,,,,,0.0,0.0,0.0,0.0,0.0,0.0,0
55.952637,-4.403272,5.70,5.70,4.01,125.76,5.70,5.70,4.21,125.76,3601,2022-10-02 09:44:07.691,2022-10-02 10:44:07.691,18,0,0,15.710,55.952636,-4.403293,0.10,0.20,-4.00,9.80,3.70,89.80,0,1,0,89,100,-11292,2976,15710,2980.50,13,Joystick,1,0,0,0,0,0,0,1664703847691,3965,3931,3920,3894,0,0,27,,,,,,,0,0,0,-98.00,37.00,898.00,55.00,0.00,837.00,17,57.00,40.06,1257.65,1.00,2.00,-40.00,0,,,100,100,0,2,0,0,0,2,2,,,,,0.0,0.0,0.0,0.0,0.0,0.0,0
55.952637,-4.403272,6.10,6.10,4.01,126.04,6.10,6.10,4.21,126.04,3691,2022-10-02 09:44:07.781,2022-10-02 10:44:07.781,18,0,0,15.710,55.952636,-4.403293,0.10,0.20,-4.00,9.20,4.00,91.70,0,1,0,89,100,-11292,2976,15710,2980.50,13,Joystick,1,0,0,0,0,0,0,1664703847781,3965,3931,3920,3894,0,0,27,,,,,,,0,0,0,-92.00,40.00,917.00,53.00,0.00,853.00,17,61.00,40.06,1260.43,1.00,2.00,-40.00,0,,,100,100,0,2,0,0,0,2,2,,,,,0.0,0.0,0.0,0.0,0.0,0.0,0
55.952637,-4.403272,6.50,6.50,4.00,126.05,6.50,6.50,4.21,126.05,3792,2022-10-02 09:44:07.882,2022-10-02 10:44:07.882,18,0,0,15.710,55.952636,-4.403293,0.10,0.10,-4.00,8.60,4.00,93.70,0,1,0,89,100,-11292,2976,15710,2980.50,13,Joystick,1,0,0,0,0,0,0,1664703847882,3965,3931,3920,3894,0,0,27,,,,,,,0,0,0,-86.00,40.00,937.00,51.00,0.00,872.00,17,65.00,40.02,1260.54,1.00,1.00,-40.00,0,,,100,100,0,2,0,0,0,2,2,,,,,0.0,0.0,0.0,0.0,0.0,0.0,0
55.952637,-4.403271,6.90,6.80,3.90,126.62,6.90,6.90,4.21,126.62,3903,2022-10-02 09:44:07.994,2022-10-02 10:44:07.993,18,0,0,15.710,55.952636,-4.403293,0.10,0.10,-3.90,7.90,3.90,95.70,0,1,0,89,100,-11292,2976,15710,2980.50,13,Joystick,1,0,0,0,0,0,0,1664703847993,3965,3931,3920,3894,0,0,27,,,,,,,0,0,0,-79.00,39.00,957.00,49.00,0.00,893.00,17,69.00,39.03,1266.24,1.00,1.00,-39.00,0,,,100,100,0,2,0,0,0,2,2,,,,,0.0,0.0,0.0,0.0,0.0,0.0,0
55.952637,-4.403271,7.30,7.20,4.01,126.60,7.30,7.30,4.21,126.62,3991,2022-10-02 09:44:08.082,2022-10-02 10:44:08.081,18,0,0,15.710,55.952636,-4.403293,0.20,0.10,-4.00,7.20,4.40,97.60,0,1,0,89,100,-11292,2976,15710,2980.50,13,Joystick,1,0,0,0,0,0,0,1664703848081,3965,3931,3920,3894,0,0,27,,,,,,,0,0,0,-72.00,44.00,976.00,47.00,0.00,915.00,17,73.00,40.06,1266.02,2.00,1.00,-40.00,0,,,100,100,0,2,0,0,0,2,2,,,,,0.0,0.0,0.0,0.0,0.0,0.0,0
55.952637,-4.403271,7.70,7.60,4.01,126.89,7.70,7.70,4.21,126.89,4091,2022-10-02 09:44:08.182,2022-10-02 10:44:08.182,18,0,0,15.710,55.952636,-4.403293,0.20,0.10,-4.00,6.90,4.80,99.50,0,1,0,89,100,-11292,2976,15710,2980.50,13,Joystick,1,0,0,0,0,0,0,1664703848181,3965,3931,3920,3894,0,0,27,,,,,,,0,0,0,-69.00,48.00,995.00,45.00,0.00,935.00,17,77.00,40.06,1268.94,2.00,1.00,-40.00,0,,,100,100,0,2,0,0,0,2,2,,,,,0.0,0.0,0.0,0.0,0.0,0.0,0
55.952638,-4.403271,8.10,8.00,4.01,127.48,8.10,8.10,4.21,127.48,4194,2022-10-02 09:44:08.284,2022-10-02 10:44:08.284,18,0,0,15.710,55.952636,-4.403293,0.20,0.10,-4.00,6.30,5.30,101.40,0,1,0,89,100,-11292,2976,15710,2980.50,13,Joystick,1,0,0,0,0,0,0,1664703848284,3965,3931,3920,3894,0,0,27,,,,,,,0,0,0,-63.00,53.00,1014.00,44.00,0.00,955.00,17,81.00,40.06,1274.78,2.00,1.00,-40.00,0,,,100,100,0,2,0,0,0,2,2,,,,,0.0,0.0,0.0,0.0,0.0,0.0,0
55.952638,-4.403270,8.50,8.30,4.01,127.48,8.50,8.50,4.21,127.48,4292,2022-10-02 09:44:08.382,2022-10-02 10:44:08.382,18,0,0,15.710,55.952636,-4.403293,0.20,0.10,-4.00,6.00,5.90,103.10,0,1,0,89,100,-11292,2976,15710,2980.50,13,Joystick,1,0,0,0,0,0,0,1664703848382,3965,3931,3920,3894,0,0,27,,,,,,,0,0,0,-60.00,59.00,1031.00,42.00,0.00,974.00,17,85.00,40.06,1274.76,2.00,1.00,-40.00,0,,,100,100,0,2,0,0,0,2,2,,,,,0.0,0.0,0.0,0.0,0.0,0.0,0
55.952638,-4.403270,8.90,8.70,4.01,127.75,8.90,8.90,4.21,127.75,4388,2022-10-02 09:44:08.479,2022-10-02 10:44:08.478,18,0,0,15.999,55.952636,-4.403293,0.20,0.20,-4.00,6.50,6.10,104.80,0,1,0,89,100,-9896,2974,15999,2980.50,13,Joystick,1,0,0,0,0,0,0,1664703848478,3965,3931,3920,3894,0,0,27,,,,,,,0,0,0,-65.00,61.00,1048.00,40.00,0.00,990.00,17,89.00,40.10,1277.48,2.00,2.00,-40.00,0,,,100,100,0,2,0,0,0,2,2,,,,,0.0,0.0,0.0,0.0,0.0,0.0,0
55.952638,-4.403269,9.30,9.10,4.01,128.02,9.30,9.30,4.21,128.02,4508,2022-10-02 09:44:08.598,2022-10-02 10:44:08.598,18,0,0,15.999,55.952636,-4.403293,0.10,0.20,-4.00,7.10,6.50,106.30,0,1,0,89,100,-9896,2974,15999,2980.50,13,Joystick,1,0,0,0,0,0,-207,1664703848598,3965,3931,3920,3894,0,0,27,,,,,,,0,0,0,-71.00,65.00,1063.00,38.00,0.00,1006.00,17,93.00,40.06,1280.24,1.00,2.00,-40.00,0,,,100,100,0,2,0,0,0,2,2,,,,,0.0,0.0,0.0,0.0,0.0,0.0,0
55.952638,-4.403269,9.70,9.50,4.01,128.31,9.70,9.70,4.21,128.31,4603,2022-10-02 09:44:08.694,2022-10-02 10:44:08.694,18,0,0,15.999,55.952636,-4.403293,0.10,0.20,-4.00,7.60,6.60,108.00,0,1,0,89,100,-9896,2974,15999,2980.50,13,Joystick,1,0,0,0,0,0,-414,1664703848693,3965,3931,3920,3894,0,0,27,,,,,,,0,0,0,-76.00,66.00,1080.00,33.00,0.00,1021.00,17,97.00,40.06,1283.07,1.00,2.00,-40.00,0,,,100,100,0,2,0,0,0,2,2,,,,,0.0,0.0,0.0,0.0,0.0,0.0,0
55.952638,-4.403269,10.10,9.90,3.91,128.60,10.10,10.10,4.21,128.60,4726,2022-10-02 09:44:08.817,2022-10-02 10:44:08.817,18,0,0,15.999,55.952636,-4.403293,0.10,0.20,-3.90,7.90,6.80,109.50,0,1,0,89,100,-9896,2974,15999,2980.50,13,Joystick,1,0,0,0,0,0,-515,1664703848816,3965,3931,3920,3894,0,0,27,,,,,,,0,0,0,-79.00,68.00,1095.00,23.00,0.00,1036.00,17,101.00,39.06,1285.97,1.00,2.00,-39.00,0,,,100,100,0,2,0,0,0,2,2,,,,,0.0,0.0,0.0,0.0,0.0,0.0,0
55.952638,-4.403267,10.90,10.60,3.91,129.13,10.90,10.90,4.21,129.13,4897,2022-10-02 09:44:08.987,2022-10-02 10:44:08.987,18,0,0,15.999,55.952636,-4.403293,0.10,0.20,-3.90,8.30,7.40,112.20,0,1,0,89,100,-9896,2974,15999,2980.50,13,Joystick,1,0,0,0,0,0,-660,1664703848987,3965,3931,3920,3894,0,0,27,,,,,,,0,0,0,-83.00,74.00,1122.00,-13.00,0.00,1063.00,17,109.00,39.06,1291.29,1.00,2.00,-39.00,0,,,100,100,0,2,0,0,0,2,2,,,,,0.0,0.0,0.0,0.0,0.0,0.0,0
55.952639,-4.403267,11.30,11.00,3.91,129.40,11.30,11.30,4.21,129.40,4989,2022-10-02 09:44:09.080,2022-10-02 10:44:09.079,18,0,0,15.999,55.952636,-4.403293,0.10,0.20,-3.90,8.30,7.50,113.50,0,1,0,89,100,-9896,2974,15999,2980.50,13,Joystick,1,0,0,0,0,0,-660,1664703849079,3965,3931,3920,3894,0,0,27,,,,,,,0,0,0,-83.00,75.00,1135.00,-38.00,0.00,1076.00,17,113.00,39.06,1293.97,1.00,2.00,-39.00,0,,,100,100,0,2,0,0,0,2,2,,,,,0.0,0.0,0.0,0.0,0.0,0.0,0
55.952639,-4.403266,11.70,11.40,3.91,129.38,11.70,11.70,4.21,129.40,5094,2022-10-02 09:44:09.184,2022-10-02 10:44:09.184,18,0,0,15.999,55.952636,-4.403293,0.10,0.20,-3.90,7.40,7.40,114.40,0,1,0,89,100,-9896,2974,15999,2980.50,13,Joystick,1,0,0,0,0,0,-6,1664703849184,3965,3931,3920,3894,0,0,27,,,,,,,0,0,0,-74.00,74.00,1144.00,-63.00,0.00,1087.00,17,117.00,39.06,1293.81,1.00,2.00,-39.00,0,,,100,100,0,2,0,0,0,2,2,,,,,0.0,0.0,0.0,0.0,0.0,0.0,0
55.952639,-4.403266,12.10,11.80,3.91,129.68,12.10,12.10,4.21,129.68,5188,2022-10-02 09:44:09.279,2022-10-02 10:44:09.278,18,0,0,15.999,55.952636,-4.403293,0.00,0.20,-3.90,7.10,7.10,115.40,0,1,0,89,100,-9896,2974,15999,2980.50,13,Joystick,1,0,0,0,0,0,0,1664703849278,3965,3931,3920,3894,0,0,27,,,,,,,0,0,0,-71.00,71.00,1154.00,-84.00,0.00,1098.00,17,121.00,39.05,1296.83,0.00,2.00,-39.00,0,,,100,100,0,2,0,0,0,2,2,,,,,0.0,0.0,0.0,0.0,0.0,0.0,0
55.952639,-4.403266,12.10,11.80,3.91,130.27,12.10,12.10,4.21,130.27,5294,2022-10-02 09:44:09.385,2022-10-02 10:44:09.384,18,0,0,15.931,55.952636,-4.403293,0.00,0.20,-3.90,7.10,7.10,115.40,0,1,0,89,100,-9190,2971,15931,2981.50,13,Joystick,1,0,0,0,0,0,0,1664703849384,3965,3931,3920,3894,0,0,27,,,,,,,0,0,0,-71.00,71.00,1154.00,-99.00,0.00,1109.00,17,121.00,39.05,1302.70,0.00,2.00,-39.00,0,,,100,100,0,2,0,0,0,2,2,,,,,0.0,0.0,0.0,0.0,0.0,0.0,0
55.952639,-4.403265,12.90,0.00,4.00,130.22,12.90,12.90,4.21,130.27,5397,2022-10-02 09:44:09.487,2022-10-02 10:44:09.487,18,0,0,15.931,55.952636,-4.403293,0.00,0.20,-4.00,7.60,7.00,117.40,0,1,0,89,100,-9190,2971,15931,2981.50,13,Joystick,1,0,0,0,0,0,0,1664703849487,3965,3931,3920,3894,0,0,27,,,,,,,0,0,0,-76.00,70.00,1174.00,-108.00,0.00,1118.00,17,129.00,40.05,1302.24,0.00,2.00,-40.00,0,,,100,100,0,2,0,0,0,2,2,,,,,0.0,0.0,0.0,0.0,0.0,0.0,0
55.952639,-4.403265,13.30,0.00,4.00,130.50,13.30,13.30,4.21,130.50,5503,2022-10-02 09:44:09.594,2022-10-02 10:44:09.593,18,0,0,15.931,55.952636,-4.403293,0.00,0.20,-4.00,7.80,7.10,118.30,0,1,0,89,100,-9190,2971,15931,2981.50,13,Joystick,1,0,0,0,0,0,0,1664703849593,3965,3931,3920,3894,0,0,27,,,,,,,0,0,0,-78.00,71.00,1183.00,-110.00,0.00,1128.00,17,133.00,40.05,1305.00,0.00,2.00,-40.00,0,,,100,100,0,2,0,0,0,2,2,,,,,0.0,0.0,0.0,0.0,0.0,0.0,0
55.952638,-4.403264,13.70,0.00,4.00,130.75,13.70,13.70,4.21,130.75,5593,2022-10-02 09:44:09.683,2022-10-02 10:44:09.683,18,0,0,15.931,55.952636,-4.403293,0.00,0.20,-4.00,7.90,7.00,119.20,0,1,0,89,100,-9190,2971,15931,2981.50,13,Joystick,1,0,0,0,0,0,0,1664703849683,3965,3931,3920,3894,0,0,27,,,,,,,0,0,0,-79.00,70.00,1192.00,-107.00,0.00,1136.00,17,137.00,40.05,1307.55,0.00,2.00,-40.00,0,,,100,100,0,2,0,0,0,2,2,,,,,0.0,0.0,0.0,0.0,0.0,0.0,0
55.952638,-4.403264,14.10,0.00,4.00,131.03,14.10,14.10,4.21,131.03,5690,2022-10-02 09:44:09.780,2022-10-02 10:44:09.780,18,0,0,15.931,55.952636,-4.403293,0.00,0.20,-4.00,7.80,7.00,119.90,0,1,0,89,100,-9190,2971,15931,2981.50,13,Joystick,1,0,0,0,0,0,-325,1664703849780,3965,3931,3920,3894,0,0,27,,,,,,,0,0,0,-78.00,70.00,1199.00,-102.00,0.00,1144.00,17,141.00,40.05,1310.29,0.00,2.00,-40.00,0,,,100,100,0,2,0,0,0,2,2,,,,,0.0,0.0,0.0,0.0,0.0,0.0,0
55.952638,-4.403263,14.50,0.00,4.00,131.29,14.50,14.50,4.21,131.29,5795,2022-10-02 09:44:09.886,2022-10-02 10:44:09.885,18,0,0,15.931,55.952636,-4.403293,0.00,0.20,-4.00,7.60,6.80,120.60,0,1,0,89,100,-9190,2971,15931,2981.50,13,Joystick,1,0,0,0,0,0,-660,1664703849885,3965,3931,3920,3894,0,0,27,,,,,,,0,0,0,-76.00,68.00,1206.00,-99.00,0.00,1152.00,17,145.00,40.05,1312.95,0.00,2.00,-40.00,0,,,100,100,0,2,0,0,0,2,2,,,,,0.0,0.0,0.0,0.0,0.0,0.0,0
55.952638,-4.403263,14.90,0.00,4.00,131.58,14.90,14.90,4.21,131.58,5887,2022-10-02 09:44:09.977,2022-10-02 10:44:09.977,18,0,0,15.931,55.952636,-4.403293,0.00,0.20,-4.00,7.40,6.60,121.30,0,1,0,89,100,-9190,2971,15931,2981.50,13,Joystick,1,0,0,0,0,0,-660,1664703849977,3965,3931,3920,3894,0,0,27,,,,,,,0,0,0,-74.00,66.00,1213.00,-101.00,0.00,1159.00,17,149.00,40.05,1315.81,0.00,2.00,-40.00,0,,,100,100,0,2,0,0,0,2,2,,,,,0.0,0.0,0.0,0.0,0.0,0.0,0
55.952638,-4.403263,15.30,0.00,4.00,131.84,15.30,15.30,4.21,131.84,5987,2022-10-02 09:44:10.078,2022-10-02 10:44:10.077,18,0,0,15.931,55.952636,-4.403293,0.00,0.20,-4.00,7.20,6.80,121.80,0,1,0,89,100,-9190,2971,15931,2981.50,13,Joystick,1,0,0,0,0,0,-660,1664703850077,3965,3931,3920,3894,0,0,27,,,,,,,0,0,0,-72.00,68.00,1218.00,-109.00,0.00,1166.00,17,153.00,40.05,1318.37,0.00,2.00,-40.00,0,,,100,100,0,2,0,0,0,2,2,,,,,0.0,0.0,0.0,0.0,0.0,0.0,0
55.952638,-4.403262,15.70,0.00,4.00,132.11,15.70,15.70,4.21,132.11,6086,2022-10-02 09:44:10.177,2022-10-02 10:44:10.176,17,0,0,15.931,55.952636,-4.403293,0.00,0.20,-4.00,7.20,7.00,122.40,0,1,0,89,100,-9190,2971,15931,2981.50,13,Joystick,1,0,0,0,0,0,-660,1664703850176,3965,3931,3920,3894,0,0,27,,,,,,,0,0,0,-72.00,70.00,1224.00,-123.00,0.00,1172.00,17,157.00,40.05,1321.08,0.00,2.00,-40.00,0,,,100,100,0,2,0,0,0,2,2,,,,,0.0,0.0,0.0,0.0,0.0,0.0,0
55.952638,-4.403262,16.10,0.00,4.00,132.37,16.10,16.10,4.21,132.37,6194,2022-10-02 09:44:10.285,2022-10-02 10:44:10.284,17,0,0,15.931,55.952636,-4.403293,0.00,0.20,-4.00,7.30,6.80,123.00,0,1,0,89,100,-9190,2971,15931,2981.50,13,Joystick,1,0,0,0,0,0,-660,1664703850284,3965,3931,3920,3894,0,0,27,,,,,,,0,0,0,-73.00,68.00,1230.00,-140.00,0.00,1177.00,17,161.00,40.05,1323.75,0.00,2.00,-40.00,0,,,100,100,0,2,0,0,0,2,2,,,,,0.0,0.0,0.0,0.0,0.0,0.0,0
55.952638,-4.403262,16.50,0.00,4.00,132.66,16.50,16.50,4.21,132.66,6292,2022-10-02 09:44:10.382,2022-10-02 10:44:10.382,17,0,0,15.931,55.952636,-4.403293,0.00,0.20,-4.00,7.40,6.90,123.70,0,1,0,89,100,-9190,2971,15931,2981.50,13,Joystick,1,0,0,0,0,0,-660,1664703850382,3965,3931,3920,3894,0,0,27,,,,,,,0,0,0,-74.00,69.00,1237.00,-161.00,0.00,1183.00,17,165.00,40.05,1326.56,0.00,2.00,-40.00,0,,,100,100,0,2,0,0,0,2,2,,,,,0.0,0.0,0.0,0.0,0.0,0.0,0
55.952638,-4.403261,16.90,0.00,4.00,132.92,16.90,16.90,4.21,132.92,6400,2022-10-02 09:44:10.490,2022-10-02 10:44:10.490,18,0,0,15.859,55.952636,-4.403293,0.00,0.20,-4.00,7.40,6.90,124.20,0,1,0,89,100,-9979,2968,15859,2981.50,13,Joystick,1,0,0,0,0,0,-660,1664703850490,3965,3931,3920,3894,0,0,27,,,,,,,0,0,0,-74.00,69.00,1242.00,-185.00,0.00,1189.00,17,169.00,40.05,1329.25,0.00,2.00,-40.00,0,,,100,100,0,2,0,0,0,2,2,,,,,0.0,0.0,0.0,0.0,0.0,0.0,0
55.952638,-4.403261,17.30,0.00,3.90,132.90,17.30,17.30,4.21,132.92,6491,2022-10-02 09:44:10.581,2022-10-02 10:44:10.581,18,0,0,15.859,55.952636,-4.403293,0.00,0.10,-3.90,7.20,6.90,124.90,0,1,0,89,100,-9979,2968,15859,2981.50,13,Joystick,1,0,0,0,0,0,-660,1664703850581,3965,3931,3920,3894,0,0,27,,,,,,,0,0,0,-72.00,69.00,1249.00,-208.00,0.00,1194.00,17,173.00,39.01,1329.03,0.00,1.00,-39.00,0,,,100,100,0,2,0,0,0,2,2,,,,,0.0,0.0,0.0,0.0,0.0,0.0,0
55.952637,-4.403261,17.70,0.00,3.90,133.15,17.70,17.70,4.21,133.15,6597,2022-10-02 09:44:10.688,2022-10-02 10:44:10.687,18,0,0,15.859,55.952636,-4.403293,0.00,0.10,-3.90,7.10,6.70,125.20,0,1,0,89,100,-9979,2968,15859,2981.50,13,Joystick,1,0,0,0,0,0,0,1664703850687,3965,3931,3920,3894,0,0,27,,,,,,,0,0,0,-71.00,67.00,1252.00,-232.00,0.00,1200.00,17,177.00,39.01,1331.48,0.00,1.00,-39.00,0,,,100,100,0,2,0,0,0,2,2,,,,,0.0,0.0,0.0,0.0,0.0,0.0,0
55.952637,-4.403261,18.10,0.00,3.90,133.41,18.10,18.10,4.21,133.41,6705,2022-10-02 09:44:10.795,2022-10-02 10:44:10.795,18,0,0,15.859,55.952636,-4.403293,0.00,0.10,-3.90,7.10,6.80,125.50,0,1,0,89,100,-9979,2968,15859,2981.50,13,Joystick,1,0,0,0,0,0,0,1664703850795,3965,3931,3920,3894,0,0,27,,,,,,,0,0,0,-71.00,68.00,1255.00,-251.00,0.00,1206.00,17,181.00,39.01,1334.11,0.00,1.00,-39.00,0,,,100,100,0,2,0,0,0,2,2,,,,,0.0,0.0,0.0,0.0,0.0,0.0,0
55.952637,-4.403260,18.90,0.00,3.90,133.96,18.90,18.90,4.21,133.96,6899,2022-10-02 09:44:10.990,2022-10-02 10:44:10.989,18,0,0,15.859,55.952636,-4.403293,0.00,0.10,-3.90,6.60,6.70,126.10,0,1,0,89,100,-9979,2968,15859,2981.50,13,Joystick,1,0,0,0,0,0,0,1664703850989,3965,3931,3920,3894,0,0,27,,,,,,,0,0,0,-66.00,67.00,1261.00,-255.00,0.00,1213.00,17,189.00,39.01,1339.61,0.00,1.00,-39.00,0,,,100,100,0,2,0,0,0,2,2,,,,,0.0,0.0,0.0,0.0,0.0,0.0,0
55.952637,-4.403260,19.30,0.00,3.90,134.25,19.30,19.30,4.21,134.25,6987,2022-10-02 09:44:11.078,2022-10-02 10:44:11.077,18,0,0,15.859,55.952636,-4.403293,0.00,0.10,-3.90,6.50,6.80,126.30,0,1,0,89,100,-9979,2968,15859,2981.50,13,Joystick,1,0,0,0,0,0,-78,1664703851077,3965,3931,3920,3894,0,0,27,,,,,,,0,0,0,-65.00,68.00,1263.00,-244.00,0.00,1216.00,17,193.00,39.01,1342.54,0.00,1.00,-39.00,0,,,100,100,0,2,0,0,0,2,2,,,,,0.0,0.0,0.0,0.0,0.0,0.0,0
55.952637,-4.403259,19.70,0.00,3.90,134.53,19.70,19.70,4.21,134.53,7090,2022-10-02 09:44:11.180,2022-10-02 10:44:11.180,18,0,0,15.859,55.952636,-4.403293,0.00,0.10,-3.90,6.90,7.00,126.60,0,1,0,89,100,-9979,2968,15859,2981.50,13,Joystick,1,0,0,0,0,0,-450,1664703851180,3965,3931,3920,3894,0,0,27,,,,,,,0,0,0,-69.00,70.00,1266.00,-228.00,0.00,1219.00,17,197.00,39.01,1345.29,0.00,1.00,-39.00,0,,,100,100,0,2,0,0,0,2,2,,,,,0.0,0.0,0.0,0.0,0.0,0.0,0
55.952637,-4.403259,20.10,0.00,3.90,134.79,20.10,20.10,4.21,134.79,7187,2022-10-02 09:44:11.277,2022-10-02 10:44:11.277,18,0,0,15.859,55.952636,-4.403293,0.00,0.10,-3.90,6.90,7.30,126.90,0,1,0,89,100,-9979,2968,15859,2981.50,13,Joystick,1,0,0,0,0,0,-660,1664703851277,3965,3931,3920,3894,0,0,27,,,,,,,0,0,0,-69.00,73.00,1269.00,-217.00,0.00,1222.00,17,201.00,39.01,1347.95,0.00,1.00,-39.00,0,,,100,100,0,2,0,0,0,2,2,,,,,0.0,0.0,0.0,0.0,0.0,0.0,0
55.952637,-4.403259,20.50,0.00,3.90,135.06,20.50,20.50,4.21,135.06,7290,2022-10-02 09:44:11.381,2022-10-02 10:44:11.380,18,0,0,15.859,55.952636,-4.403293,0.00,0.10,-3.90,7.00,7.80,127.20,0,1,0,89,100,-9979,2968,15859,2981.50,13,Joystick,1,0,0,0,0,0,-660,1664703851380,3965,3931,3920,3894,0,0,27,,,,,,,0,0,0,-70.00,78.00,1272.00,-211.00,0.00,1225.00,17,205.00,39.01,1350.64,0.00,1.00,-39.00,0,,,100,100,0,2,0,0,0,2,2,,,,,0.0,0.0,0.0,0.0,0.0,0.0,0
55.952637,-4.403258,20.80,0.00,3.90,135.34,20.80,20.80,4.21,135.34,7387,2022-10-02 09:44:11.478,2022-10-02 10:44:11.477,18,0,0,15.835,55.952636,-4.403293,0.00,0.10,-3.90,7.40,7.40,127.50,0,1,0,89,100,-9642,2966,15835,2981.50,13,Joystick,1,0,0,0,0,0,-660,1664703851477,3965,3931,3920,3894,0,0,27,,,,,,,0,0,0,-74.00,74.00,1275.00,-211.00,0.00,1227.00,17,208.00,39.01,1353.37,0.00,1.00,-39.00,0,,,100,100,0,2,0,0,0,2,2,,,,,0.0,0.0,0.0,0.0,0.0,0.0,0
55.952637,-4.403258,21.20,0.00,3.90,135.63,21.20,21.20,4.21,135.63,7499,2022-10-02 09:44:11.589,2022-10-02 10:44:11.589,18,0,0,15.835,55.952636,-4.403293,0.00,0.10,-3.90,7.60,6.80,127.80,0,1,0,89,100,-9642,2966,15835,2981.50,13,Joystick,1,0,0,0,0,0,-660,1664703851589,3965,3931,3920,3894,0,0,27,,,,,,,0,0,0,-76.00,68.00,1278.00,-216.00,0.00,1230.00,17,212.00,39.01,1356.34,0.00,1.00,-39.00,0,,,100,100,0,2,0,0,0,2,2,,,,,0.0,0.0,0.0,0.0,0.0,0.0,0
55.952637,-4.403258,21.60,0.00,3.90,135.91,21.60,21.60,4.21,135.91,7596,2022-10-02 09:44:11.686,2022-10-02 10:44:11.686,18,0,0,15.835,55.952636,-4.403293,0.00,0.10,-3.90,7.60,6.90,128.10,0,1,0,89,100,-9642,2966,15835,2981.50,13,Joystick,1,0,0,0,0,0,-660,1664703851686,3965,3931,3920,3894,0,0,27,,,,,,,0,0,0,-76.00,69.00,1281.00,-232.00,0.00,1233.00,17,216.00,39.01,1359.14,0.00,1.00,-39.00,0,,,100,100,0,2,0,0,0,2,2,,,,,0.0,0.0,0.0,0.0,0.0,0.0,0
55.952637,-4.403258,22.00,0.00,3.90,135.90,22.00,22.00,4.21,135.91,7688,2022-10-02 09:44:11.778,2022-10-02 10:44:11.778,18,0,0,15.835,55.952636,-4.403293,0.00,0.10,-3.90,7.50,7.00,128.20,0,1,0,89,100,-9642,2966,15835,2981.50,13,Joystick,1,0,0,0,0,0,-660,1664703851778,3965,3931,3920,3894,0,0,27,,,,,,,0,0,0,-75.00,70.00,1282.00,-255.00,0.00,1236.00,17,220.00,39.01,1359.01,0.00,1.00,-39.00,0,,,100,100,0,2,0,0,0,2,2,,,,,0.0,0.0,0.0,0.0,0.0,0.0,0
55.952637,-4.403257,22.40,0.00,4.00,136.17,22.40,22.40,4.21,136.17,7788,2022-10-02 09:44:11.878,2022-10-02 10:44:11.878,18,0,0,15.835,55.952636,-4.403293,0.00,0.10,-4.00,7.50,7.10,128.50,0,1,0,89,100,-9642,2966,15835,2981.50,13,Joystick,1,0,0,0,0,0,-660,1664703851878,3965,3931,3920,3894,0,0,27,,,,,,,0,0,0,-75.00,71.00,1285.00,-279.00,0.00,1239.00,17,224.00,40.01,1361.74,0.00,1.00,-40.00,0,,,100,100,0,2,0,0,0,2,2,,,,,0.0,0.0,0.0,0.0,0.0,0.0,0
55.952637,-4.403257,22.80,0.00,4.00,136.46,22.80,22.80,4.21,136.46,7898,2022-10-02 09:44:11.988,2022-10-02 10:44:11.988,18,0,0,15.835,55.952636,-4.403293,0.00,0.10,-4.00,7.40,7.20,128.60,0,1,0,89,100,-9642,2966,15835,2981.50,13,Joystick,1,0,0,0,0,0,-660,1664703851988,3965,3931,3920,3894,0,0,27,,,,,,,0,0,0,-74.00,72.00,1286.00,-303.00,0.00,1241.00,17,228.00,40.01,1364.57,0.00,1.00,-40.00,0,,,100,100,0,2,0,0,0,2,2,,,,,0.0,0.0,0.0,0.0,0.0,0.0,0
55.952637,-4.403257,23.20,0.00,3.90,136.74,23.20,23.20,4.21,136.74,7989,2022-10-02 09:44:12.080,2022-10-02 10:44:12.079,18,0,0,15.835,55.952636,-4.403293,0.00,0.10,-3.90,7.10,7.60,128.70,0,1,0,89,100,-9642,2966,15835,2981.50,13,Joystick,1,0,0,0,0,0,-660,1664703852079,3965,3931,3920,3894,0,0,27,,,,,,,0,0,0,-71.00,76.00,1287.00,-327.00,0.00,1244.00,17,232.00,39.01,1367.40,0.00,1.00,-39.00,0,,,100,100,0,2,0,0,0,2,2,,,,,0.0,0.0,0.0,0.0,0.0,0.0,0
55.952637,-4.403257,23.60,0.00,3.90,137.02,23.60,23.60,4.21,137.02,8087,2022-10-02 09:44:12.179,2022-10-02 10:44:12.177,18,0,0,15.835,55.952636,-4.403293,0.00,0.00,-3.90,7.20,7.80,128.90,0,1,0,89,100,-9642,2966,15835,2981.50,13,Joystick,1,0,0,0,0,0,-660,1664703852177,3965,3931,3920,3894,0,0,27,,,,,,,0,0,0,-72.00,78.00,1289.00,-350.00,0.00,1246.00,17,236.00,39.00,1370.21,0.00,0.00,-39.00,0,,,100,100,0,2,0,0,0,2,2,,,,,0.0,0.0,0.0,0.0,0.0,0.0,0
55.952637,-4.403256,23.90,0.00,3.90,137.30,23.90,23.90,4.21,137.30,8193,2022-10-02 09:44:12.283,2022-10-02 10:44:12.283,18,0,0,15.835,55.952636,-4.403293,0.00,0.00,-3.90,7.20,7.60,129.00,0,1,0,89,100,-9642,2966,15835,2981.50,13,Joystick,1,0,0,0,0,0,-660,1664703852283,3965,3931,3920,3894,0,0,27,,,,,,,0,0,0,-72.00,76.00,1290.00,-374.00,0.00,1248.00,17,239.00,39.00,1372.96,0.00,0.00,-39.00,0,,,100,100,0,2,0,0,0,2,2,,,,,0.0,0.0,0.0,0.0,0.0,0.0,0
55.952637,-4.403256,24.30,0.00,3.90,137.58,24.30,24.30,4.21,137.58,8288,2022-10-02 09:44:12.378,2022-10-02 10:44:12.378,18,0,0,15.835,55.952636,-4.403293,0.00,0.00,-3.90,7.20,7.40,129.10,0,1,0,89,100,-9642,2966,15835,2981.50,13,Joystick,1,0,0,0,0,0,-660,1664703852378,3965,3931,3920,3894,0,0,27,,,,,,,0,0,0,-72.00,74.00,1291.00,-397.00,0.00,1250.00,17,243.00,39.00,1375.76,0.00,0.00,-39.00,0,,,100,100,0,2,0,0,0,2,2,,,,,0.0,0.0,0.0,0.0,0.0,0.0,0
55.952637,-4.403256,24.70,0.00,3.90,137.86,24.70,24.70,4.21,137.86,8398,2022-10-02 09:44:12.488,2022-10-02 10:44:12.488,18,0,0,15.739,55.952636,-4.403293,0.00,0.00,-3.90,7.10,7.30,129.20,0,1,0,89,100,-10371,2963,15739,2982.50,13,Joystick,1,0,0,0,0,0,-660,1664703852488,3965,3931,3920,3894,0,0,27,,,,,,,0,0,0,-71.00,73.00,1292.00,-421.00,0.00,1252.00,17,247.00,39.00,1378.64,0.00,0.00,-39.00,0,,,100,100,0,2,0,0,0,2,2,,,,,0.0,0.0,0.0,0.0,0.0,0.0,0
55.952637,-4.403256,25.10,0.00,3.90,138.15,25.10,25.10,4.21,138.15,8492,2022-10-02 09:44:12.582,2022-10-02 10:44:12.582,18,0,0,15.739,55.952636,-4.403293,0.00,0.00,-3.90,7.00,7.50,129.30,0,1,0,89,100,-10371,2963,15739,2982.50,13,Joystick,1,0,0,0,0,0,-660,1664703852582,3965,3931,3920,3894,0,0,27,,,,,,,0,0,0,-70.00,75.00,1293.00,-445.00,0.00,1254.00,17,251.00,39.00,1381.50,0.00,0.00,-39.00,0,,,100,100,0,2,0,0,0,2,2,,,,,0.0,0.0,0.0,0.0,0.0,0.0,0
55.952637,-4.403256,25.50,0.00,3.90,138.44,25.50,25.50,4.21,138.44,8588,2022-10-02 09:44:12.678,2022-10-02 10:44:12.678,18,0,0,15.739,55.952636,-4.403293,0.00,0.00,-3.90,7.00,7.80,129.40,0,1,0,89,100,-10371,2963,15739,2982.50,13,Joystick,1,0,0,0,0,0,-660,1664703852678,3965,3931,3920,3894,0,0,27,,,,,,,0,0,0,-70.00,78.00,1294.00,-468.00,0.00,1256.00,17,255.00,39.00,1384.39,0.00,0.00,-39.00,0,,,100,100,0,2,0,0,0,2,2,,,,,0.0,0.0,0.0,0.0,0.0,0.0,0
55.952637,-4.403256,25.90,0.00,3.90,138.74,25.90,25.90,4.21,138.74,8697,2022-10-02 09:44:12.787,2022-10-02 10:44:12.787,18,0,0,15.739,55.952636,-4.403293,0.00,0.00,-3.90,6.90,7.70,129.50,0,1,0,89,100,-10371,2963,15739,2982.50,13,Joystick,1,0,0,0,0,0,-660,1664703852787,3965,3931,3920,3894,0,0,27,,,,,,,0,0,0,-69.00,77.00,1295.00,-492.00,0.00,1258.00,17,259.00,39.00,1387.36,0.00,0.00,-39.00,0,,,100,100,0,2,0,0,0,2,2,,,,,0.0,0.0,0.0,0.0,0.0,0.0,0
55.952637,-4.403256,26.30,0.00,3.90,139.02,26.30,26.30,4.21,139.02,8792,2022-10-02 09:44:12.883,2022-10-02 10:44:12.883,18,0,0,15.739,55.952636,-4.403293,0.00,0.00,-3.90,6.60,7.70,129.70,0,1,0,89,100,-10371,2963,15739,2982.50,13,Joystick,1,0,0,0,0,0,-660,1664703852882,3965,3931,3920,3894,0,0,27,,,,,,,0,0,0,-66.00,77.00,1297.00,-515.00,0.00,1259.00,17,263.00,39.00,1390.17,0.00,0.00,-39.00,0,,,100,100,0,2,0,0,0,2,2,,,,,0.0,0.0,0.0,0.0,0.0,0.0,0
55.952637,-4.403256,26.70,0.00,3.90,139.32,26.70,26.70,4.21,139.32,8891,2022-10-02 09:44:12.981,2022-10-02 10:44:12.981,18,0,0,15.739,55.952636,-4.403293,0.00,0.00,-3.90,6.10,7.60,129.70,0,1,0,89,100,-10371,2963,15739,2982.50,13,Joystick,1,0,0,0,0,0,-660,1664703852981,3965,3931,3920,3894,0,0,27,,,,,,,0,0,0,-61.00,76.00,1297.00,-539.00,0.00,1261.00,17,267.00,39.00,1393.15,0.00,0.00,-39.00,0,,,100,100,0,2,0,0,0,2,2,,,,,0.0,0.0,0.0,0.0,0.0,0.0,0
55.952637,-4.403256,27.10,0.00,3.90,139.61,27.10,27.10,4.21,139.61,8992,2022-10-02 09:44:13.082,2022-10-02 10:44:13.082,18,0,0,15.739,55.952636,-4.403293,0.00,0.00,-3.90,5.50,7.10,129.70,0,1,0,89,100,-10371,2963,15739,2982.50,13,Joystick,1,0,0,0,0,0,-660,1664703853082,3965,3931,3920,3894,0,0,27,,,,,,,0,0,0,-55.00,71.00,1297.00,-563.00,0.00,1263.00,17,271.00,39.00,1396.12,0.00,0.00,-39.00,0,,,100,100,0,2,0,0,0,2,2,,,,,0.0,0.0,0.0,0.0,0.0,0.0,0
55.952637,-4.403256,27.40,0.00,3.90,139.62,27.40,27.40,4.21,139.62,9096,2022-10-02 09:44:13.187,2022-10-02 10:44:13.186,18,0,0,15.739,55.952636,-4.403293,0.00,0.00,-3.90,5.20,6.90,129.80,0,1,0,89,100,-10371,2963,15739,2982.50,13,Joystick,1,0,0,0,0,0,-660,1664703853186,3965,3931,3920,3894,0,0,27,,,,,,,0,0,0,-52.00,69.00,1298.00,-587.00,0.00,1264.00,17,274.00,39.00,1396.18,0.00,0.00,-39.00,0,,,100,100,0,2,0,0,0,2,2,,,,,0.0,0.0,0.0,0.0,0.0,0.0,0
55.952637,-4.403256,27.90,0.00,4.00,139.92,27.90,27.90,4.21,139.92,9190,2022-10-02 09:44:13.280,2022-10-02 10:44:13.280,18,0,0,15.739,55.952636,-4.403293,0.00,0.00,-4.00,4.40,7.10,129.50,0,1,0,89,100,-10371,2963,15739,2982.50,13,Joystick,1,0,0,0,0,0,-660,1664703853280,3965,3931,3920,3894,0,0,27,,,,,,,0,0,0,-44.00,71.00,1295.00,-610.00,0.00,1266.00,17,279.00,40.00,1399.19,0.00,0.00,-40.00,0,,,100,100,0,2,0,0,0,2,2,,,,,0.0,0.0,0.0,0.0,0.0,0.0,0
55.952637,-4.403256,28.30,0.00,4.00,140.22,28.30,28.30,4.21,140.22,9288,2022-10-02 09:44:13.379,2022-10-02 10:44:13.378,18,0,0,15.739,55.952636,-4.403293,0.00,0.00,-4.00,5.10,6.60,129.60,0,1,0,89,100,-10371,2963,15739,2982.50,13,Joystick,1,0,0,0,0,0,-660,1664703853378,3965,3931,3920,3894,0,0,27,,,,,,,0,0,0,-51.00,66.00,1296.00,-634.00,0.00,1268.00,17,283.00,40.00,1402.20,0.00,0.00,-40.00,0,,,100,100,0,2,0,0,0,2,2,,,,,0.0,0.0,0.0,0.0,0.0,0.0,0
55.952637,-4.403256,28.70,0.00,3.90,140.50,28.70,28.70,4.21,140.50,9388,2022-10-02 09:44:13.479,2022-10-02 10:44:13.478,18,0,0,15.700,55.952636,-4.403293,0.00,-0.10,-3.90,5.30,5.60,129.70,0,1,0,89,100,-10619,2960,15700,2982.50,13,Joystick,1,0,0,0,0,0,-660,1664703853478,3965,3931,3920,3894,0,0,27,,,,,,,0,0,0,-53.00,56.00,1297.00,-657.00,0.00,1269.00,17,287.00,39.01,1405.02,0.00,-1.00,-39.00,0,,,100,100,0,2,0,0,0,2,2,,,,,0.0,0.0,0.0,0.0,0.0,0.0,0
55.952637,-4.403257,29.10,0.00,3.90,140.79,29.10,29.10,4.21,140.79,9496,2022-10-02 09:44:13.586,2022-10-02 10:44:13.586,18,0,0,15.700,55.952636,-4.403293,0.00,0.00,-3.90,5.10,5.20,129.80,0,1,0,89,100,-10619,2960,15700,2982.50,13,Joystick,1,0,0,0,0,0,-660,1664703853586,3965,3931,3920,3894,0,0,27,,,,,,,0,0,0,-51.00,52.00,1298.00,-681.00,0.00,1270.00,17,291.00,39.00,1407.91,0.00,0.00,-39.00,0,,,100,100,0,2,0,0,0,2,2,,,,,0.0,0.0,0.0,0.0,0.0,0.0,0
55.952637,-4.403257,29.40,0.00,3.90,141.38,29.40,29.40,4.21,141.38,9597,2022-10-02 09:44:13.687,2022-10-02 10:44:13.687,18,0,0,15.700,55.952636,-4.403293,-0.10,0.00,-3.90,6.20,4.40,130.00,0,1,0,89,100,-10619,2960,15700,2982.50,13,Joystick,1,0,0,0,0,0,-660,1664703853687,3965,3931,3920,3894,0,0,27,,,,,,,0,0,0,-62.00,44.00,1300.00,-705.00,0.00,1272.00,17,294.00,39.01,1413.85,-1.00,0.00,-39.00,0,,,100,100,0,2,0,0,0,2,2,,,,,0.0,0.0,0.0,0.0,0.0,0.0,0
55.952637,-4.403257,29.90,0.00,3.90,141.38,29.90,29.90,4.21,141.38,9690,2022-10-02 09:44:13.780,2022-10-02 10:44:13.780,18,0,0,15.700,55.952636,-4.403293,0.00,0.00,-3.90,7.20,3.70,130.30,0,1,0,89,100,-10619,2960,15700,2982.50,13,Joystick,1,0,0,0,0,0,-660,1664703853780,3965,3931,3920,3894,0,0,27,,,,,,,0,0,0,-72.00,37.00,1303.00,-728.00,0.00,1273.00,17,299.00,39.00,1413.79,0.00,0.00,-39.00,0,,,100,100,0,2,0,0,0,2,2,,,,,0.0,0.0,0.0,0.0,0.0,0.0,0
55.952637,-4.403257,30.30,0.00,4.00,141.67,30.30,30.30,4.21,141.67,9793,2022-10-02 09:44:13.883,2022-10-02 10:44:13.883,18,0,0,15.700,55.952636,-4.403293,0.00,0.00,-4.00,7.10,4.70,130.50,0,1,0,89,100,-10619,2960,15700,2982.50,13,Joystick,1,0,0,0,0,0,-660,1664703853883,3965,3931,3920,3894,0,0,27,,,,,,,0,0,0,-71.00,47.00,1305.00,-752.00,0.00,1274.00,17,303.00,40.00,1416.69,0.00,0.00,-40.00,0,,,100,100,0,2,0,0,0,2,2,,,,,0.0,0.0,0.0,0.0,0.0,0.0,0
55.952637,-4.403257,30.70,0.00,4.00,141.95,30.70,30.70,4.21,141.95,9896,2022-10-02 09:44:13.987,2022-10-02 10:44:13.986,18,0,0,15.700,55.952636,-4.403293,0.00,0.00,-4.00,6.80,5.90,130.40,0,1,0,89,100,-10619,2960,15700,2982.50,13,Joystick,1,0,0,0,0,0,-660,1664703853986,3965,3931,3920,3894,0,0,27,,,,,,,0,0,0,-68.00,59.00,1304.00,-775.00,0.00,1276.00,17,307.00,40.00,1419.52,0.00,0.00,-40.00,0,,,100,100,0,2,0,0,0,2,2,,,,,0.0,0.0,0.0,0.0,0.0,0.0,0
55.952637,-4.403257,31.10,0.00,4.00,142.24,31.10,31.10,4.21,142.24,9997,2022-10-02 09:44:14.087,2022-10-02 10:44:14.087,18,0,0,15.700,55.952636,-4.403293,0.00,0.00,-4.00,7.10,6.30,130.60,0,1,0,89,100,-10619,2960,15700,2982.50,13,Joystick,1,0,0,0,0,0,-660,1664703854087,3965,3931,3920,3894,0,0,27,,,,,,,0,0,0,-71.00,63.00,1306.00,-799.00,0.00,1277.00,17,311.00,40.00,1422.38,0.00,0.00,-40.00,0,,,100,100,0,2,0,0,0,2,2,,,,,0.0,0.0,0.0,0.0,0.0,0.0,0
55.952636,-4.403257,31.50,0.00,4.00,142.52,31.50,31.50,4.21,142.52,10098,2022-10-02 09:44:14.188,2022-10-02 10:44:14.188,18,0,0,15.700,55.952636,-4.403293,0.00,0.00,-4.00,7.20,5.40,130.70,0,1,0,89,100,-10619,2960,15700,2982.50,13,Joystick,1,0,0,0,0,0,-660,1664703854188,3965,3931,3920,3894,0,0,27,,,,,,,0,0,0,-72.00,54.00,1307.00,-823.00,0.00,1279.00,17,315.00,40.00,1425.22,0.00,0.00,-40.00,0,,,100,100,0,2,0,0,0,2,2,,,,,0.0,0.0,0.0,0.0,0.0,0.0,0
55.952636,-4.403257,31.90,0.00,4.00,142.81,31.90,31.90,4.21,142.81,10194,2022-10-02 09:44:14.285,2022-10-02 10:44:14.284,18,0,0,15.700,55.952636,-4.403293,0.00,0.00,-4.00,7.00,4.70,130.70,0,1,0,89,100,-10619,2960,15700,2982.50,13,Joystick,1,0,0,0,0,0,-660,1664703854284,3965,3931,3920,3894,0,0,27,,,,,,,0,0,0,-70.00,47.00,1307.00,-847.00,0.00,1280.00,17,319.00,40.00,1428.07,0.00,0.00,-40.00,0,,,100,100,0,2,0,0,0,2,2,,,,,0.0,0.0,0.0,0.0,0.0,0.0,0
55.952636,-4.403257,32.30,0.00,4.00,143.10,32.30,32.30,4.21,143.10,10299,2022-10-02 09:44:14.389,2022-10-02 10:44:14.389,18,0,0,15.700,55.952636,-4.403293,0.00,0.00,-4.00,7.00,5.00,130.70,0,1,0,89,100,-10619,2960,15700,2982.50,13,Joystick,1,0,0,0,0,0,-660,1664703854389,3965,3931,3920,3894,0,0,27,,,,,,,0,0,0,-70.00,50.00,1307.00,-870.00,0.00,1281.00,17,323.00,40.00,1431.03,0.00,0.00,-40.00,0,,,100,100,0,2,0,0,0,2,2,,,,,0.0,0.0,0.0,0.0,0.0,0.0,0
55.952636,-4.403257,32.70,0.00,4.00,143.39,32.70,32.70,4.21,143.39,10398,2022-10-02 09:44:14.489,2022-10-02 10:44:14.488,18,0,0,15.626,55.952636,-4.403293,0.00,0.00,-4.00,7.10,5.50,130.70,0,1,0,89,100,-10880,2957,15626,2983.50,13,Joystick,1,0,0,0,0,0,-660,1664703854488,3965,3931,3920,3894,0,0,27,,,,,,,0,0,0,-71.00,55.00,1307.00,-894.00,0.00,1282.00,17,327.00,40.00,1433.92,0.00,0.00,-40.00,0,,,100,100,0,2,0,0,0,2,2,,,,,0.0,0.0,0.0,0.0,0.0,0.0,0
55.952636,-4.403257,33.10,0.00,4.00,143.68,33.10,33.10,4.21,143.68,10496,2022-10-02 09:44:14.586,2022-10-02 10:44:14.586,18,0,0,15.626,55.952636,-4.403293,0.00,0.00,-4.00,7.20,5.80,130.80,0,1,0,89,100,-10880,2957,15626,2983.50,13,Joystick,1,0,0,0,0,0,-660,1664703854586,3965,3931,3920,3894,0,0,27,,,,,,,0,0,0,-72.00,58.00,1308.00,-899.00,0.00,1283.00,17,331.00,40.00,1436.81,0.00,0.00,-40.00,0,,,100,100,0,2,0,0,0,2,2,,,,,0.0,0.0,0.0,0.0,0.0,0.0,0
55.952636,-4.403257,33.50,0.00,4.00,121.31,33.50,33.50,4.21,143.68,10598,2022-10-02 09:44:14.689,2022-10-02 10:44:14.688,18,0,0,15.626,55.952636,-4.403293,0.00,0.00,-4.00,7.30,6.40,130.80,0,1,0,89,100,-10880,2957,15626,2983.50,13,Joystick,1,0,0,0,0,0,-660,1664703854688,3965,3931,3920,3894,0,0,27,,,,,,,0,0,0,-73.00,64.00,1308.00,-899.00,0.00,1284.00,17,335.00,40.00,1213.07,0.00,0.00,-40.00,0,,,100,100,0,2,0,0,0,2,2,,,,,0.0,0.0,0.0,0.0,0.0,0.0,0
55.952636,-4.403257,33.90,0.00,4.00,121.54,33.90,33.90,4.21,143.68,10697,2022-10-02 09:44:14.787,2022-10-02 10:44:14.787,18,0,0,15.626,55.952636,-4.403293,0.00,0.00,-4.00,7.40,6.80,130.90,0,1,0,89,100,-10880,2957,15626,2983.50,13,Joystick,1,0,0,0,0,0,-660,1664703854787,3965,3931,3920,3894,0,0,27,,,,,,,0,0,0,-74.00,68.00,1309.00,-899.00,0.00,1285.00,17,339.00,40.00,1215.41,0.00,0.00,-40.00,0,,,100,100,0,2,0,0,0,2,2,,,,,0.0,0.0,0.0,0.0,0.0,0.0,0
55.952636,-4.403257,34.30,0.00,4.00,121.52,34.30,34.30,4.21,143.68,10797,2022-10-02 09:44:14.887,2022-10-02 10:44:14.887,18,0,0,15.626,55.952636,-4.403293,0.00,0.00,-4.00,7.30,6.90,131.00,0,1,0,89,100,-10880,2957,15626,2983.50,13,Joystick,1,0,0,0,0,0,-660,1664703854887,3965,3931,3920,3894,0,0,27,,,,,,,0,0,0,-73.00,69.00,1310.00,-899.00,0.00,1286.00,17,343.00,40.00,1215.24,0.00,0.00,-40.00,0,,,100,100,0,2,0,0,0,2,2,,,,,0.0,0.0,0.0,0.0,0.0,0.0,0
55.952636,-4.403257,34.70,0.00,4.00,121.76,34.70,34.70,4.21,143.68,10896,2022-10-02 09:44:14.987,2022-10-02 10:44:14.986,18,0,0,15.626,55.952636,-4.403293,0.00,0.00,-4.00,7.30,6.90,131.00,0,1,0,89,100,-10880,2957,15626,2983.50,13,Joystick,1,0,0,0,0,0,-562,1664703854986,3965,3931,3920,3894,0,0,27,,,,,,,0,0,0,-73.00,69.00,1310.00,-899.00,0.00,1287.00,17,347.00,40.00,1217.58,0.00,0.00,-40.00,0,,,100,100,0,2,0,0,0,2,2,,,,,0.0,0.0,0.0,0.0,0.0,0.0,0
55.952636,-4.403257,35.10,0.00,4.00,122.00,35.10,35.10,4.21,143.68,10991,2022-10-02 09:44:15.082,2022-10-02 10:44:15.081,18,0,0,15.626,55.952636,-4.403293,0.00,0.00,-4.00,7.30,7.20,131.00,0,1,0,89,100,-10880,2957,15626,2983.50,13,Joystick,1,0,0,0,0,0,0,1664703855081,3965,3931,3920,3894,0,0,27,,,,,,,0,0,0,-73.00,72.00,1310.00,-899.00,0.00,1288.00,17,351.00,40.00,1220.04,0.00,0.00,-40.00,0,,,100,100,0,2,0,0,0,2,2,,,,,0.0,0.0,0.0,0.0,0.0,0.0,0
55.952636,-4.403257,35.50,0.00,4.00,122.24,35.50,35.50,4.21,143.68,11089,2022-10-02 09:44:15.180,2022-10-02 10:44:15.179,18,0,0,15.626,55.952636,-4.403293,0.00,0.00,-4.00,7.40,7.10,131.20,0,1,0,89,100,-10880,2957,15626,2983.50,13,Joystick,1,0,0,0,0,0,0,1664703855179,3965,3931,3920,3894,0,0,27,,,,,,,0,0,0,-74.00,71.00,1312.00,-899.00,0.00,1289.00,17,355.00,40.00,1222.42,0.00,0.00,-40.00,0,,,100,100,0,2,0,0,0,2,2,,,,,0.0,0.0,0.0,0.0,0.0,0.0,0
55.952636,-4.403256,35.90,0.00,4.00,122.48,35.90,35.90,4.21,143.68,11198,2022-10-02 09:44:15.288,2022-10-02 10:44:15.288,18,0,0,15.626,55.952636,-4.403293,0.00,0.00,-4.00,7.60,7.00,131.40,0,1,0,89,100,-10880,2957,15626,2983.50,13,Joystick,1,0,0,0,0,0,0,1664703855288,3965,3931,3920,3894,0,0,27,,,,,,,0,0,0,-76.00,70.00,1314.00,-888.00,0.00,1289.00,17,359.00,40.00,1224.75,0.00,0.00,-40.00,0,,,100,100,0,2,0,0,0,2,2,,,,,0.0,0.0,0.0,0.0,0.0,0.0,0
55.952636,-4.403256,36.30,0.00,4.00,122.71,36.30,36.30,4.21,143.68,11292,2022-10-02 09:44:15.383,2022-10-02 10:44:15.382,18,0,0,15.626,55.952636,-4.403293,0.00,0.00,-4.00,8.20,7.10,131.50,0,1,0,89,100,-10880,2957,15626,2983.50,13,Joystick,1,0,0,0,0,0,-116,1664703855382,3965,3931,3920,3894,0,0,27,,,,,,,0,0,0,-82.00,71.00,1315.00,-864.00,0.00,1290.00,17,363.00,40.00,1227.09,0.00,0.00,-40.00,0,,,100,100,0,2,0,0,0,2,2,,,,,0.0,0.0,0.0,0.0,0.0,0.0,0
55.952636,-4.403256,36.70,0.00,3.90,122.94,36.70,36.70,4.21,143.68,11393,2022-10-02 09:44:15.483,2022-10-02 10:44:15.483,18,0,0,15.688,55.952636,-4.403293,0.00,0.00,-3.90,8.30,6.70,131.60,0,1,0,88,100,-10232,2954,15688,2983.50,13,Joystick,1,0,0,0,0,0,-649,1664703855483,3965,3931,3920,3894,0,0,27,,,,,,,0,0,0,-83.00,67.00,1316.00,-832.00,0.00,1291.00,17,367.00,39.00,1229.38,0.00,0.00,-39.00,0,,,100,100,0,2,0,0,0,2,2,,,,,0.0,0.0,0.0,0.0,0.0,0.0,0
55.952636,-4.403256,37.10,0.00,4.00,123.17,37.10,37.10,4.21,143.68,11490,2022-10-02 09:44:15.580,2022-10-02 10:44:15.580,18,0,0,15.688,55.952636,-4.403293,0.00,0.00,-4.00,8.20,6.60,131.70,0,1,0,88,100,-10232,2954,15688,2983.50,13,Joystick,1,0,0,0,0,0,-660,1664703855580,3965,3931,3920,3894,0,0,27,,,,,,,0,0,0,-82.00,66.00,1317.00,-804.00,0.00,1292.00,17,371.00,40.00,1231.72,0.00,0.00,-40.00,0,,,100,100,0,2,0,0,0,2,2,,,,,0.0,0.0,0.0,0.0,0.0,0.0,0
55.952636,-4.403256,37.50,0.00,4.00,123.40,37.50,37.50,4.21,143.68,11593,2022-10-02 09:44:15.684,2022-10-02 10:44:15.683,18,0,0,15.688,55.952636,-4.403293,0.00,0.00,-4.00,8.50,6.70,131.80,0,1,0,88,100,-10232,2954,15688,2983.50,13,Joystick,1,0,0,0,0,0,-660,1664703855683,3965,3931,3920,3894,0,0,27,,,,,,,0,0,0,-85.00,67.00,1318.00,-781.00,0.00,1293.00,17,375.00,40.00,1233.98,0.00,0.00,-40.00,0,,,100,100,0,2,0,0,0,2,2,,,,,0.0,0.0,0.0,0.0,0.0,0.0,0
55.952636,-4.403256,37.90,0.00,4.00,123.88,37.90,37.90,4.21,143.68,11696,2022-10-02 09:44:15.787,2022-10-02 10:44:15.786,18,0,0,15.688,55.952636,-4.403293,0.00,0.00,-3.90,8.70,6.90,131.90,0,1,0,88,100,-10232,2954,15688,2983.50,13,Joystick,1,0,0,0,0,0,-660,1664703855786,3965,3931,3920,3894,0,0,27,,,,,,,0,0,0,-87.00,69.00,1319.00,-763.00,0.00,1294.00,17,379.00,40.00,1238.77,0.00,0.00,-39.00,0,,,100,100,0,2,0,0,0,2,2,,,,,0.0,0.0,0.0,0.0,0.0,0.0,0
55.952636,-4.403256,38.30,0.00,3.90,123.88,38.30,38.30,4.21,143.68,11801,2022-10-02 09:44:15.891,2022-10-02 10:44:15.891,18,0,0,15.688,55.952636,-4.403293,0.00,0.00,-3.90,8.60,7.30,131.90,0,1,0,88,100,-10232,2954,15688,2983.50,13,Joystick,1,0,0,0,0,0,-660,1664703855891,3965,3931,3920,3894,0,0,27,,,,,,,0,0,0,-86.00,73.00,1319.00,-751.00,0.00,1294.00,17,383.00,39.00,1238.79,0.00,0.00,-39.00,0,,,100,100,0,2,0,0,0,2,2,,,,,0.0,0.0,0.0,0.0,0.0,0.0,0
55.952636,-4.403256,38.70,0.00,3.90,124.11,38.70,38.70,4.21,143.68,11895,2022-10-02 09:44:15.985,2022-10-02 10:44:15.985,18,0,0,15.688,55.952636,-4.403293,0.00,0.00,-3.90,7.80,7.40,131.80,0,1,0,88,100,-10232,2954,15688,2983.50,13,Joystick,1,0,0,0,0,0,-660,1664703855985,3965,3931,3920,3894,0,0,27,,,,,,,0,0,0,-78.00,74.00,1318.00,-760.00,0.00,1295.00,17,387.00,39.00,1241.13,0.00,0.00,-39.00,0,,,100,100,0,2,0,0,0,2,2,,,,,0.0,0.0,0.0,0.0,0.0,0.0,0
55.952636,-4.403256,39.10,0.00,3.90,124.35,39.10,39.10,4.21,143.68,11997,2022-10-02 09:44:16.087,2022-10-02 10:44:16.087,18,0,0,15.688,55.952636,-4.403293,0.00,0.00,-3.90,7.30,7.20,131.80,0,1,0,88,100,-10232,2954,15688,2983.50,13,Joystick,1,0,0,0,0,0,0,1664703856087,3965,3931,3920,3894,0,0,27,,,,,,,0,0,0,-73.00,72.00,1318.00,-783.00,0.00,1296.00,17,391.00,39.00,1243.48,0.00,0.00,-39.00,0,,,100,100,0,2,0,0,0,2,2,,,,,0.0,0.0,0.0,0.0,0.0,0.0,0
55.952636,-4.403256,39.50,0.00,4.00,124.59,39.50,39.50,4.21,143.68,12098,2022-10-02 09:44:16.189,2022-10-02 10:44:16.188,18,0,0,15.688,55.952636,-4.403293,0.00,0.00,-4.00,7.10,7.20,131.80,0,1,0,88,100,-10232,2954,15688,2983.50,13,Joystick,1,0,0,0,0,0,0,1664703856188,3965,3931,3920,3894,0,0,27,,,,,,,0,0,0,-71.00,72.00,1318.00,-798.00,0.00,1297.00,17,395.00,40.00,1245.92,0.00,0.00,-40.00,0,,,100,100,0,2,0,0,0,2,2,,,,,0.0,0.0,0.0,0.0,0.0,0.0,0
55.952636,-4.403256,40.00,0.00,4.00,124.59,40.00,40.00,4.21,143.68,12196,2022-10-02 09:44:16.286,2022-10-02 10:44:16.286,18,0,0,15.688,55.952636,-4.403293,0.00,0.00,-4.00,7.10,7.20,131.80,0,1,0,88,100,-10232,2954,15688,2983.50,13,Joystick,1,0,0,0,0,0,0,1664703856286,3965,3931,3920,3894,0,0,27,,,,,,,0,0,0,-71.00,72.00,1318.00,-777.00,0.00,1297.00,17,400.00,40.00,1245.91,0.00,0.00,-40.00,0,,,100,100,0,2,0,0,0,2,2,,,,,0.0,0.0,0.0,0.0,0.0,0.0,0
55.952636,-4.403256,40.40,0.00,4.00,124.83,40.40,40.40,4.21,143.68,12295,2022-10-02 09:44:16.385,2022-10-02 10:44:16.385,18,0,0,15.688,55.952636,-4.403293,0.00,0.00,-4.00,7.70,7.20,131.80,0,1,0,88,100,-10232,2954,15688,2983.50,13,Joystick,1,0,0,0,0,0,0,1664703856385,3965,3931,3920,3894,0,0,27,,,,,,,0,0,0,-77.00,72.00,1318.00,-746.00,0.00,1298.00,17,404.00,40.00,1248.34,0.00,0.00,-40.00,0,,,100,100,0,2,0,0,0,2,2,,,,,0.0,0.0,0.0,0.0,0.0,0.0,0
55.952636,-4.403256,40.80,0.00,4.00,125.09,40.80,40.80,4.21,143.68,12387,2022-10-02 09:44:16.478,2022-10-02 10:44:16.477,18,0,0,15.662,55.952636,-4.403293,0.00,0.00,-4.00,8.10,6.90,132.00,0,1,0,88,100,-10167,2951,15662,2983.50,13,Joystick,1,0,0,0,0,0,0,1664703856477,3965,3931,3920,3894,0,0,27,,,,,,,0,0,0,-81.00,69.00,1320.00,-707.00,0.00,1299.00,17,408.00,40.00,1250.89,0.00,0.00,-40.00,0,,,100,100,0,2,0,0,0,2,2,,,,,0.0,0.0,0.0,0.0,0.0,0.0,0
55.952636,-4.403256,41.20,0.00,4.00,125.33,41.20,41.20,4.21,143.68,12494,2022-10-02 09:44:16.584,2022-10-02 10:44:16.584,18,0,0,15.662,55.952636,-4.403293,0.00,0.00,-4.00,7.90,7.00,132.00,0,1,0,88,100,-10167,2951,15662,2983.50,13,Joystick,1,0,0,0,0,0,0,1664703856584,3965,3931,3920,3894,0,0,27,,,,,,,0,0,0,-79.00,70.00,1320.00,-661.00,0.00,1299.00,17,412.00,40.00,1253.27,0.00,0.00,-40.00,0,,,100,100,0,2,0,0,0,2,2,,,,,0.0,0.0,0.0,0.0,0.0,0.0,0
55.952636,-4.403256,41.50,0.00,4.00,125.59,41.50,41.50,4.21,143.68,12598,2022-10-02 09:44:16.688,2022-10-02 10:44:16.688,18,0,0,15.662,55.952636,-4.403293,0.00,0.00,-4.00,7.70,7.30,131.90,0,1,0,88,100,-10167,2951,15662,2983.50,13,Joystick,1,0,0,0,0,0,0,1664703856688,3965,3931,3920,3894,0,0,27,,,,,,,0,0,0,-77.00,73.00,1319.00,-614.00,0.00,1300.00,17,415.00,40.00,1255.87,0.00,0.00,-40.00,0,,,100,100,0,2,0,0,0,2,2,,,,,0.0,0.0,0.0,0.0,0.0,0.0,0
55.952636,-4.403256,42.00,0.00,4.00,126.07,42.00,42.00,4.21,143.68,12697,2022-10-02 09:44:16.787,2022-10-02 10:44:16.787,18,0,0,15.662,55.952636,-4.403293,0.00,0.00,-4.00,7.30,7.60,131.90,0,1,0,88,100,-10167,2951,15662,2983.50,13,Joystick,1,0,0,0,0,0,0,1664703856787,3965,3931,3920,3894,0,0,27,,,,,,,0,0,0,-73.00,76.00,1319.00,-565.00,0.00,1300.00,17,420.00,40.00,1260.68,0.00,0.00,-40.00,0,,,100,100,0,2,0,0,0,2,2,,,,,0.0,0.0,0.0,0.0,0.0,0.0,0
55.952636,-4.403256,42.40,0.00,4.00,126.07,42.40,42.40,4.21,143.68,12791,2022-10-02 09:44:16.881,2022-10-02 10:44:16.881,18,0,0,15.662,55.952636,-4.403293,0.00,0.00,-4.00,7.10,7.80,131.90,0,1,0,88,100,-10167,2951,15662,2983.50,13,Joystick,1,0,0,0,0,0,0,1664703856881,3965,3931,3920,3894,0,0,27,,,,,,,0,0,0,-71.00,78.00,1319.00,-514.00,0.00,1301.00,17,424.00,40.00,1260.68,0.00,0.00,-40.00,0,,,100,100,0,2,0,0,0,2,2,,,,,0.0,0.0,0.0,0.0,0.0,0.0,0
55.952636,-4.403256,42.80,0.00,4.00,126.31,42.80,42.80,4.21,143.68,12897,2022-10-02 09:44:16.988,2022-10-02 10:44:16.987,18,0,0,15.662,55.952636,-4.403293,0.00,0.00,-4.00,7.30,7.90,131.80,0,1,0,88,100,-10167,2951,15662,2983.50,13,Joystick,1,0,0,0,0,0,0,1664703856987,3965,3931,3920,3894,0,0,27,,,,,,,0,0,0,-73.00,79.00,1318.00,-463.00,0.00,1301.00,17,428.00,40.00,1263.09,0.00,0.00,-40.00,0,,,100,100,0,2,0,0,0,2,2,,,,,0.0,0.0,0.0,0.0,0.0,0.0,0
55.952637,-4.403256,43.20,0.00,4.00,126.56,43.20,43.20,4.21,143.68,12988,2022-10-02 09:44:17.078,2022-10-02 10:44:17.078,18,0,0,15.662,55.952636,-4.403293,0.00,0.00,-4.00,7.50,8.10,131.80,0,1,0,88,100,-10167,2951,15662,2983.50,13,Joystick,1,0,0,0,0,0,0,1664703857078,3965,3931,3920,3894,0,0,27,,,,,,,0,0,0,-75.00,81.00,1318.00,-412.00,0.00,1302.00,17,432.00,40.00,1265.64,0.00,0.00,-40.00,0,,,100,100,0,2,0,0,0,2,2,,,,,0.0,0.0,0.0,0.0,0.0,0.0,0
55.952637,-4.403256,43.60,0.00,3.90,126.81,43.60,43.60,4.21,143.68,13087,2022-10-02 09:44:17.178,2022-10-02 10:44:17.177,18,0,0,15.662,55.952636,-4.403293,0.00,0.00,-3.90,7.30,8.00,131.80,0,1,0,88,100,-10167,2951,15662,2983.50,13,Joystick,1,0,0,0,0,0,0,1664703857177,3941,3914,3910,3897,0,0,27,,,,,,,0,0,0,-73.00,80.00,1318.00,-362.00,0.00,1302.00,17,436.00,39.00,1268.11,0.00,0.00,-39.00,0,,,100,100,0,2,0,0,0,2,2,,,,,0.0,0.0,0.0,0.0,0.0,0.0,0
55.952637,-4.403256,44.00,0.00,3.90,127.05,44.00,44.00,4.21,143.68,13189,2022-10-02 09:44:17.279,2022-10-02 10:44:17.279,18,0,0,15.662,55.952636,-4.403293,0.00,0.00,-3.90,7.30,7.90,131.80,0,1,0,88,100,-10167,2951,15662,2983.50,13,Joystick,1,0,0,0,0,0,0,1664703857279,3941,3914,3910,3897,0,0,27,,,,,,,0,0,0,-73.00,79.00,1318.00,-315.00,0.00,1303.00,17,440.00,39.00,1270.46,0.00,0.00,-39.00,0,,,100,100,0,2,0,0,0,2,2,,,,,0.0,0.0,0.0,0.0,0.0,0.0,0
55.952637,-4.403256,44.30,0.00,3.90,127.29,44.30,44.30,4.21,143.68,13287,2022-10-02 09:44:17.377,2022-10-02 10:44:17.377,18,0,0,15.662,55.952636,-4.403293,0.00,0.00,-3.90,7.60,7.50,131.90,0,1,0,88,100,-10167,2951,15662,2983.50,13,Joystick,1,0,0,0,0,0,0,1664703857377,3941,3914,3910,3897,0,0,27,,,,,,,0,0,0,-76.00,75.00,1319.00,-271.00,0.00,1303.00,17,443.00,39.00,1272.88,0.00,0.00,-39.00,0,,,100,100,0,2,0,0,0,2,2,,,,,0.0,0.0,0.0,0.0,0.0,0.0,0
55.952637,-4.403256,44.80,0.00,3.90,127.54,44.80,44.80,4.21,143.68,13390,2022-10-02 09:44:17.480,2022-10-02 10:44:17.480,18,0,0,15.694,55.952636,-4.403293,0.00,0.00,-3.90,7.50,7.10,131.90,0,1,0,88,100,-9765,2948,15694,2984.50,13,Joystick,1,0,0,0,0,0,0,1664703857480,3941,3914,3910,3897,0,0,27,,,,,,,0,0,0,-75.00,71.00,1319.00,-231.00,0.00,1304.00,17,448.00,39.00,1275.39,0.00,0.00,-39.00,0,,,100,100,0,2,0,0,0,2,2,,,,,0.0,0.0,0.0,0.0,0.0,0.0,0
