latitude,longitude,altitude(m),ultrasonicHeight(m),speed(mps),distance(m),max_altitude(m),max_ascent(m),max_speed(mps),max_distance(m),time(millisecond),datetime(utc),datetime(local),satellites,pressure(Pa),temperature(F),voltage(v),home_latitude,home_longitude,velocityX(mps),velocityY(mps),velocityZ(mps),pitch(deg),roll(deg),yaw(deg),powerlevel,isflying,istakingphoto,remainPowerPercent,remainLifePercent,currentCurrent,currentElectricity,currentVoltage,batteryTemperature,dischargeCount,flightmode,isMotorsOn,isTakingVideo,Rc_elevator,Rc_aileron,Rc_throttle,Rc_rudder,Rc_gyro,timestamp,Battery_Cell1,Battery_Cell2,Battery_Cell3,Battery_Cell4,Battery_Cell5,Battery_Cell6,Dronetype,AppVersion,Planename,FlyControllerSerialNumber,RemoteSerialNumber,BatterySerialNumber,CENTER_BATTERY.productDate,CENTER_BATTERY.serialNo,CENTER_BATTERY.fullCapacity,CENTER_BATTERY.productDateRaw,pitchRaw,rollRaw,yawRaw,gimbalPitchRaw,gimbalRollRaw,gimbalYawRaw,flyState,altitudeRaw,speedRaw,distanceRaw,velocityXRaw,velocityYRaw,velocityZRaw,data_reuse,App_Tip,App_Warning,downlinkSignalQuality,uplinkSignalQuality,transmissionChannel,rcModeSwitch,rcHome,rcPause,rcTransform,rcJoystickMode,appMode,FlyControllerSerialNumber_legacy,RemoteSerialNumber_legacy,BatterySerialNumber_legacy,Battery2SerialNumber,frontAvoidDist,backAvoidDist,rightAvoidDist,leftAvoidDist,upAvoidDist,downAvoidDist,isBrakingToAvoid
55.936287,-4.407664,0.30,0.40,0.51,0.29,0.30,0.30,0.51,0.29,0,2022-04-18 09:48:43.350,2022-04-18 10:48:43.350,18,0,0,16.932,55.936289,-4.407668,-0.10,0.30,-0.40,3.80,4.10,162.30,0,1,0,94,100,-1821,3192,16932,2944.50,6,P-GPS,1,0,0,0,302,0,0,1650275323350,4247,4223,4233,4228,0,0,27,Litchi_4.22.2-g,CJTMAVIC,163DFAS001K45C,0VECFAK0072T52,0P2AFAL5340E87,,0,0,0,-38.00,41.00,1623.00,0.00,0.00,1624.00,6,3.00,5.10,2.94,-1.00,3.00,-4.00,0,,,100,100,0,2,0,0,0,2,0,,,,null,0.0,5.2,0.0,0.0,0.0,0.0,0
55.936287,-4.407664,0.40,0.40,0.59,0.33,0.40,0.40,0.59,0.33,98,2022-04-18 09:48:43.449,2022-04-18 10:48:43.449,18,0,0,16.932,55.936289,-4.407668,-0.10,0.30,-0.50,3.80,4.70,162.30,0,1,0,94,100,-1821,3192,16932,2944.50,6,P-GPS,1,0,0,0,303,0,0,1650275323448,4247,4223,4233,4228,0,0,27,,,,,,,0,0,0,-38.00,47.00,1623.00,0.00,0.00,1624.00,6,4.00,5.92,3.30,-1.00,3.00,-5.00,0,,,100,100,0,2,0,0,0,2,0,,,,,0.0,5.2,0.0,0.0,0.0,0.0,0
55.936287,-4.407663,0.40,0.50,0.68,0.37,0.40,0.40,0.68,0.37,196,2022-04-18 09:48:43.547,2022-04-18 10:48:43.546,18,0,0,16.932,55.936289,-4.407668,-0.10,0.30,-0.60,3.90,4.80,162.30,0,1,0,94,100,-1821,3192,16932,2944.50,6,P-GPS,1,0,0,0,303,0,0,1650275323546,4247,4223,4233,4228,0,0,27,,,,,,,0,0,0,-39.00,48.00,1623.00,0.00,0.00,1624.00,6,4.00,6.78,3.70,-1.00,3.00,-6.00,0,,,100,100,0,2,0,0,0,2,0,,,,,0.0,5.2,0.0,0.0,0.0,0.0,0
55.936287,-4.407663,0.50,0.50,0.68,0.41,0.50,0.50,0.68,0.41,296,2022-04-18 09:48:43.646,2022-04-18 10:48:43.646,18,0,0,16.370,55.936289,-4.407668,-0.10,0.30,-0.60,4.10,5.00,162.30,0,1,0,94,100,-5114,3190,16370,2944.50,6,P-GPS,1,0,0,0,303,0,0,1650275323646,4247,4223,4233,4228,0,0,27,,,,,,,0,0,0,-41.00,50.00,1623.00,0.00,0.00,1624.00,6,5.00,6.78,4.06,-1.00,3.00,-6.00,0,,,100,100,0,2,0,0,0,2,0,,,,,0.0,5.3,0.0,0.0,0.0,0.0,0
55.936287,-4.407662,0.60,0.60,0.77,0.44,0.60,0.60,0.77,0.44,402,2022-04-18 09:48:43.752,2022-04-18 10:48:43.752,18,0,0,16.370,55.936289,-4.407668,-0.10,0.30,-0.70,4.30,4.90,162.40,0,1,0,94,100,-5114,3190,16370,2944.50,6,P-GPS,1,0,0,0,303,0,0,1650275323752,4247,4223,4233,4228,0,0,27,,,,,,,0,0,0,-43.00,49.00,1624.00,0.00,0.00,1624.00,6,6.00,7.68,4.43,-1.00,3.00,-7.00,0,,,100,100,0,2,0,0,0,2,0,,,,,0.0,5.3,0.0,0.0,0.0,0.0,0
55.936287,-4.407662,0.60,0.70,0.73,0.48,0.60,0.60,0.77,0.48,503,2022-04-18 09:48:43.853,2022-04-18 10:48:43.853,18,0,0,16.370,55.936289,-4.407668,-0.10,0.20,-0.70,4.50,4.80,162.30,0,1,0,94,100,-5114,3190,16370,2944.50,6,P-GPS,1,0,0,0,303,0,0,1650275323853,4247,4223,4233,4228,0,0,27,,,,,,,0,0,0,-45.00,48.00,1623.00,0.00,0.00,1624.00,6,6.00,7.35,4.76,-1.00,2.00,-7.00,0,,,100,100,0,2,0,0,0,2,0,,,,,0.0,5.3,0.0,0.0,0.0,0.0,0
55.936286,-4.407661,0.70,0.70,0.73,0.52,0.70,0.70,0.77,0.52,601,2022-04-18 09:48:43.952,2022-04-18 10:48:43.951,18,0,0,16.370,55.936289,-4.407668,-0.10,0.20,-0.70,4.20,4.90,162.30,0,1,0,94,100,-5114,3190,16370,2944.50,6,P-GPS,1,0,0,0,308,0,0,1650275323951,4247,4223,4233,4228,0,0,27,,,,,,,0,0,0,-42.00,49.00,1623.00,0.00,0.00,1624.00,6,7.00,7.35,5.23,-1.00,2.00,-7.00,0,,,100,100,0,2,0,0,0,2,0,,,,,0.0,5.3,0.0,0.0,0.0,0.0,0
55.936286,-4.407660,0.80,0.80,0.83,0.56,0.80,0.80,0.83,0.56,698,2022-04-18 09:48:44.049,2022-04-18 10:48:44.048,18,0,0,16.370,55.936289,-4.407668,-0.10,0.20,-0.80,4.20,4.90,162.40,0,1,0,94,100,-5114,3190,16370,2944.50,6,P-GPS,1,0,0,0,309,0,0,1650275324048,4247,4223,4233,4228,0,0,27,,,,,,,0,0,0,-42.00,49.00,1624.00,0.00,0.00,1624.00,6,8.00,8.31,5.56,-1.00,2.00,-8.00,0,,,100,100,0,2,0,0,0,2,0,,,,,0.0,5.3,0.0,0.0,0.0,0.0,0
55.936286,-4.407660,0.90,0.90,0.73,0.59,0.90,0.90,0.83,0.59,797,2022-04-18 09:48:44.148,2022-04-18 10:48:44.147,18,0,0,16.370,55.936289,-4.407668,-0.10,0.20,-0.70,4.60,4.50,162.40,0,1,0,94,100,-5114,3190,16370,2944.50,6,P-GPS,1,0,0,0,310,0,0,1650275324147,4247,4223,4233,4228,0,0,27,,,,,,,0,0,0,-46.00,45.00,1624.00,0.00,0.00,1624.00,6,9.00,7.35,5.88,-1.00,2.00,-7.00,0,,,100,100,0,2,0,0,0,2,0,,,,,0.0,5.3,0.0,0.0,0.0,0.0,0
55.936286,-4.407660,0.90,1.00,0.73,0.62,0.90,0.90,0.83,0.62,899,2022-04-18 09:48:44.250,2022-04-18 10:48:44.249,18,0,0,16.370,55.936289,-4.407668,-0.10,0.20,-0.70,4.80,4.80,162.50,0,1,0,94,100,-5114,3190,16370,2944.50,6,P-GPS,1,0,0,0,310,0,0,1650275324249,4247,4223,4233,4228,0,0,27,,,,,,,0,0,0,-48.00,48.00,1625.00,0.00,0.00,1624.00,6,9.00,7.35,6.20,-1.00,2.00,-7.00,0,,,100,100,0,2,0,0,0,2,0,,,,,0.0,5.4,0.0,0.0,0.0,0.0,0
55.936286,-4.407659,1.00,1.10,0.73,0.63,1.00,1.00,0.83,0.63,1000,2022-04-18 09:48:44.351,2022-04-18 10:48:44.350,18,0,0,16.370,55.936289,-4.407668,-0.10,0.20,-0.70,4.60,4.50,162.50,0,1,0,94,100,-5114,3190,16370,2944.50,6,P-GPS,1,0,0,0,312,0,0,1650275324350,4247,4223,4233,4228,0,0,27,,,,,,,0,0,0,-46.00,45.00,1625.00,0.00,0.00,1624.00,6,10.00,7.35,6.30,-1.00,2.00,-7.00,0,,,100,100,0,2,0,0,0,2,0,,,,,0.0,5.4,0.0,0.0,0.0,0.0,0
55.936286,-4.407659,1.10,1.20,0.73,0.66,1.10,1.10,0.83,0.66,1095,2022-04-18 09:48:44.445,2022-04-18 10:48:44.445,18,0,0,16.370,55.936289,-4.407668,-0.10,0.20,-0.70,4.40,4.90,162.60,0,1,0,94,100,-5114,3190,16370,2944.50,6,P-GPS,1,0,0,0,313,0,0,1650275324445,4247,4223,4233,4228,0,0,27,,,,,,,0,0,0,-44.00,49.00,1626.00,0.00,0.00,1624.00,6,11.00,7.35,6.58,-1.00,2.00,-7.00,0,,,100,100,0,2,0,0,0,2,0,,,,,0.0,5.4,0.0,0.0,0.0,0.0,0
55.936286,-4.407658,1.20,1.30,0.73,0.69,1.20,1.20,0.83,0.69,1191,2022-04-18 09:48:44.542,2022-04-18 10:48:44.541,18,0,0,16.370,55.936289,-4.407668,0.00,0.20,-0.70,4.20,4.70,162.50,0,1,0,94,100,-5114,3190,16370,2944.50,6,P-GPS,1,0,0,0,321,0,0,1650275324541,4247,4223,4233,4228,0,0,27,,,,,,,0,0,0,-42.00,47.00,1625.00,0.00,0.00,1624.00,6,12.00,7.28,6.86,0.00,2.00,-7.00,0,,,100,100,0,2,0,0,0,2,0,,,,,0.0,5.4,0.0,0.0,0.0,0.0,0
55.936286,-4.407658,1.20,1.40,0.73,0.71,1.20,1.20,0.83,0.71,1293,2022-04-18 09:48:44.643,2022-04-18 10:48:44.643,18,0,0,16.172,55.936289,-4.407668,0.00,0.20,-0.70,4.10,4.80,162.50,0,1,0,94,100,-7259,3188,16172,2944.50,6,P-GPS,1,0,0,0,324,0,0,1650275324643,4247,4223,4233,4228,0,0,27,,,,,,,0,0,0,-41.00,48.00,1625.00,0.00,0.00,1624.00,6,12.00,7.28,7.14,0.00,2.00,-7.00,0,,,100,100,0,2,0,0,0,2,0,,,,,0.0,5.6,0.0,0.0,0.0,0.0,0
55.936286,-4.407658,1.30,1.50,0.82,0.71,1.30,1.30,0.83,0.71,1394,2022-04-18 09:48:44.744,2022-04-18 10:48:44.744,18,0,0,16.172,55.936289,-4.407668,0.00,0.20,-0.80,4.30,4.90,162.50,0,1,0,94,100,-7259,3188,16172,2944.50,6,P-GPS,1,0,0,0,324,0,0,1650275324744,4247,4223,4233,4228,0,0,27,,,,,,,0,0,0,-43.00,49.00,1625.00,0.00,0.00,1624.00,6,13.00,8.25,7.09,0.00,2.00,-8.00,0,,,100,100,0,2,0,0,0,2,0,,,,,0.0,5.6,0.0,0.0,0.0,0.0,0
55.936286,-4.407657,1.40,1.50,0.82,0.73,1.40,1.40,0.83,0.73,1494,2022-04-18 09:48:44.844,2022-04-18 10:48:44.844,18,0,0,16.172,55.936289,-4.407668,0.00,0.20,-0.80,4.50,4.90,162.50,0,1,0,94,100,-7259,3188,16172,2944.50,6,P-GPS,1,0,0,0,324,0,0,1650275324844,4247,4223,4233,4228,0,0,27,,,,,,,0,0,0,-45.00,49.00,1625.00,0.00,0.00,1624.00,6,14.00,8.25,7.33,0.00,2.00,-8.00,0,,,100,100,0,2,0,0,0,2,0,,,,,0.0,5.6,0.0,0.0,0.0,0.0,0
55.936286,-4.407657,1.50,1.60,0.82,0.75,1.50,1.50,0.83,0.75,1594,2022-04-18 09:48:44.945,2022-04-18 10:48:44.944,18,0,0,16.172,55.936289,-4.407668,0.00,0.20,-0.80,4.40,4.80,162.50,0,1,0,94,100,-7259,3188,16172,2944.50,6,P-GPS,1,0,0,0,326,0,0,1650275324944,4247,4223,4233,4228,0,0,27,,,,,,,0,0,0,-44.00,48.00,1625.00,0.00,0.00,1624.00,6,15.00,8.25,7.52,0.00,2.00,-8.00,0,,,100,100,0,2,0,0,0,2,0,,,,,0.0,5.6,0.0,0.0,0.0,0.0,0
55.936286,-4.407657,1.60,1.70,0.82,0.77,1.60,1.60,0.83,0.77,1695,2022-04-18 09:48:45.045,2022-04-18 10:48:45.045,18,0,0,16.172,55.936289,-4.407668,0.00,0.20,-0.80,3.70,4.70,162.50,0,1,0,94,100,-7259,3188,16172,2944.50,6,P-GPS,1,0,0,0,331,0,0,1650275325045,4247,4223,4233,4228,0,0,27,,,,,,,0,0,0,-37.00,47.00,1625.00,0.00,0.00,1624.00,6,16.00,8.25,7.73,0.00,2.00,-8.00,0,,,100,100,0,2,0,0,0,2,0,,,,,0.0,5.4,0.0,0.0,0.0,0.0,0
55.936286,-4.407657,1.60,1.70,0.82,0.77,1.60,1.60,0.83,0.77,1780,2022-04-18 09:48:45.131,2022-04-18 10:48:45.131,18,0,0,16.172,55.936289,-4.407668,0.00,0.20,-0.80,3.70,4.70,162.50,0,1,0,94,100,-7259,3188,16172,2944.50,6,P-GPS,1,0,0,0,335,0,0,1650275325130,4247,4223,4233,4228,0,0,27,,,,,,,0,0,0,-37.00,47.00,1625.00,0.00,0.00,1624.00,6,16.00,8.25,7.73,0.00,2.00,-8.00,0,,,100,100,0,2,0,0,0,2,0,,,,,0.0,5.4,0.0,0.0,0.0,0.0,0
55.936286,-4.407656,1.70,1.90,0.92,0.81,1.70,1.70,0.92,0.81,1892,2022-04-18 09:48:45.243,2022-04-18 10:48:45.242,18,0,0,16.172,55.936289,-4.407668,0.00,0.20,-0.90,3.80,4.60,162.50,0,1,0,94,100,-7259,3188,16172,2944.50,6,P-GPS,1,0,0,0,339,0,0,1650275325242,4247,4223,4233,4228,0,0,27,,,,,,,0,0,0,-38.00,46.00,1625.00,0.00,0.00,1624.00,6,17.00,9.22,8.05,0.00,2.00,-9.00,0,,,100,100,0,2,0,0,0,2,0,,,,,0.0,5.4,0.0,0.0,0.0,0.0,0
55.936286,-4.407656,1.80,2.00,0.92,0.85,1.80,1.80,0.92,0.85,1994,2022-04-18 09:48:45.345,2022-04-18 10:48:45.344,18,0,0,16.172,55.936289,-4.407668,0.00,0.20,-0.90,3.80,4.80,162.50,0,1,0,94,100,-7259,3188,16172,2944.50,6,P-GPS,1,0,0,0,343,0,0,1650275325344,4247,4223,4233,4228,0,0,27,,,,,,,0,0,0,-38.00,48.00,1625.00,0.00,0.00,1624.00,6,18.00,9.22,8.49,0.00,2.00,-9.00,0,,,100,100,0,2,0,0,0,2,0,,,,,0.0,5.4,0.0,0.0,0.0,0.0,0
55.936286,-4.407655,1.90,2.10,0.92,0.87,1.90,1.90,0.92,0.87,2093,2022-04-18 09:48:45.444,2022-04-18 10:48:45.443,18,0,0,16.172,55.936289,-4.407668,0.00,0.20,-0.90,3.40,5.00,162.50,0,1,0,94,100,-7259,3188,16172,2944.50,6,P-GPS,1,0,0,0,367,0,0,1650275325443,4247,4223,4233,4228,0,0,27,,,,,,,0,0,0,-34.00,50.00,1625.00,0.00,0.00,1624.00,6,19.00,9.22,8.70,0.00,2.00,-9.00,0,,,100,100,0,2,0,0,0,2,0,,,,,0.0,5.4,0.0,0.0,0.0,0.0,0
55.936286,-4.407655,2.00,2.20,0.92,0.88,2.00,2.00,0.92,0.88,2195,2022-04-18 09:48:45.545,2022-04-18 10:48:45.545,18,0,0,16.165,55.936289,-4.407668,0.00,0.20,-0.90,3.30,5.00,162.50,0,1,0,93,100,-7519,3186,16165,2945.50,6,P-GPS,1,0,0,0,375,0,0,1650275325545,4247,4223,4233,4228,0,0,27,,,,,,,0,0,0,-33.00,50.00,1625.00,0.00,0.00,1624.00,6,20.00,9.22,8.76,0.00,2.00,-9.00,0,,,100,100,0,2,0,0,0,2,0,,,,,0.0,5.4,0.0,0.0,0.0,0.0,0
55.936286,-4.407655,2.10,2.30,1.02,0.90,2.10,2.10,1.02,0.90,2293,2022-04-18 09:48:45.643,2022-04-18 10:48:45.643,18,0,0,16.165,55.936289,-4.407668,0.00,0.20,-1.00,3.10,5.30,162.50,0,1,0,93,100,-7519,3186,16165,2945.50,6,P-GPS,1,0,0,0,376,0,0,1650275325643,4247,4223,4233,4228,0,0,27,,,,,,,0,0,0,-31.00,53.00,1625.00,0.00,0.00,1624.00,6,21.00,10.20,8.96,0.00,2.00,-10.00,0,,,100,100,0,2,0,0,0,2,0,,,,,0.0,5.4,0.0,0.0,0.0,0.0,0
55.936286,-4.407654,2.20,2.40,1.12,0.92,2.20,2.20,1.12,0.92,2392,2022-04-18 09:48:45.743,2022-04-18 10:48:45.742,18,0,0,16.165,55.936289,-4.407668,0.00,0.20,-1.10,3.30,5.70,162.50,0,1,0,93,100,-7519,3186,16165,2945.50,6,P-GPS,1,0,0,0,384,0,0,1650275325742,4247,4223,4233,4228,0,0,27,,,,,,,0,0,0,-33.00,57.00,1625.00,0.00,0.00,1624.00,6,22.00,11.18,9.15,0.00,2.00,-11.00,0,,,100,100,0,2,0,0,0,2,0,,,,,0.0,5.4,0.0,0.0,0.0,0.0,0
55.936286,-4.407654,2.30,2.50,1.12,0.94,2.30,2.30,1.12,0.94,2497,2022-04-18 09:48:45.848,2022-04-18 10:48:45.847,18,0,0,16.165,55.936289,-4.407668,0.00,0.20,-1.10,3.00,6.00,162.60,0,1,0,93,100,-7519,3186,16165,2945.50,6,P-GPS,1,0,0,0,385,0,0,1650275325847,4247,4223,4233,4228,0,0,27,,,,,,,0,0,0,-30.00,60.00,1626.00,0.00,0.00,1624.00,6,23.00,11.18,9.36,0.00,2.00,-11.00,0,,,100,100,0,2,0,0,0,2,0,,,,,0.0,5.4,0.0,0.0,0.0,0.0,0
55.936286,-4.407654,2.50,2.60,1.22,0.96,2.50,2.50,1.22,0.96,2593,2022-04-18 09:48:45.944,2022-04-18 10:48:45.944,18,0,0,16.165,55.936289,-4.407668,0.00,0.20,-1.20,2.90,5.90,162.50,0,1,0,93,100,-7519,3186,16165,2945.50,6,P-GPS,1,0,0,0,389,0,0,1650275325943,4247,4223,4233,4228,0,0,27,,,,,,,0,0,0,-29.00,59.00,1625.00,0.00,0.00,1624.00,6,25.00,12.17,9.56,0.00,2.00,-12.00,0,,,100,100,0,2,0,0,0,2,0,,,,,0.0,5.4,0.0,0.0,0.0,0.0,0
55.936286,-4.407653,2.60,2.70,1.22,0.98,2.60,2.60,1.22,0.98,2693,2022-04-18 09:48:46.044,2022-04-18 10:48:46.043,18,0,0,16.165,55.936289,-4.407668,0.00,0.20,-1.20,3.20,6.00,162.60,0,1,0,93,100,-7519,3186,16165,2945.50,6,P-GPS,1,0,0,0,391,0,0,1650275326043,4247,4223,4233,4228,0,0,27,,,,,,,0,0,0,-32.00,60.00,1626.00,0.00,0.00,1624.00,6,26.00,12.17,9.77,0.00,2.00,-12.00,0,,,100,100,0,2,0,0,0,2,0,,,,,0.0,5.4,0.0,0.0,0.0,0.0,0
55.936286,-4.407653,2.70,2.80,1.22,0.97,2.70,2.70,1.22,0.98,2793,2022-04-18 09:48:46.144,2022-04-18 10:48:46.143,18,0,0,16.165,55.936289,-4.407668,0.00,0.20,-1.20,3.40,5.90,162.50,0,1,0,93,100,-7519,3186,16165,2945.50,6,P-GPS,1,0,0,0,393,0,0,1650275326143,4247,4223,4233,4228,0,0,27,,,,,,,0,0,0,-34.00,59.00,1625.00,0.00,0.00,1624.00,6,27.00,12.17,9.74,0.00,2.00,-12.00,0,,,100,100,0,2,0,0,0,2,0,,,,,0.0,5.4,0.0,0.0,0.0,0.0,0
55.936286,-4.407653,2.80,3.00,1.22,0.99,2.80,2.80,1.22,0.99,2893,2022-04-18 09:48:46.244,2022-04-18 10:48:46.243,18,0,0,16.165,55.936289,-4.407668,0.00,0.20,-1.20,2.90,5.90,162.50,0,1,0,93,100,-7519,3186,16165,2945.50,6,P-GPS,1,0,0,0,395,0,0,1650275326243,4247,4223,4233,4228,0,0,27,,,,,,,0,0,0,-29.00,59.00,1625.00,0.00,0.00,1624.00,6,28.00,12.17,9.92,0.00,2.00,-12.00,0,,,100,100,0,2,0,0,0,2,0,,,,,0.0,5.4,0.0,0.0,0.0,0.0,0
55.936286,-4.407653,3.00,3.10,1.32,1.00,3.00,3.00,1.32,1.00,2995,2022-04-18 09:48:46.346,2022-04-18 10:48:46.345,18,0,0,16.165,55.936289,-4.407668,0.00,0.20,-1.30,2.90,6.10,162.50,0,1,0,93,100,-7519,3186,16165,2945.50,6,P-GPS,1,0,0,0,395,0,0,1650275326345,4247,4223,4233,4228,0,0,27,,,,,,,0,0,0,-29.00,61.00,1625.00,0.00,0.00,1624.00,6,30.00,13.15,9.98,0.00,2.00,-13.00,0,,,100,100,0,2,0,0,0,2,0,,,,,0.0,5.4,0.0,0.0,0.0,0.0,0
55.936286,-4.407652,3.10,3.20,1.30,1.01,3.10,3.10,1.32,1.01,3095,2022-04-18 09:48:46.445,2022-04-18 10:48:46.445,18,0,0,16.165,55.936289,-4.407668,0.00,0.10,-1.30,3.20,6.20,162.50,0,1,0,93,100,-7519,3186,16165,2945.50,6,P-GPS,1,0,0,0,394,0,0,1650275326445,4247,4223,4233,4228,0,0,27,,,,,,,0,0,0,-32.00,62.00,1625.00,0.00,0.00,1624.00,6,31.00,13.04,10.14,0.00,1.00,-13.00,0,,,100,100,0,2,0,0,0,2,0,,,,,0.0,5.4,0.0,0.0,0.0,0.0,0
55.936286,-4.407652,3.20,3.30,1.30,1.04,3.20,3.20,1.32,1.04,3194,2022-04-18 09:48:46.544,2022-04-18 10:48:46.544,18,0,0,16.165,55.936289,-4.407668,0.00,0.10,-1.30,3.00,6.10,162.50,0,1,0,93,100,-7519,3186,16165,2945.50,6,P-GPS,1,0,0,0,391,0,0,1650275326544,4247,4223,4233,4228,0,0,27,,,,,,,0,0,0,-30.00,61.00,1625.00,0.00,0.00,1624.00,6,32.00,13.04,10.38,0.00,1.00,-13.00,0,,,100,100,0,2,0,0,0,2,0,,,,,0.0,0.0,0.0,0.0,0.0,0.0,0
55.936286,-4.407652,3.40,3.50,1.30,1.05,3.40,3.40,1.32,1.05,3297,2022-04-18 09:48:46.647,2022-04-18 10:48:46.647,18,0,0,16.152,55.936289,-4.407668,0.00,0.10,-1.30,2.70,5.90,162.50,0,1,0,93,100,-7709,3184,16152,2945.50,6,P-GPS,1,0,0,0,385,0,0,1650275326647,4247,4223,4233,4228,0,0,27,,,,,,,0,0,0,-27.00,59.00,1625.00,0.00,0.00,1624.00,6,34.00,13.04,10.52,0.00,1.00,-13.00,0,,,100,100,0,2,0,0,0,2,0,,,,,0.0,0.0,0.0,0.0,0.0,0.0,0
55.936286,-4.407652,3.50,3.60,1.30,1.07,3.50,3.50,1.32,1.07,3395,2022-04-18 09:48:46.745,2022-04-18 10:48:46.745,18,0,0,16.152,55.936289,-4.407668,0.00,0.10,-1.30,2.40,5.90,162.50,0,1,0,93,100,-7709,3184,16152,2945.50,6,P-GPS,1,0,0,0,360,0,0,1650275326745,4247,4223,4233,4228,0,0,27,,,,,,,0,0,0,-24.00,59.00,1625.00,0.00,0.00,1624.00,6,35.00,13.04,10.66,0.00,1.00,-13.00,0,,,100,100,0,2,0,0,0,2,0,,,,,0.0,0.0,0.0,0.0,0.0,0.0,0
55.936286,-4.407651,3.60,3.70,1.20,1.08,3.60,3.60,1.32,1.08,3494,2022-04-18 09:48:46.844,2022-04-18 10:48:46.844,18,0,0,16.152,55.936289,-4.407668,0.00,0.10,-1.20,2.50,6.00,162.60,0,1,0,93,100,-7709,3184,16152,2945.50,6,P-GPS,1,0,0,0,324,0,0,1650275326844,4247,4223,4233,4228,0,0,27,,,,,,,0,0,0,-25.00,60.00,1626.00,0.00,0.00,1624.00,6,36.00,12.04,10.80,0.00,1.00,-12.00,0,,,100,100,0,2,0,0,0,2,0,,,,,0.0,0.0,0.0,0.0,0.0,0.0,0
55.936286,-4.407651,3.70,3.80,1.00,1.09,3.70,3.70,1.32,1.09,3596,2022-04-18 09:48:46.947,2022-04-18 10:48:46.946,18,0,0,16.152,55.936289,-4.407668,0.00,0.10,-1.00,2.70,5.80,162.50,0,1,0,93,100,-7709,3184,16152,2945.50,6,P-GPS,1,0,0,0,273,0,0,1650275326946,4247,4223,4233,4228,0,0,27,,,,,,,0,0,0,-27.00,58.00,1625.00,0.00,0.00,1624.00,6,37.00,10.05,10.86,0.00,1.00,-10.00,0,,,100,100,0,2,0,0,0,2,0,,,,,0.0,0.0,0.0,0.0,0.0,0.0,0
55.936286,-4.407651,3.80,3.90,0.81,1.10,3.80,3.80,1.32,1.10,3701,2022-04-18 09:48:47.051,2022-04-18 10:48:47.051,18,0,0,16.152,55.936289,-4.407668,0.00,0.10,-0.80,2.80,6.20,162.60,0,1,0,93,100,-7709,3184,16152,2945.50,6,P-GPS,1,0,0,0,76,0,0,1650275327051,4247,4223,4233,4228,0,0,27,,,,,,,0,0,0,-28.00,62.00,1626.00,0.00,0.00,1624.00,6,38.00,8.06,10.99,0.00,1.00,-8.00,0,,,100,100,0,2,0,0,0,2,0,,,,,0.0,0.0,0.0,0.0,0.0,0.0,0
55.936286,-4.407651,3.90,4.00,0.51,1.11,3.90,3.90,1.32,1.11,3796,2022-04-18 09:48:47.147,2022-04-18 10:48:47.146,18,0,0,16.152,55.936289,-4.407668,0.00,0.10,-0.50,3.20,6.50,162.60,0,1,0,93,100,-7709,3184,16152,2945.50,6,P-GPS,1,0,0,0,0,0,0,1650275327146,4247,4223,4233,4228,0,0,27,,,,,,,0,0,0,-32.00,65.00,1626.00,0.00,0.00,1624.00,6,39.00,5.10,11.09,0.00,1.00,-5.00,0,,,100,100,0,2,0,0,0,2,0,,,,,0.0,0.0,0.0,0.0,0.0,0.0,0
55.936286,-4.407650,4.00,4.00,0.22,1.12,4.00,4.00,1.32,1.12,3897,2022-04-18 09:48:47.247,2022-04-18 10:48:47.247,18,0,0,16.152,55.936289,-4.407668,0.00,0.10,-0.20,2.90,6.40,162.60,0,1,0,93,100,-7709,3184,16152,2945.50,6,P-GPS,1,0,0,0,0,0,0,1650275327247,4247,4223,4233,4228,0,0,27,,,,,,,0,0,0,-29.00,64.00,1626.00,0.00,0.00,1624.00,6,40.00,2.24,11.21,0.00,1.00,-2.00,0,,,100,100,0,2,0,0,0,2,0,,,,,0.0,0.0,0.0,0.0,0.0,0.0,0
55.936286,-4.407650,4.00,4.00,0.14,1.13,4.00,4.00,1.32,1.13,3993,2022-04-18 09:48:47.343,2022-04-18 10:48:47.343,18,0,0,16.152,55.936289,-4.407668,0.00,0.10,-0.10,2.30,5.90,162.50,0,1,0,93,100,-7709,3184,16152,2945.50,6,P-GPS,1,0,0,0,0,0,0,1650275327343,4247,4223,4233,4228,0,0,27,,,,,,,0,0,0,-23.00,59.00,1625.00,0.00,0.00,1624.00,6,40.00,1.41,11.29,0.00,1.00,-1.00,0,,,100,100,0,2,0,0,0,2,0,,,,,0.0,0.0,0.0,0.0,0.0,0.0,0
55.936286,-4.407650,4.00,4.00,0.10,1.14,4.00,4.00,1.32,1.14,4099,2022-04-18 09:48:47.449,2022-04-18 10:48:47.449,18,0,0,16.152,55.936289,-4.407668,0.00,0.10,0.00,2.10,5.60,162.40,0,1,0,93,100,-7709,3184,16152,2945.50,6,P-GPS,1,0,0,0,0,0,0,1650275327449,4247,4223,4233,4228,0,0,27,,,,,,,0,0,0,-21.00,56.00,1624.00,0.00,0.00,1624.00,6,40.00,1.00,11.38,0.00,1.00,0.00,0,,,100,100,0,2,0,0,0,2,0,,,,,0.0,0.0,0.0,0.0,0.0,0.0,0
55.936286,-4.407650,4.00,4.00,0.10,1.16,4.00,4.00,1.32,1.16,4196,2022-04-18 09:48:47.547,2022-04-18 10:48:47.546,18,0,0,16.152,55.936289,-4.407668,0.00,0.10,0.00,2.00,5.70,162.30,0,1,0,93,100,-7709,3184,16152,2945.50,6,P-GPS,1,0,0,0,0,0,0,1650275327546,4247,4223,4233,4228,0,0,27,,,,,,,0,0,0,-20.00,57.00,1623.00,0.00,0.00,1624.00,6,40.00,1.00,11.55,0.00,1.00,0.00,0,,,100,100,0,2,0,0,0,2,0,,,,,0.0,0.0,0.0,0.0,0.0,0.0,0
55.936286,-4.407650,4.00,4.00,0.10,1.16,4.00,4.00,1.32,1.16,4293,2022-04-18 09:48:47.644,2022-04-18 10:48:47.643,18,0,0,16.108,55.936289,-4.407668,0.00,0.10,0.00,2.20,5.90,162.30,0,1,0,93,100,-7632,3182,16108,2946.50,6,P-GPS,1,0,0,0,0,0,0,1650275327643,4247,4223,4233,4228,0,0,27,,,,,,,0,0,0,-22.00,59.00,1623.00,0.00,0.00,1624.00,6,40.00,1.00,11.64,0.00,1.00,0.00,0,,,100,100,0,2,0,0,0,2,0,,,,,0.0,0.0,0.0,0.0,0.0,0.0,0
55.936286,-4.407650,4.00,4.00,0.00,1.18,4.00,4.00,1.32,1.18,4401,2022-04-18 09:48:47.752,2022-04-18 10:48:47.751,18,0,0,16.108,55.936289,-4.407668,0.00,0.00,0.00,2.40,5.70,162.30,0,1,0,93,100,-7632,3182,16108,2946.50,6,P-GPS,1,0,0,0,0,0,0,1650275327751,4247,4223,4233,4228,0,0,27,,,,,,,0,0,0,-24.00,57.00,1623.00,0.00,0.00,1624.00,6,40.00,0.00,11.83,0.00,0.00,0.00,0,,,100,100,0,2,0,0,0,2,0,,,,,0.0,0.0,0.0,0.0,0.0,0.0,0
55.936286,-4.407649,4.00,4.00,0.00,1.19,4.00,4.00,1.32,1.19,4497,2022-04-18 09:48:47.848,2022-04-18 10:48:47.847,18,0,0,16.108,55.936289,-4.407668,0.00,0.00,0.00,2.50,5.50,162.30,0,1,0,93,100,-7632,3182,16108,2946.50,6,P-GPS,1,0,0,0,0,0,0,1650275327847,4247,4223,4233,4228,0,0,27,,,,,,,0,0,0,-25.00,55.00,1623.00,0.00,0.00,1624.00,6,40.00,0.00,11.91,0.00,0.00,0.00,0,,,100,100,0,2,0,0,0,2,0,,,,,0.0,0.0,0.0,0.0,0.0,0.0,0
55.936286,-4.407649,4.00,4.00,0.00,1.19,4.00,4.00,1.32,1.19,4600,2022-04-18 09:48:47.951,2022-04-18 10:48:47.950,18,0,0,16.108,55.936289,-4.407668,0.00,0.00,0.00,2.90,5.20,162.30,0,1,0,93,100,-7632,3182,16108,2946.50,6,P-GPS,1,0,0,0,0,0,0,1650275327950,4247,4223,4233,4228,0,0,27,,,,,,,0,0,0,-29.00,52.00,1623.00,0.00,0.00,1624.00,6,40.00,0.00,11.93,0.00,0.00,0.00,0,,,100,100,0,2,0,0,0,2,0,,,,,0.0,0.0,0.0,0.0,0.0,0.0,0
55.936286,-4.407649,3.90,4.00,0.00,1.20,4.00,4.00,1.32,1.20,4694,2022-04-18 09:48:48.045,2022-04-18 10:48:48.044,18,0,0,16.108,55.936289,-4.407668,0.00,0.00,0.00,2.80,5.30,162.30,0,1,0,93,100,-7632,3182,16108,2946.50,6,P-GPS,1,0,0,0,0,0,0,1650275328044,4247,4223,4233,4228,0,0,27,,,,,,,0,0,0,-28.00,53.00,1623.00,0.00,0.00,1624.00,6,39.00,0.00,11.98,0.00,0.00,0.00,0,,,100,100,0,2,0,0,0,2,0,,,,,0.0,0.0,0.0,0.0,0.0,0.0,0
55.936286,-4.407649,3.90,4.00,0.00,1.20,4.00,4.00,1.32,1.20,4798,2022-04-18 09:48:48.149,2022-04-18 10:48:48.148,18,0,0,16.108,55.936289,-4.407668,0.00,0.00,0.00,2.80,5.10,162.30,0,1,0,93,100,-7632,3182,16108,2946.50,6,P-GPS,1,0,0,0,0,0,0,1650275328148,4247,4223,4233,4228,0,0,27,,,,,,,0,0,0,-28.00,51.00,1623.00,0.00,0.00,1624.00,6,39.00,0.00,12.04,0.00,0.00,0.00,0,,,100,100,0,2,0,0,0,2,0,,,,,0.0,0.0,0.0,0.0,0.0,0.0,0
55.936286,-4.407649,3.90,4.00,0.00,1.21,4.00,4.00,1.32,1.21,4898,2022-04-18 09:48:48.248,2022-04-18 10:48:48.248,18,0,0,16.108,55.936289,-4.407668,0.00,0.00,0.00,3.00,5.10,162.40,0,1,0,93,100,-7632,3182,16108,2946.50,6,P-GPS,1,0,0,0,0,0,0,1650275328248,4247,4223,4233,4228,0,0,27,,,,,,,0,0,0,-30.00,51.00,1624.00,0.00,0.00,1624.00,6,39.00,0.00,12.08,0.00,0.00,0.00,0,,,100,100,0,2,0,0,0,2,0,,,,,0.0,0.0,0.0,0.0,0.0,0.0,0
55.936286,-4.407649,3.90,4.00,0.00,1.22,4.00,4.00,1.32,1.22,4996,2022-04-18 09:48:48.348,2022-04-18 10:48:48.346,18,0,0,16.108,55.936289,-4.407668,0.00,0.00,0.00,3.00,5.20,162.30,0,1,0,93,100,-7632,3182,16108,2946.50,6,P-GPS,1,0,0,0,0,0,0,1650275328346,4247,4223,4233,4228,0,0,27,,,,,,,0,0,0,-30.00,52.00,1623.00,0.00,0.00,1624.00,6,39.00,0.00,12.16,0.00,0.00,0.00,0,,,100,100,0,2,0,0,0,2,0,,,,,0.0,0.0,0.0,0.0,0.0,0.0,0
55.936286,-4.407649,3.90,4.00,0.00,1.22,4.00,4.00,1.32,1.22,5097,2022-04-18 09:48:48.447,2022-04-18 10:48:48.447,18,0,0,16.108,55.936289,-4.407668,0.00,0.00,0.00,3.40,5.20,162.40,0,1,0,93,100,-7632,3182,16108,2946.50,6,P-GPS,1,0,0,0,0,0,0,1650275328447,4247,4223,4233,4228,0,0,27,,,,,,,0,0,0,-34.00,52.00,1624.00,0.00,0.00,1624.00,6,39.00,0.00,12.20,0.00,0.00,0.00,0,,,100,100,0,2,0,0,0,2,0,,,,,0.0,0.0,0.0,0.0,0.0,0.0,0
55.936286,-4.407649,3.90,4.00,0.00,1.23,4.00,4.00,1.32,1.23,5193,2022-04-18 09:48:48.544,2022-04-18 10:48:48.543,18,0,0,16.108,55.936289,-4.407668,0.00,0.00,0.00,3.70,5.20,162.40,0,1,0,93,100,-7632,3182,16108,2946.50,6,P-GPS,1,0,0,0,0,0,0,1650275328543,4247,4223,4233,4228,0,0,27,,,,,,,0,0,0,-37.00,52.00,1624.00,0.00,0.00,1624.00,6,39.00,0.00,12.33,0.00,0.00,0.00,0,,,100,100,0,2,0,0,0,2,0,,,,,0.0,0.0,0.0,0.0,0.0,0.0,0
55.936286,-4.407649,3.90,4.00,0.00,1.24,4.00,4.00,1.32,1.24,5301,2022-04-18 09:48:48.651,2022-04-18 10:48:48.651,18,0,0,16.206,55.936289,-4.407668,0.00,0.00,0.00,3.70,5.10,162.40,0,1,0,93,100,-6073,3180,16206,2946.50,6,P-GPS,1,0,0,0,0,0,0,1650275328651,4247,4223,4233,4228,0,0,27,,,,,,,0,0,0,-37.00,51.00,1624.00,0.00,0.00,1624.00,6,39.00,0.00,12.38,0.00,0.00,0.00,0,,,100,100,0,2,0,0,0,2,0,,,,,0.0,0.0,0.0,0.0,0.0,0.0,0
55.936286,-4.407649,3.90,4.00,0.00,1.26,4.00,4.00,1.32,1.26,5416,2022-04-18 09:48:48.767,2022-04-18 10:48:48.766,18,0,0,16.206,55.936289,-4.407668,0.00,0.00,0.00,3.70,5.50,162.50,0,1,0,93,100,-6073,3180,16206,2946.50,6,P-GPS,1,0,0,0,0,0,0,1650275328766,4247,4223,4233,4228,0,0,27,,,,,,,0,0,0,-37.00,55.00,1625.00,0.00,0.00,1624.00,6,39.00,0.00,12.55,0.00,0.00,0.00,0,,,100,100,0,2,0,0,0,2,0,,,,,0.0,0.0,0.0,0.0,0.0,0.0,0
55.936286,-4.407649,3.90,4.00,0.00,1.26,4.00,4.00,1.32,1.26,5593,2022-04-18 09:48:48.944,2022-04-18 10:48:48.944,18,0,0,16.206,55.936289,-4.407668,0.00,0.00,0.00,3.40,5.70,162.50,0,1,0,93,100,-6073,3180,16206,2946.50,6,P-GPS,1,0,0,0,0,0,0,1650275328943,4247,4223,4233,4228,0,0,27,,,,,,,0,0,0,-34.00,57.00,1625.00,0.00,0.00,1624.00,6,39.00,0.00,12.63,0.00,0.00,0.00,0,,,100,100,0,2,0,0,0,2,0,,,,,0.0,0.0,0.0,0.0,0.0,0.0,0
55.936286,-4.407648,3.90,4.00,0.00,1.27,4.00,4.00,1.32,1.27,5692,2022-04-18 09:48:49.042,2022-04-18 10:48:49.042,18,0,0,16.206,55.936289,-4.407668,0.00,0.00,0.00,3.20,6.00,162.50,0,1,0,93,100,-6073,3180,16206,2946.50,6,P-GPS,1,0,0,0,0,0,0,1650275329042,4247,4223,4233,4228,0,0,27,,,,,,,0,0,0,-32.00,60.00,1625.00,0.00,0.00,1624.00,6,39.00,0.00,12.68,0.00,0.00,0.00,0,,,100,100,0,2,0,0,0,2,0,,,,,0.0,0.0,0.0,0.0,0.0,0.0,0
55.936286,-4.407648,3.90,4.00,0.00,1.27,4.00,4.00,1.32,1.27,5780,2022-04-18 09:48:49.131,2022-04-18 10:48:49.130,18,0,0,16.206,55.936289,-4.407668,0.00,0.00,0.00,3.20,6.00,162.50,0,1,0,93,100,-6073,3180,16206,2946.50,6,P-GPS,1,0,0,0,0,0,0,1650275329130,4247,4223,4233,4228,0,0,27,,,,,,,0,0,0,-32.00,60.00,1625.00,0.00,0.00,1624.00,6,39.00,0.00,12.68,0.00,0.00,0.00,0,,,100,100,0,2,0,0,0,2,0,,,,,0.0,0.0,0.0,0.0,0.0,0.0,0
55.936286,-4.407648,3.90,4.00,0.00,1.28,4.00,4.00,1.32,1.28,5894,2022-04-18 09:48:49.245,2022-04-18 10:48:49.244,18,0,0,16.206,55.936289,-4.407668,0.00,0.00,0.00,3.20,6.00,162.50,0,1,0,93,100,-6073,3180,16206,2946.50,6,P-GPS,1,0,0,0,0,0,0,1650275329244,4247,4223,4233,4228,0,0,27,,,,,,,0,0,0,-32.00,60.00,1625.00,0.00,0.00,1624.00,6,39.00,0.00,12.78,0.00,0.00,0.00,0,,,100,100,0,2,0,0,0,2,0,,,,,0.0,0.0,0.0,0.0,0.0,0.0,0
55.936286,-4.407648,3.90,4.10,0.00,1.28,4.00,4.00,1.32,1.28,5992,2022-04-18 09:48:49.343,2022-04-18 10:48:49.342,18,0,0,16.206,55.936289,-4.407668,0.00,0.00,0.00,3.00,6.10,162.50,0,1,0,93,100,-6073,3180,16206,2946.50,6,P-GPS,1,0,0,0,0,0,0,1650275329342,4247,4223,4233,4228,0,0,27,,,,,,,0,0,0,-30.00,61.00,1625.00,0.00,0.00,1624.00,6,39.00,0.00,12.79,0.00,0.00,0.00,0,,,100,100,0,2,0,0,0,2,0,,,,,0.0,0.0,0.0,0.0,0.0,0.0,0
55.936286,-4.407648,4.00,4.10,0.00,1.28,4.00,4.00,1.32,1.28,6097,2022-04-18 09:48:49.448,2022-04-18 10:48:49.447,18,0,0,16.206,55.936289,-4.407668,0.00,0.00,0.00,3.00,6.10,162.50,0,1,0,93,100,-6073,3180,16206,2946.50,6,P-GPS,1,0,0,0,0,0,0,1650275329447,4247,4223,4233,4228,0,0,27,,,,,,,0,0,0,-30.00,61.00,1625.00,0.00,0.00,1624.00,6,40.00,0.00,12.83,0.00,0.00,0.00,0,,,100,100,0,2,0,0,0,2,0,,,,,0.0,0.0,0.0,0.0,0.0,0.0,0
55.936286,-4.407648,4.00,4.10,0.00,1.29,4.00,4.00,1.32,1.29,6192,2022-04-18 09:48:49.542,2022-04-18 10:48:49.542,18,0,0,16.206,55.936289,-4.407668,0.00,0.00,0.00,3.00,6.10,162.50,0,1,0,93,100,-6073,3180,16206,2946.50,6,P-GPS,1,0,0,0,0,0,0,1650275329542,4247,4223,4233,4228,0,0,27,,,,,,,0,0,0,-30.00,61.00,1625.00,0.00,0.00,1624.00,6,40.00,0.00,12.90,0.00,0.00,0.00,0,,,100,100,0,2,0,0,0,2,0,,,,,0.0,0.0,0.0,0.0,0.0,0.0,0
55.936286,-4.407648,4.00,4.10,0.00,1.29,4.00,4.00,1.32,1.29,6293,2022-04-18 09:48:49.645,2022-04-18 10:48:49.643,18,0,0,16.137,55.936289,-4.407668,0.00,0.00,0.00,3.10,6.00,162.50,0,1,0,93,100,-7010,3178,16137,2946.50,6,P-GPS,1,0,0,0,0,0,0,1650275329643,4247,4223,4233,4228,0,0,27,,,,,,,0,0,0,-31.00,60.00,1625.00,0.00,0.00,1624.00,6,40.00,0.00,12.93,0.00,0.00,0.00,0,,,100,100,0,2,0,0,0,2,0,,,,,0.0,0.0,0.0,0.0,0.0,0.0,0
55.936285,-4.407648,4.00,4.10,0.00,1.30,4.00,4.00,1.32,1.30,6396,2022-04-18 09:48:49.748,2022-04-18 10:48:49.746,18,0,0,16.137,55.936289,-4.407668,0.00,0.00,0.00,3.50,6.00,162.50,0,1,0,93,100,-7010,3178,16137,2946.50,6,P-GPS,1,0,0,0,0,0,0,1650275329746,4247,4223,4233,4228,0,0,27,,,,,,,0,0,0,-35.00,60.00,1625.00,0.00,0.00,1624.00,6,40.00,0.00,12.99,0.00,0.00,0.00,0,,,100,100,0,2,0,0,0,2,0,,,,,0.0,0.0,0.0,0.0,0.0,0.0,0
55.936285,-4.407648,4.00,4.10,0.00,1.30,4.00,4.00,1.32,1.30,6493,2022-04-18 09:48:49.845,2022-04-18 10:48:49.843,18,0,0,16.137,55.936289,-4.407668,0.00,0.00,0.00,3.60,6.00,162.50,0,1,0,93,100,-7010,3178,16137,2946.50,6,P-GPS,1,0,0,0,0,0,0,1650275329843,4247,4223,4233,4228,0,0,27,,,,,,,0,0,0,-36.00,60.00,1625.00,0.00,0.00,1624.00,6,40.00,0.00,13.03,0.00,0.00,0.00,0,,,100,100,0,2,0,0,0,2,0,,,,,0.0,0.0,0.0,0.0,0.0,0.0,0
55.936285,-4.407648,4.00,4.10,0.00,1.30,4.00,4.00,1.32,1.30,6613,2022-04-18 09:48:49.963,2022-04-18 10:48:49.963,18,0,0,16.137,55.936289,-4.407668,0.00,0.00,0.00,3.50,6.00,162.50,0,1,0,93,100,-7010,3178,16137,2946.50,6,P-GPS,1,0,0,0,0,0,0,1650275329963,4247,4223,4233,4228,0,0,27,,,,,,,0,0,0,-35.00,60.00,1625.00,0.00,0.00,1624.00,6,40.00,0.00,13.03,0.00,0.00,0.00,0,,,100,100,0,2,0,0,0,2,0,,,,,0.0,0.0,0.0,0.0,0.0,0.0,0
55.936285,-4.407648,4.00,4.10,0.00,1.31,4.00,4.00,1.32,1.31,6693,2022-04-18 09:48:50.043,2022-04-18 10:48:50.043,18,0,0,16.137,55.936289,-4.407668,0.00,0.00,0.00,3.50,6.00,162.50,0,1,0,93,100,-7010,3178,16137,2946.50,6,P-GPS,1,0,0,0,0,0,0,1650275330043,4247,4223,4233,4228,0,0,27,,,,,,,0,0,0,-35.00,60.00,1625.00,0.00,0.00,1624.00,6,40.00,0.00,13.06,0.00,0.00,0.00,0,,,100,100,0,2,0,0,0,2,0,,,,,0.0,0.0,0.0,0.0,0.0,0.0,0
55.936285,-4.407648,4.00,4.10,0.00,1.31,4.00,4.00,1.32,1.31,6782,2022-04-18 09:48:50.132,2022-04-18 10:48:50.132,18,0,0,16.137,55.936289,-4.407668,0.00,0.00,0.00,3.50,6.00,162.50,0,1,0,93,100,-7010,3178,16137,2946.50,6,P-GPS,1,0,0,0,0,0,0,1650275330132,4247,4223,4233,4228,0,0,27,,,,,,,0,0,0,-35.00,60.00,1625.00,0.00,0.00,1624.00,6,40.00,0.00,13.06,0.00,0.00,0.00,0,,,100,100,0,2,0,0,0,2,0,,,,,0.0,0.0,0.0,0.0,0.0,0.0,0
55.936285,-4.407648,4.00,4.10,0.00,1.31,4.00,4.00,1.32,1.31,6893,2022-04-18 09:48:50.244,2022-04-18 10:48:50.243,18,0,0,16.137,55.936289,-4.407668,0.00,0.00,0.00,3.50,6.10,162.40,0,1,0,93,100,-7010,3178,16137,2946.50,6,P-GPS,1,0,0,0,0,0,0,1650275330243,4247,4223,4233,4228,0,0,27,,,,,,,0,0,0,-35.00,61.00,1624.00,0.00,0.00,1624.00,6,40.00,0.00,13.10,0.00,0.00,0.00,0,,,100,100,0,2,0,0,0,2,0,,,,,0.0,0.0,0.0,0.0,0.0,0.0,0
55.936285,-4.407648,4.00,4.10,0.00,1.31,4.00,4.00,1.32,1.31,6994,2022-04-18 09:48:50.345,2022-04-18 10:48:50.344,18,0,0,16.137,55.936289,-4.407668,0.00,0.00,0.00,3.30,6.40,162.40,0,1,0,93,100,-7010,3178,16137,2946.50,6,P-GPS,1,0,0,0,0,0,0,1650275330344,4247,4223,4233,4228,0,0,27,,,,,,,0,0,0,-33.00,64.00,1624.00,0.00,0.00,1624.00,6,40.00,0.00,13.10,0.00,0.00,0.00,0,,,100,100,0,2,0,0,0,2,0,,,,,0.0,0.0,0.0,0.0,0.0,0.0,0
55.936285,-4.407648,4.00,4.10,0.00,1.31,4.00,4.00,1.32,1.31,7092,2022-04-18 09:48:50.444,2022-04-18 10:48:50.442,18,0,0,16.137,55.936289,-4.407668,0.00,0.00,0.00,3.20,6.70,162.40,0,1,0,93,100,-7010,3178,16137,2946.50,6,P-GPS,1,0,0,0,0,0,0,1650275330442,4247,4223,4233,4228,0,0,27,,,,,,,0,0,0,-32.00,67.00,1624.00,0.00,0.00,1624.00,6,40.00,0.00,13.12,0.00,0.00,0.00,0,,,100,100,0,2,0,0,0,2,0,,,,,0.0,0.0,0.0,0.0,0.0,0.0,0
55.936285,-4.407648,4.00,4.10,0.00,1.32,4.00,4.00,1.32,1.32,7193,2022-04-18 09:48:50.543,2022-04-18 10:48:50.543,18,0,0,16.137,55.936289,-4.407668,0.00,0.00,0.00,3.60,6.70,162.40,0,1,0,93,100,-7010,3178,16137,2946.50,6,P-GPS,1,0,0,0,0,0,0,1650275330543,4247,4223,4233,4228,0,0,27,,,,,,,0,0,0,-36.00,67.00,1624.00,0.00,0.00,1624.00,6,40.00,0.00,13.21,0.00,0.00,0.00,0,,,100,100,0,2,0,0,0,2,0,,,,,0.0,0.0,0.0,0.0,0.0,0.0,0
55.936285,-4.407648,4.00,4.10,0.00,1.32,4.00,4.00,1.32,1.32,7296,2022-04-18 09:48:50.647,2022-04-18 10:48:50.646,18,0,0,16.123,55.936289,-4.407668,0.00,0.00,0.00,4.00,6.10,162.40,0,1,0,93,100,-7011,3176,16123,2946.50,6,P-GPS,1,0,0,0,0,0,0,1650275330646,4247,4223,4233,4228,0,0,27,,,,,,,0,0,0,-40.00,61.00,1624.00,0.00,0.00,1624.00,6,40.00,0.00,13.24,0.00,0.00,0.00,0,,,100,100,0,2,0,0,0,2,0,,,,,0.0,0.0,0.0,0.0,0.0,0.0,0
55.936285,-4.407648,4.00,4.10,0.00,1.32,4.00,4.00,1.32,1.32,7393,2022-04-18 09:48:50.743,2022-04-18 10:48:50.743,18,0,0,16.123,55.936289,-4.407668,0.00,0.00,0.00,3.70,6.20,162.40,0,1,0,93,100,-7011,3176,16123,2946.50,6,P-GPS,1,0,0,0,0,0,0,1650275330743,4247,4223,4233,4228,0,0,27,,,,,,,0,0,0,-37.00,62.00,1624.00,0.00,0.00,1624.00,6,40.00,0.00,13.21,0.00,0.00,0.00,0,,,100,100,0,2,0,0,0,2,0,,,,,0.0,0.0,0.0,0.0,0.0,0.0,0
55.936285,-4.407648,4.00,4.10,0.00,1.32,4.00,4.00,1.32,1.32,7492,2022-04-18 09:48:50.844,2022-04-18 10:48:50.842,18,0,0,16.123,55.936289,-4.407668,0.00,0.00,0.00,4.80,6.60,162.70,0,1,0,93,100,-7011,3176,16123,2946.50,6,P-GPS,1,0,0,0,0,0,0,1650275330842,4247,4223,4233,4228,0,0,27,,,,,,,0,0,0,-48.00,66.00,1627.00,0.00,0.00,1624.00,6,40.00,0.00,13.24,0.00,0.00,0.00,0,,,100,100,0,2,0,0,0,2,0,,,,,0.0,0.0,0.0,0.0,0.0,0.0,0
55.936285,-4.407648,4.00,4.10,0.00,1.32,4.00,4.00,1.32,1.32,7595,2022-04-18 09:48:50.945,2022-04-18 10:48:50.945,18,0,0,16.123,55.936289,-4.407668,0.00,0.00,0.00,4.90,6.30,162.80,0,1,0,93,100,-7011,3176,16123,2946.50,6,P-GPS,1,0,0,0,0,0,0,1650275330945,4247,4223,4233,4228,0,0,27,,,,,,,0,0,0,-49.00,63.00,1628.00,0.00,0.00,1624.00,6,40.00,0.00,13.18,0.00,0.00,0.00,0,,,100,100,0,2,0,0,0,2,0,,,,,0.0,0.0,0.0,0.0,0.0,0.0,0
55.936285,-4.407648,4.00,4.10,0.00,1.32,4.00,4.00,1.32,1.32,7724,2022-04-18 09:48:51.074,2022-04-18 10:48:51.074,18,0,0,16.123,55.936289,-4.407668,0.00,0.00,0.00,4.80,6.00,162.90,0,1,0,93,100,-7011,3176,16123,2946.50,6,P-GPS,1,0,0,0,0,0,0,1650275331074,4247,4223,4233,4228,0,0,27,,,,,,,0,0,0,-48.00,60.00,1629.00,0.00,0.00,1624.00,6,40.00,0.00,13.18,0.00,0.00,0.00,0,,,100,100,0,2,0,0,0,2,0,,,,,0.0,0.0,0.0,0.0,0.0,0.0,0
55.936285,-4.407648,4.00,4.10,0.00,1.32,4.00,4.00,1.32,1.32,7791,2022-04-18 09:48:51.142,2022-04-18 10:48:51.141,18,0,0,16.123,55.936289,-4.407668,0.00,0.00,0.00,4.80,6.00,162.90,0,1,0,93,100,-7011,3176,16123,2946.50,6,P-GPS,1,0,0,0,0,0,0,1650275331141,4247,4223,4233,4228,0,0,27,,,,,,,0,0,0,-48.00,60.00,1629.00,0.00,0.00,1624.00,6,40.00,0.00,13.18,0.00,0.00,0.00,0,,,100,100,0,2,0,0,0,2,0,,,,,0.0,0.0,0.0,0.0,0.0,0.0,0
55.936285,-4.407648,4.00,4.10,0.00,1.32,4.00,4.00,1.32,1.32,7892,2022-04-18 09:48:51.242,2022-04-18 10:48:51.242,18,0,0,16.123,55.936289,-4.407668,0.00,0.00,0.00,3.40,5.20,162.80,0,1,0,93,100,-7011,3176,16123,2946.50,6,P-GPS,1,0,0,0,0,0,0,1650275331242,4247,4223,4233,4228,0,0,27,,,,,,,0,0,0,-34.00,52.00,1628.00,0.00,0.00,1624.00,6,40.00,0.00,13.24,0.00,0.00,0.00,0,,,100,100,0,2,0,0,0,2,0,,,,,0.0,0.0,0.0,0.0,0.0,0.0,0
55.936285,-4.407648,4.00,4.10,0.00,1.31,4.00,4.00,1.32,1.32,7994,2022-04-18 09:48:51.344,2022-04-18 10:48:51.344,18,0,0,16.123,55.936289,-4.407668,0.00,0.00,0.00,3.60,5.70,162.80,0,1,0,93,100,-7011,3176,16123,2946.50,6,P-GPS,1,0,0,0,0,0,0,1650275331344,4076,4022,4016,4015,0,0,27,,,,,,,0,0,0,-36.00,57.00,1628.00,0.00,0.00,1624.00,6,40.00,0.00,13.14,0.00,0.00,0.00,0,,,100,100,0,2,0,0,0,2,0,,,,,0.0,0.0,0.0,0.0,0.0,0.0,0
55.936285,-4.407648,4.00,4.10,0.00,1.31,4.00,4.00,1.32,1.32,8096,2022-04-18 09:48:51.447,2022-04-18 10:48:51.446,18,0,0,16.123,55.936289,-4.407668,0.00,0.00,0.00,3.70,6.00,162.80,0,1,0,93,100,-7011,3176,16123,2946.50,6,P-GPS,1,0,0,0,0,0,0,1650275331446,4076,4022,4016,4015,0,0,27,,,,,,,0,0,0,-37.00,60.00,1628.00,0.00,0.00,1624.00,6,40.00,0.00,13.11,0.00,0.00,0.00,0,,,100,100,0,2,0,0,0,2,0,,,,,0.0,0.0,0.0,0.0,0.0,0.0,0
55.936285,-4.407648,4.00,4.10,0.00,1.31,4.00,4.00,1.32,1.32,8193,2022-04-18 09:48:51.543,2022-04-18 10:48:51.543,18,0,0,16.123,55.936289,-4.407668,0.00,0.00,0.00,3.00,6.00,162.70,0,1,0,93,100,-7011,3176,16123,2946.50,6,P-GPS,1,0,0,0,0,0,0,1650275331543,4076,4022,4016,4015,0,0,27,,,,,,,0,0,0,-30.00,60.00,1627.00,0.00,0.00,1624.00,6,40.00,0.00,13.10,0.00,0.00,0.00,0,,,100,100,0,2,0,0,0,2,0,,,,,0.0,0.0,0.0,0.0,0.0,0.0,0
55.936285,-4.407648,4.00,4.10,0.00,1.30,4.00,4.00,1.32,1.32,8293,2022-04-18 09:48:51.643,2022-04-18 10:48:51.643,18,0,0,16.129,55.936289,-4.407668,0.00,0.00,0.00,2.90,5.60,162.70,0,1,0,93,100,-6819,3174,16129,2946.50,6,P-GPS,1,0,0,0,0,0,0,1650275331643,4076,4022,4016,4015,0,0,27,,,,,,,0,0,0,-29.00,56.00,1627.00,0.00,0.00,1624.00,6,40.00,0.00,13.04,0.00,0.00,0.00,0,,,100,100,0,2,0,0,0,2,0,,,,,0.0,0.0,0.0,0.0,0.0,0.0,0
55.936285,-4.407648,4.00,4.10,0.00,1.29,4.00,4.00,1.32,1.32,8396,2022-04-18 09:48:51.747,2022-04-18 10:48:51.746,18,0,0,16.129,55.936289,-4.407668,0.00,0.00,0.00,2.50,5.40,162.60,0,1,0,93,100,-6819,3174,16129,2946.50,6,P-GPS,1,0,0,0,0,0,0,1650275331746,4076,4022,4016,4015,0,0,27,,,,,,,0,0,0,-25.00,54.00,1626.00,0.00,0.00,1624.00,6,40.00,0.00,12.88,0.00,0.00,0.00,0,,,100,100,0,2,0,0,0,2,0,,,,,0.0,0.0,0.0,0.0,0.0,0.0,0
55.936285,-4.407648,4.00,4.10,0.00,1.28,4.00,4.00,1.32,1.32,8494,2022-04-18 09:48:51.844,2022-04-18 10:48:51.844,18,0,0,16.129,55.936289,-4.407668,0.00,0.00,0.00,2.40,5.50,162.50,0,1,0,93,100,-6819,3174,16129,2946.50,6,P-GPS,1,0,0,0,0,0,0,1650275331844,4076,4022,4016,4015,0,0,27,,,,,,,0,0,0,-24.00,55.00,1625.00,0.00,0.00,1624.00,6,40.00,0.00,12.82,0.00,0.00,0.00,0,,,100,100,0,2,0,0,0,2,0,,,,,0.0,0.0,0.0,0.0,0.0,0.0,0
55.936285,-4.407649,4.00,4.10,0.00,1.28,4.00,4.00,1.32,1.32,8598,2022-04-18 09:48:51.948,2022-04-18 10:48:51.948,18,0,0,16.129,55.936289,-4.407668,0.00,0.00,0.00,2.10,5.70,162.60,0,1,0,93,100,-6819,3174,16129,2946.50,6,P-GPS,1,0,0,0,0,0,0,1650275331948,4076,4022,4016,4015,0,0,27,,,,,,,0,0,0,-21.00,57.00,1626.00,0.00,0.00,1624.00,6,40.00,0.00,12.77,0.00,0.00,0.00,0,,,100,100,0,2,0,0,0,2,0,,,,,0.0,0.0,0.0,0.0,0.0,0.0,0
55.936285,-4.407649,4.00,4.10,0.00,1.27,4.00,4.00,1.32,1.32,8692,2022-04-18 09:48:52.042,2022-04-18 10:48:52.042,18,0,0,16.129,55.936289,-4.407668,0.00,0.00,0.00,1.90,5.80,162.50,0,1,0,93,100,-6819,3174,16129,2946.50,6,P-GPS,1,0,0,0,0,0,0,1650275332042,4076,4022,4016,4015,0,0,27,,,,,,,0,0,0,-19.00,58.00,1625.00,0.00,0.00,1624.00,6,40.00,0.00,12.73,0.00,0.00,0.00,0,,,100,100,0,2,0,0,0,2,0,,,,,0.0,0.0,0.0,0.0,0.0,0.0,0
55.936285,-4.407649,4.00,4.10,0.00,1.27,4.00,4.00,1.32,1.32,8780,2022-04-18 09:48:52.130,2022-04-18 10:48:52.130,18,0,0,16.129,55.936289,-4.407668,0.00,0.00,0.00,1.90,5.80,162.50,0,1,0,93,100,-6819,3174,16129,2946.50,6,P-GPS,1,0,0,0,0,0,0,1650275332130,4076,4022,4016,4015,0,0,27,,,,,,,0,0,0,-19.00,58.00,1625.00,0.00,0.00,1624.00,6,40.00,0.00,12.73,0.00,0.00,0.00,0,,,100,100,0,2,0,0,0,2,0,,,,,0.0,0.0,0.0,0.0,0.0,0.0,0
55.936285,-4.407649,4.00,4.10,0.00,1.26,4.00,4.00,1.32,1.32,8894,2022-04-18 09:48:52.245,2022-04-18 10:48:52.244,18,0,0,16.129,55.936289,-4.407668,0.00,0.00,0.00,2.40,5.60,162.40,0,1,0,93,100,-6819,3174,16129,2946.50,6,P-GPS,1,0,0,0,0,0,0,1650275332244,4076,4022,4016,4015,0,0,27,,,,,,,0,0,0,-24.00,56.00,1624.00,0.00,0.00,1624.00,6,40.00,0.00,12.59,0.00,0.00,0.00,0,,,100,100,0,2,0,0,0,2,0,,,,,0.0,0.0,0.0,0.0,0.0,0.0,0
55.936285,-4.407649,4.00,4.10,0.00,1.26,4.00,4.00,1.32,1.32,8994,2022-04-18 09:48:52.344,2022-04-18 10:48:52.344,18,0,0,16.129,55.936289,-4.407668,0.00,0.00,0.00,2.70,5.40,162.50,0,1,0,93,100,-6819,3174,16129,2946.50,6,P-GPS,1,0,0,0,0,0,0,1650275332344,4076,4022,4016,4015,0,0,27,,,,,,,0,0,0,-27.00,54.00,1625.00,0.00,0.00,1624.00,6,40.00,0.00,12.57,0.00,0.00,0.00,0,,,100,100,0,2,0,0,0,2,0,,,,,0.0,0.0,0.0,0.0,0.0,0.0,0
55.936285,-4.407649,4.00,4.10,0.00,1.25,4.00,4.00,1.32,1.32,9099,2022-04-18 09:48:52.449,2022-04-18 10:48:52.449,18,0,0,16.129,55.936289,-4.407668,0.00,0.00,0.00,2.70,5.30,162.40,0,1,0,93,100,-6819,3174,16129,2946.50,6,P-GPS,1,0,0,0,0,0,0,1650275332449,4076,4022,4016,4015,0,0,27,,,,,,,0,0,0,-27.00,53.00,1624.00,0.00,0.00,1624.00,6,40.00,0.00,12.51,0.00,0.00,0.00,0,,,100,100,0,2,0,0,0,2,0,,,,,0.0,0.0,0.0,0.0,0.0,0.0,0
55.936285,-4.407649,4.00,4.10,0.00,1.25,4.00,4.00,1.32,1.32,9198,2022-04-18 09:48:52.549,2022-04-18 10:48:52.548,18,0,0,16.129,55.936289,-4.407668,0.00,0.00,0.00,2.40,5.10,162.30,0,1,0,93,100,-6819,3174,16129,2946.50,6,P-GPS,1,0,0,0,0,0,0,1650275332548,4076,4022,4016,4015,0,0,27,,,,,,,0,0,0,-24.00,51.00,1623.00,0.00,0.00,1624.00,6,40.00,0.00,12.51,0.00,0.00,0.00,0,,,100,100,0,2,0,0,0,2,0,,,,,0.0,0.0,0.0,0.0,0.0,0.0,0
55.936285,-4.407649,4.00,4.10,0.00,1.25,4.00,4.00,1.32,1.32,9294,2022-04-18 09:48:52.644,2022-04-18 10:48:52.644,18,0,0,16.085,55.936289,-4.407668,0.00,0.00,0.00,2.30,4.90,162.30,0,1,0,93,100,-7429,3172,16085,2947.50,6,P-GPS,1,0,0,0,0,0,0,1650275332644,4076,4022,4016,4015,0,0,27,,,,,,,0,0,0,-23.00,49.00,1623.00,0.00,0.00,1624.00,6,40.00,0.00,12.45,0.00,0.00,0.00,0,,,100,100,0,2,0,0,0,2,0,,,,,0.0,0.0,0.0,0.0,0.0,0.0,0
55.936285,-4.407649,4.00,4.10,0.00,1.24,4.00,4.00,1.32,1.32,9398,2022-04-18 09:48:52.748,2022-04-18 10:48:52.748,18,0,0,16.085,55.936289,-4.407668,0.00,0.00,0.00,2.50,5.20,162.40,0,1,0,93,100,-7429,3172,16085,2947.50,6,P-GPS,1,0,0,0,0,0,0,1650275332748,4076,4022,4016,4015,0,0,27,,,,,,,0,0,0,-25.00,52.00,1624.00,0.00,0.00,1624.00,6,40.00,0.00,12.39,0.00,0.00,0.00,0,,,100,100,0,2,0,0,0,2,0,,,,,0.0,0.0,0.0,0.0,0.0,0.0,0
55.936285,-4.407649,4.00,4.10,0.00,1.23,4.00,4.00,1.32,1.32,9499,2022-04-18 09:48:52.850,2022-04-18 10:48:52.849,18,0,0,16.085,55.936289,-4.407668,0.00,0.00,0.00,2.90,5.00,162.50,0,1,0,93,100,-7429,3172,16085,2947.50,6,P-GPS,1,0,0,0,0,0,0,1650275332849,4076,4022,4016,4015,0,0,27,,,,,,,0,0,0,-29.00,50.00,1625.00,0.00,0.00,1624.00,6,40.00,0.00,12.34,0.00,0.00,0.00,0,,,100,100,0,2,0,0,0,2,0,,,,,0.0,0.0,0.0,0.0,0.0,0.0,0
55.936285,-4.407649,4.00,4.10,0.00,1.23,4.00,4.00,1.32,1.32,9596,2022-04-18 09:48:52.946,2022-04-18 10:48:52.946,18,0,0,16.085,55.936289,-4.407668,0.00,0.00,0.00,2.80,5.10,162.50,0,1,0,93,100,-7429,3172,16085,2947.50,6,P-GPS,1,0,0,0,0,0,0,1650275332946,4076,4022,4016,4015,0,0,27,,,,,,,0,0,0,-28.00,51.00,1625.00,0.00,0.00,1624.00,6,40.00,0.00,12.28,0.00,0.00,0.00,0,,,100,100,0,2,0,0,0,2,0,,,,,0.0,0.0,0.0,0.0,0.0,0.0,0
55.936285,-4.407649,4.00,4.10,0.00,1.22,4.00,4.00,1.32,1.32,9698,2022-04-18 09:48:53.048,2022-04-18 10:48:53.048,18,0,0,16.085,55.936289,-4.407668,0.00,0.00,0.00,2.80,5.10,162.60,0,1,0,93,100,-7429,3172,16085,2947.50,6,P-GPS,1,0,0,0,0,0,0,1650275333048,4076,4022,4016,4015,0,0,27,,,,,,,0,0,0,-28.00,51.00,1626.00,0.00,0.00,1624.00,6,40.00,0.00,12.24,0.00,0.00,0.00,0,,,100,100,0,2,0,0,0,2,0,,,,,0.0,0.0,0.0,0.0,0.0,0.0,0
55.936285,-4.407649,4.00,4.10,0.00,1.23,4.00,4.00,1.32,1.32,9799,2022-04-18 09:48:53.149,2022-04-18 10:48:53.149,18,0,0,16.085,55.936289,-4.407668,0.00,0.00,0.00,2.80,5.20,162.60,0,1,0,93,100,-7429,3172,16085,2947.50,6,P-GPS,1,0,0,0,0,0,0,1650275333149,4076,4022,4016,4015,0,0,27,,,,,,,0,0,0,-28.00,52.00,1626.00,0.00,0.00,1624.00,6,40.00,0.00,12.34,0.00,0.00,0.00,0,,,100,100,0,2,0,0,0,2,0,,,,,0.0,0.0,0.0,0.0,0.0,0.0,0
55.936285,-4.407649,4.00,4.10,0.00,1.23,4.00,4.00,1.32,1.32,9895,2022-04-18 09:48:53.245,2022-04-18 10:48:53.245,18,0,0,16.085,55.936289,-4.407668,0.00,0.00,0.00,2.70,5.20,162.50,0,1,0,93,100,-7429,3172,16085,2947.50,6,P-GPS,1,0,0,0,0,0,0,1650275333245,4076,4022,4016,4015,0,0,27,,,,,,,0,0,0,-27.00,52.00,1625.00,0.00,0.00,1624.00,6,40.00,0.00,12.30,0.00,0.00,0.00,0,,,100,100,0,2,0,0,0,2,0,,,,,0.0,0.0,0.0,0.0,0.0,0.0,0
55.936285,-4.407649,4.00,4.10,0.00,1.23,4.00,4.00,1.32,1.32,9998,2022-04-18 09:48:53.348,2022-04-18 10:48:53.348,18,0,0,16.085,55.936289,-4.407668,0.00,0.00,0.00,2.50,5.10,162.40,0,1,0,93,100,-7429,3172,16085,2947.50,6,P-GPS,1,0,0,0,0,0,0,1650275333348,4076,4022,4016,4015,0,0,27,,,,,,,0,0,0,-25.00,51.00,1624.00,0.00,0.00,1624.00,6,40.00,0.00,12.27,0.00,0.00,0.00,0,,,100,100,0,2,0,0,0,2,0,,,,,0.0,0.0,0.0,0.0,0.0,0.0,0
55.936285,-4.407649,4.00,4.10,0.00,1.22,4.00,4.00,1.32,1.32,10100,2022-04-18 09:48:53.451,2022-04-18 10:48:53.450,18,0,0,16.085,55.936289,-4.407668,0.00,0.00,0.00,2.10,4.80,162.30,0,1,0,93,100,-7429,3172,16085,2947.50,6,P-GPS,1,0,0,0,0,0,0,1650275333450,4076,4022,4016,4015,0,0,27,,,,,,,0,0,0,-21.00,48.00,1623.00,0.00,0.00,1624.00,6,40.00,0.00,12.23,0.00,0.00,0.00,0,,,100,100,0,2,0,0,0,2,0,,,,,0.0,0.0,0.0,0.0,0.0,0.0,0
55.936285,-4.407650,4.00,4.10,0.00,1.21,4.00,4.00,1.32,1.32,10194,2022-04-18 09:48:53.545,2022-04-18 10:48:53.544,18,0,0,16.085,55.936289,-4.407668,0.00,0.00,0.00,1.80,4.40,162.30,0,1,0,93,100,-7429,3172,16085,2947.50,6,P-GPS,1,0,0,0,0,0,0,1650275333544,4076,4022,4016,4015,0,0,27,,,,,,,0,0,0,-18.00,44.00,1623.00,0.00,0.00,1624.00,6,40.00,0.00,12.10,0.00,0.00,0.00,0,,,100,100,0,2,0,0,0,2,0,,,,,0.0,0.0,0.0,0.0,0.0,0.0,0
55.936285,-4.407650,4.00,4.10,0.00,1.21,4.00,4.00,1.32,1.32,10293,2022-04-18 09:48:53.643,2022-04-18 10:48:53.643,18,0,0,16.085,55.936289,-4.407668,0.00,0.00,0.00,1.80,4.80,162.40,0,1,0,93,100,-7429,3172,16085,2947.50,6,P-GPS,1,0,0,0,0,0,0,1650275333643,4076,4022,4016,4015,0,0,27,,,,,,,0,0,0,-18.00,48.00,1624.00,0.00,0.00,1624.00,6,40.00,0.00,12.07,0.00,0.00,0.00,0,,,100,100,0,2,0,0,0,2,0,,,,,0.0,0.0,0.0,0.0,0.0,0.0,0
55.936285,-4.407649,4.00,4.10,0.00,1.22,4.00,4.00,1.32,1.32,10393,2022-04-18 09:48:53.744,2022-04-18 10:48:53.743,18,0,0,16.085,55.936289,-4.407668,0.00,0.00,0.00,2.20,5.20,162.50,0,1,0,93,100,-7429,3172,16085,2947.50,6,P-GPS,1,0,0,0,0,0,0,1650275333743,4076,4022,4016,4015,0,0,27,,,,,,,0,0,0,-22.00,52.00,1625.00,0.00,0.00,1624.00,6,40.00,0.00,12.20,0.00,0.00,0.00,0,,,100,100,0,2,0,0,0,2,0,,,,,0.0,0.0,0.0,0.0,0.0,0.0,0
55.936285,-4.407649,4.00,4.10,0.00,1.22,4.00,4.00,1.32,1.32,10502,2022-04-18 09:48:53.853,2022-04-18 10:48:53.852,18,0,0,16.085,55.936289,-4.407668,0.00,0.00,0.00,2.30,5.60,162.60,0,1,0,93,100,-7429,3172,16085,2947.50,6,P-GPS,1,0,0,0,0,0,0,1650275333852,4076,4022,4016,4015,0,0,27,,,,,,,0,0,0,-23.00,56.00,1626.00,0.00,0.00,1624.00,6,40.00,0.00,12.22,0.00,0.00,0.00,0,,,100,100,0,2,0,0,0,2,0,,,,,0.0,0.0,0.0,0.0,0.0,0.0,0
55.936285,-4.407649,4.00,4.10,0.00,1.22,4.00,4.00,1.32,1.32,10594,2022-04-18 09:48:53.945,2022-04-18 10:48:53.944,18,0,0,16.085,55.936289,-4.407668,0.00,0.00,0.00,2.20,5.70,162.60,0,1,0,93,100,-7429,3172,16085,2947.50,6,P-GPS,1,0,0,0,0,0,0,1650275333944,4076,4022,4016,4015,0,0,27,,,,,,,0,0,0,-22.00,57.00,1626.00,0.00,0.00,1624.00,6,40.00,0.00,12.17,0.00,0.00,0.00,0,,,100,100,0,2,0,0,0,2,0,,,,,0.0,0.0,0.0,0.0,0.0,0.0,0
55.936285,-4.407649,4.00,4.10,0.00,1.22,4.00,4.00,1.32,1.32,10697,2022-04-18 09:48:54.048,2022-04-18 10:48:54.047,18,0,0,16.085,55.936289,-4.407668,0.00,0.00,0.00,1.90,5.70,162.50,0,1,0,93,100,-7429,3172,16085,2947.50,6,P-GPS,1,0,0,0,0,0,0,1650275334047,4076,4022,4016,4015,0,0,27,,,,,,,0,0,0,-19.00,57.00,1625.00,0.00,0.00,1624.00,6,40.00,0.00,12.17,0.00,0.00,0.00,0,,,100,100,0,2,0,0,0,2,0,,,,,0.0,0.0,0.0,0.0,0.0,0.0,0
55.936286,-4.407649,4.00,4.10,0.00,1.21,4.00,4.00,1.32,1.32,10800,2022-04-18 09:48:54.150,2022-04-18 10:48:54.150,18,0,0,16.085,55.936289,-4.407668,0.00,0.00,0.00,1.30,5.80,162.50,0,1,0,93,100,-7429,3172,16085,2947.50,6,P-GPS,1,0,0,0,0,0,0,1650275334150,4076,4022,4016,4015,0,0,27,,,,,,,0,0,0,-13.00,58.00,1625.00,0.00,0.00,1624.00,6,40.00,0.00,12.08,0.00,0.00,0.00,0,,,100,100,0,2,0,0,0,2,0,,,,,0.0,0.0,0.0,0.0,0.0,0.0,0
55.936286,-4.407650,4.00,4.10,0.00,1.21,4.00,4.00,1.32,1.32,10895,2022-04-18 09:48:54.245,2022-04-18 10:48:54.245,18,0,0,16.085,55.936289,-4.407668,0.00,0.00,0.00,0.90,5.80,162.50,0,1,0,93,100,-7429,3172,16085,2947.50,6,P-GPS,1,0,0,0,0,0,0,1650275334245,4076,4022,4016,4015,0,0,27,,,,,,,0,0,0,-9.00,58.00,1625.00,0.00,0.00,1624.00,6,40.00,0.00,12.06,0.00,0.00,0.00,0,,,100,100,0,2,0,0,0,2,0,,,,,0.0,0.0,0.0,0.0,0.0,0.0,0
55.936286,-4.407650,4.00,4.10,0.00,1.20,4.00,4.00,1.32,1.32,10994,2022-04-18 09:48:54.344,2022-04-18 10:48:54.344,18,0,0,16.085,55.936289,-4.407668,0.00,0.00,0.00,0.90,6.00,162.50,0,1,0,93,100,-7429,3172,16085,2947.50,6,P-GPS,1,0,0,0,0,0,0,1650275334344,4076,4022,4016,4015,0,0,27,,,,,,,0,0,0,-9.00,60.00,1625.00,0.00,0.00,1624.00,6,40.00,0.00,12.03,0.00,0.00,0.00,0,,,100,100,0,2,0,0,0,2,0,,,,,0.0,0.0,0.0,0.0,0.0,0.0,0
55.936286,-4.407650,4.00,4.10,0.00,1.20,4.00,4.00,1.32,1.32,11098,2022-04-18 09:48:54.448,2022-04-18 10:48:54.448,18,0,0,16.085,55.936289,-4.407668,0.00,0.00,0.00,0.90,5.70,162.50,0,1,0,93,100,-7429,3172,16085,2947.50,6,P-GPS,1,0,0,0,0,0,0,1650275334448,4076,4022,4016,4015,0,0,27,,,,,,,0,0,0,-9.00,57.00,1625.00,0.00,0.00,1624.00,6,40.00,0.00,12.00,0.00,0.00,0.00,0,,,100,100,0,2,0,0,0,2,0,,,,,0.0,0.0,0.0,0.0,0.0,0.0,0
55.936286,-4.407649,4.00,4.10,0.00,1.21,4.00,4.00,1.32,1.32,11204,2022-04-18 09:48:54.554,2022-04-18 10:48:54.554,18,0,0,16.085,55.936289,-4.407668,0.00,0.00,0.00,0.80,5.60,162.40,0,1,0,93,100,-7429,3172,16085,2947.50,6,P-GPS,1,0,0,0,0,0,0,1650275334554,4076,4022,4016,4015,0,0,27,,,,,,,0,0,0,-8.00,56.00,1624.00,0.00,0.00,1624.00,6,40.00,0.00,12.06,0.00,0.00,0.00,0,,,100,100,0,2,0,0,0,2,0,,,,,0.0,0.0,0.0,0.0,0.0,0.0,0
55.936286,-4.407649,4.00,4.10,0.00,1.20,4.00,4.00,1.32,1.32,11295,2022-04-18 09:48:54.645,2022-04-18 10:48:54.645,18,0,0,16.096,55.936289,-4.407668,0.00,0.00,0.00,1.00,5.40,162.50,0,1,0,93,100,-6992,3170,16096,2947.50,6,P-GPS,1,0,0,0,0,0,0,1650275334645,4076,4022,4016,4015,0,0,27,,,,,,,0,0,0,-10.00,54.00,1625.00,0.00,0.00,1624.00,6,40.00,0.00,12.03,0.00,0.00,0.00,0,,,100,100,0,2,0,0,0,2,0,,,,,0.0,0.0,0.0,0.0,0.0,0.0,0
55.936286,-4.407650,4.00,4.10,0.00,1.19,4.00,4.00,1.32,1.32,11397,2022-04-18 09:48:54.748,2022-04-18 10:48:54.747,18,0,0,16.096,55.936289,-4.407668,0.00,0.00,0.00,0.90,5.40,162.40,0,1,0,93,100,-6992,3170,16096,2947.50,6,P-GPS,1,0,0,0,0,0,0,1650275334747,4076,4022,4016,4015,0,0,27,,,,,,,0,0,0,-9.00,54.00,1624.00,0.00,0.00,1624.00,6,40.00,0.00,11.93,0.00,0.00,0.00,0,,,100,100,0,2,0,0,0,2,0,,,,,0.0,0.0,0.0,0.0,0.0,0.0,0
55.936286,-4.407650,4.00,4.10,0.00,1.19,4.00,4.00,1.32,1.32,11495,2022-04-18 09:48:54.846,2022-04-18 10:48:54.845,18,0,0,16.096,55.936289,-4.407668,0.00,0.00,0.00,1.00,5.60,162.40,0,1,0,93,100,-6992,3170,16096,2947.50,6,P-GPS,1,0,0,0,0,0,0,1650275334845,4076,4022,4016,4015,0,0,27,,,,,,,0,0,0,-10.00,56.00,1624.00,0.00,0.00,1624.00,6,40.00,0.00,11.90,0.00,0.00,0.00,0,,,100,100,0,2,0,0,0,2,0,,,,,0.0,0.0,0.0,0.0,0.0,0.0,0
55.936286,-4.407650,4.00,4.10,0.00,1.19,4.00,4.00,1.32,1.32,11602,2022-04-18 09:48:54.952,2022-04-18 10:48:54.952,18,0,0,16.096,55.936289,-4.407668,0.00,0.00,0.00,0.90,5.40,162.40,0,1,0,93,100,-6992,3170,16096,2947.50,6,P-GPS,1,0,0,0,0,0,0,1650275334952,4076,4022,4016,4015,0,0,27,,,,,,,0,0,0,-9.00,54.00,1624.00,0.00,0.00,1624.00,6,40.00,0.00,11.89,0.00,0.00,0.00,0,,,100,100,0,2,0,0,0,2,0,,,,,0.0,0.0,0.0,0.0,0.0,0.0,0
55.936286,-4.407650,4.00,4.10,0.00,1.19,4.00,4.00,1.32,1.32,11695,2022-04-18 09:48:55.045,2022-04-18 10:48:55.045,18,0,0,16.096,55.936289,-4.407668,0.00,0.00,0.00,0.90,5.70,162.40,0,1,0,93,100,-6992,3170,16096,2947.50,6,P-GPS,1,0,0,0,0,0,0,1650275335045,4076,4022,4016,4015,0,0,27,,,,,,,0,0,0,-9.00,57.00,1624.00,0.00,0.00,1624.00,6,40.00,0.00,11.88,0.00,0.00,0.00,0,,,100,100,0,2,0,0,0,2,0,,,,,0.0,0.0,0.0,0.0,0.0,0.0,0
55.936286,-4.407650,4.00,4.10,0.00,1.19,4.00,4.00,1.32,1.32,11799,2022-04-18 09:48:55.150,2022-04-18 10:48:55.149,18,0,0,16.096,55.936289,-4.407668,0.00,0.00,0.00,1.00,5.60,162.30,0,1,0,93,100,-6992,3170,16096,2947.50,6,P-GPS,1,0,0,0,0,0,0,1650275335149,4076,4022,4016,4015,0,0,27,,,,,,,0,0,0,-10.00,56.00,1623.00,0.00,0.00,1624.00,6,40.00,0.00,11.91,0.00,0.00,0.00,0,,,100,100,0,2,0,0,0,2,0,,,,,0.0,0.0,0.0,0.0,0.0,0.0,0
55.936286,-4.407650,4.00,4.10,0.00,1.19,4.00,4.00,1.32,1.32,11901,2022-04-18 09:48:55.251,2022-04-18 10:48:55.251,18,0,0,16.096,55.936289,-4.407668,0.00,0.00,0.00,1.40,5.50,162.30,0,1,0,93,100,-6992,3170,16096,2947.50,6,P-GPS,1,0,0,0,0,0,0,1650275335251,4076,4022,4016,4015,0,0,27,,,,,,,0,0,0,-14.00,55.00,1623.00,0.00,0.00,1624.00,6,40.00,0.00,11.93,0.00,0.00,0.00,0,,,100,100,0,2,0,0,0,2,0,,,,,0.0,0.0,0.0,0.0,0.0,0.0,0
55.936285,-4.407650,4.00,4.10,0.00,1.20,4.00,4.00,1.32,1.32,11998,2022-04-18 09:48:55.348,2022-04-18 10:48:55.348,18,0,0,16.096,55.936289,-4.407668,0.00,0.00,0.00,2.00,5.40,162.40,0,1,0,93,100,-6992,3170,16096,2947.50,6,P-GPS,1,0,0,0,0,0,0,1650275335348,4076,4022,4016,4015,0,0,27,,,,,,,0,0,0,-20.00,54.00,1624.00,0.00,0.00,1624.00,6,40.00,0.00,11.96,0.00,0.00,0.00,0,,,100,100,0,2,0,0,0,2,0,,,,,0.0,0.0,0.0,0.0,0.0,0.0,0
55.936285,-4.407650,4.00,4.10,0.00,1.20,4.00,4.00,1.32,1.32,12093,2022-04-18 09:48:55.444,2022-04-18 10:48:55.444,18,0,0,16.096,55.936289,-4.407668,0.00,0.00,0.00,2.60,5.40,162.50,0,1,0,93,100,-6992,3170,16096,2947.50,6,P-GPS,1,0,0,0,0,0,0,1650275335443,4076,4022,4016,4015,0,0,27,,,,,,,0,0,0,-26.00,54.00,1625.00,0.00,0.00,1624.00,6,40.00,0.00,11.99,0.00,0.00,0.00,0,,,100,100,0,2,0,0,0,2,0,,,,,0.0,0.0,0.0,0.0,0.0,0.0,0
55.936285,-4.407650,4.00,4.10,0.00,1.21,4.00,4.00,1.32,1.32,12194,2022-04-18 09:48:55.545,2022-04-18 10:48:55.545,18,0,0,16.096,55.936289,-4.407668,0.00,0.00,0.00,2.70,5.60,162.50,0,1,0,93,100,-6992,3170,16096,2947.50,6,P-GPS,1,0,0,0,0,0,0,1650275335544,4076,4022,4016,4015,0,0,27,,,,,,,0,0,0,-27.00,56.00,1625.00,0.00,0.00,1624.00,6,40.00,0.00,12.08,0.00,0.00,0.00,0,,,100,100,0,2,0,0,0,2,0,,,,,0.0,0.0,0.0,0.0,0.0,0.0,0
55.936285,-4.407650,4.00,4.10,0.00,1.21,4.00,4.00,1.32,1.32,12293,2022-04-18 09:48:55.643,2022-04-18 10:48:55.643,18,0,0,16.049,55.936289,-4.407668,0.00,0.00,0.00,2.60,6.00,162.50,0,1,0,93,100,-7313,3168,16049,2947.50,6,P-GPS,1,0,0,0,0,0,-30,1650275335643,4076,4022,4016,4015,0,0,27,,,,,,,0,0,0,-26.00,60.00,1625.00,0.00,0.00,1624.00,6,40.00,0.00,12.13,0.00,0.00,0.00,0,,,100,100,0,2,0,0,0,2,0,,,,,0.0,0.0,0.0,0.0,0.0,0.0,0
55.936285,-4.407650,4.00,4.10,0.00,1.21,4.00,4.00,1.32,1.32,12398,2022-04-18 09:48:55.748,2022-04-18 10:48:55.748,18,0,0,16.049,55.936289,-4.407668,0.00,0.00,0.00,2.50,6.20,162.60,0,1,0,93,100,-7313,3168,16049,2947.50,6,P-GPS,1,0,0,0,0,0,-60,1650275335748,4076,4022,4016,4015,0,0,27,,,,,,,0,0,0,-25.00,62.00,1626.00,0.00,0.00,1624.00,6,40.00,0.00,12.15,0.00,0.00,0.00,0,,,100,100,0,2,0,0,0,2,0,,,,,0.0,0.0,0.0,0.0,0.0,0.0,0
55.936285,-4.407650,4.00,4.10,0.00,1.22,4.00,4.00,1.32,1.32,12497,2022-04-18 09:48:55.847,2022-04-18 10:48:55.847,18,0,0,16.049,55.936289,-4.407668,0.00,0.00,0.00,2.10,6.40,162.50,0,1,0,93,100,-7313,3168,16049,2947.50,6,P-GPS,1,0,0,0,0,0,-245,1650275335847,4076,4022,4016,4015,0,0,27,,,,,,,0,0,0,-21.00,64.00,1625.00,-2.00,0.00,1624.00,6,40.00,0.00,12.19,0.00,0.00,0.00,0,,,100,100,0,2,0,0,0,2,0,,,,,0.0,0.0,0.0,0.0,0.0,0.0,0
55.936285,-4.407649,4.00,4.10,0.00,1.23,4.00,4.00,1.32,1.32,12599,2022-04-18 09:48:55.949,2022-04-18 10:48:55.949,18,0,0,16.049,55.936289,-4.407668,0.00,0.00,0.00,2.10,6.60,162.40,0,1,0,93,100,-7313,3168,16049,2947.50,6,P-GPS,1,0,0,0,0,0,-287,1650275335949,4076,4022,4016,4015,0,0,27,,,,,,,0,0,0,-21.00,66.00,1624.00,-7.00,0.00,1624.00,6,40.00,0.00,12.30,0.00,0.00,0.00,0,,,100,100,0,2,0,0,0,2,0,,,,,0.0,0.0,0.0,0.0,0.0,0.0,0
55.936285,-4.407649,4.00,4.10,0.00,1.23,4.00,4.00,1.32,1.32,12695,2022-04-18 09:48:56.047,2022-04-18 10:48:56.045,18,0,0,16.049,55.936289,-4.407668,0.00,0.00,0.00,1.90,6.40,162.40,0,1,0,93,100,-7313,3168,16049,2947.50,6,P-GPS,1,0,0,0,0,0,-404,1650275336045,4076,4022,4016,4015,0,0,27,,,,,,,0,0,0,-19.00,64.00,1624.00,-17.00,0.00,1624.00,6,40.00,0.00,12.34,0.00,0.00,0.00,0,,,100,100,0,2,0,0,0,2,0,,,,,0.0,0.0,0.0,0.0,0.0,0.0,0
55.936285,-4.407649,4.00,4.10,0.00,1.24,4.00,4.00,1.32,1.32,12792,2022-04-18 09:48:56.142,2022-04-18 10:48:56.142,18,0,0,16.049,55.936289,-4.407668,0.00,0.00,0.00,2.00,6.30,162.50,0,1,0,93,100,-7313,3168,16049,2947.50,6,P-GPS,1,0,0,0,0,0,-430,1650275336142,4076,4022,4016,4015,0,0,27,,,,,,,0,0,0,-20.00,63.00,1625.00,-29.00,0.00,1624.00,6,40.00,0.00,12.36,0.00,0.00,0.00,0,,,100,100,0,2,0,0,0,2,0,,,,,0.0,0.0,0.0,0.0,0.0,0.0,0
55.936285,-4.407649,4.00,4.10,0.00,1.24,4.00,4.00,1.32,1.32,12895,2022-04-18 09:48:56.245,2022-04-18 10:48:56.245,18,0,0,16.049,55.936289,-4.407668,0.00,0.00,0.00,2.30,5.90,162.60,0,1,0,93,100,-7313,3168,16049,2947.50,6,P-GPS,1,0,0,0,0,0,-450,1650275336245,4076,4022,4016,4015,0,0,27,,,,,,,0,0,0,-23.00,59.00,1626.00,-44.00,0.00,1624.00,6,40.00,0.00,12.38,0.00,0.00,0.00,0,,,100,100,0,2,0,0,0,2,0,,,,,0.0,0.0,0.0,0.0,0.0,0.0,0
55.936285,-4.407649,4.00,4.10,0.00,1.24,4.00,4.00,1.32,1.32,12996,2022-04-18 09:48:56.347,2022-04-18 10:48:56.346,18,0,0,16.049,55.936289,-4.407668,0.00,0.00,0.00,2.30,5.60,162.60,0,1,0,93,100,-7313,3168,16049,2947.50,6,P-GPS,1,0,0,0,0,0,-452,1650275336346,4076,4022,4016,4015,0,0,27,,,,,,,0,0,0,-23.00,56.00,1626.00,-60.00,0.00,1624.00,6,40.00,0.00,12.36,0.00,0.00,0.00,0,,,100,100,0,2,0,0,0,2,0,,,,,0.0,0.0,0.0,0.0,0.0,0.0,0
55.936285,-4.407649,4.00,4.10,0.00,1.24,4.00,4.00,1.32,1.32,13093,2022-04-18 09:48:56.443,2022-04-18 10:48:56.443,18,0,0,16.049,55.936289,-4.407668,0.00,0.00,0.00,2.10,5.70,162.60,0,1,0,93,100,-7313,3168,16049,2947.50,6,P-GPS,1,0,0,0,0,0,-410,1650275336443,4076,4022,4016,4015,0,0,27,,,,,,,0,0,0,-21.00,57.00,1626.00,-76.00,0.00,1624.00,6,40.00,0.00,12.35,0.00,0.00,0.00,0,,,100,100,0,2,0,0,0,2,0,,,,,0.0,0.0,0.0,0.0,0.0,0.0,0
55.936285,-4.407649,4.00,4.10,0.00,1.23,4.00,4.00,1.32,1.32,13194,2022-04-18 09:48:56.545,2022-04-18 10:48:56.545,18,0,0,16.049,55.936289,-4.407668,0.00,0.00,0.00,1.80,5.80,162.50,0,1,0,93,100,-7313,3168,16049,2947.50,6,P-GPS,1,0,0,0,0,0,-103,1650275336544,4076,4022,4016,4015,0,0,27,,,,,,,0,0,0,-18.00,58.00,1625.00,-91.00,0.00,1624.00,6,40.00,0.00,12.33,0.00,0.00,0.00,0,,,100,100,0,2,0,0,0,2,0,,,,,0.0,0.0,0.0,0.0,0.0,0.0,0
55.936285,-4.407650,4.00,4.10,0.00,1.23,4.00,4.00,1.32,1.32,13301,2022-04-18 09:48:56.652,2022-04-18 10:48:56.651,18,0,0,16.053,55.936289,-4.407668,0.00,0.00,0.00,1.50,5.90,162.50,0,1,0,93,100,-7080,3166,16053,2947.50,6,P-GPS,1,0,0,0,0,0,0,1650275336651,4076,4022,4016,4015,0,0,27,,,,,,,0,0,0,-15.00,59.00,1625.00,-102.00,0.00,1624.00,6,40.00,0.00,12.32,0.00,0.00,0.00,0,,,100,100,0,2,0,0,0,2,0,,,,,0.0,0.0,0.0,0.0,0.0,0.0,0
55.936285,-4.407649,4.00,4.10,0.00,1.24,4.00,4.00,1.32,1.32,13401,2022-04-18 09:48:56.752,2022-04-18 10:48:56.751,18,0,0,16.053,55.936289,-4.407668,0.00,0.00,0.00,1.20,5.90,162.50,0,1,0,93,100,-7080,3166,16053,2947.50,6,P-GPS,1,0,0,0,0,0,0,1650275336751,4076,4022,4016,4015,0,0,27,,,,,,,0,0,0,-12.00,59.00,1625.00,-107.00,0.00,1624.00,6,40.00,0.00,12.35,0.00,0.00,0.00,0,,,100,100,0,2,0,0,0,2,0,,,,,0.0,0.0,0.0,0.0,0.0,0.0,0
55.936285,-4.407650,4.00,4.10,0.00,1.23,4.00,4.00,1.32,1.32,13506,2022-04-18 09:48:56.856,2022-04-18 10:48:56.856,18,0,0,16.053,55.936289,-4.407668,0.00,0.00,0.00,1.10,5.70,162.60,0,1,0,93,100,-7080,3166,16053,2947.50,6,P-GPS,1,0,0,0,0,0,0,1650275336856,4076,4022,4016,4015,0,0,27,,,,,,,0,0,0,-11.00,57.00,1626.00,-108.00,0.00,1624.00,6,40.00,0.00,12.34,0.00,0.00,0.00,0,,,100,100,0,2,0,0,0,2,0,,,,,0.0,0.0,0.0,0.0,0.0,0.0,0
55.936285,-4.407650,4.00,4.10,0.00,1.23,4.00,4.00,1.32,1.32,13593,2022-04-18 09:48:56.943,2022-04-18 10:48:56.943,18,0,0,16.053,55.936289,-4.407668,0.00,0.00,0.00,1.10,5.70,162.40,0,1,0,93,100,-7080,3166,16053,2947.50,6,P-GPS,1,0,0,0,0,0,0,1650275336943,4076,4022,4016,4015,0,0,27,,,,,,,0,0,0,-11.00,57.00,1624.00,-108.00,0.00,1624.00,6,40.00,0.00,12.32,0.00,0.00,0.00,0,,,100,100,0,2,0,0,0,2,0,,,,,0.0,0.0,0.0,0.0,0.0,0.0,0
55.936285,-4.407650,4.00,4.10,0.00,1.23,4.00,4.00,1.32,1.32,13693,2022-04-18 09:48:57.043,2022-04-18 10:48:57.043,18,0,0,16.053,55.936289,-4.407668,0.00,0.00,0.00,1.10,5.70,162.30,0,1,0,93,100,-7080,3166,16053,2947.50,6,P-GPS,1,0,0,0,0,0,0,1650275337043,4076,4022,4016,4015,0,0,27,,,,,,,0,0,0,-11.00,57.00,1623.00,-108.00,0.00,1624.00,6,40.00,0.00,12.31,0.00,0.00,0.00,0,,,100,100,0,2,0,0,0,2,0,,,,,0.0,0.0,0.0,0.0,0.0,0.0,0
55.936285,-4.407650,4.00,4.10,0.00,1.23,4.00,4.00,1.32,1.32,13779,2022-04-18 09:48:57.129,2022-04-18 10:48:57.129,18,0,0,16.053,55.936289,-4.407668,0.00,0.00,0.00,1.10,5.70,162.30,0,1,0,93,100,-7080,3166,16053,2947.50,6,P-GPS,1,0,0,0,0,0,104,1650275337129,4076,4022,4016,4015,0,0,27,,,,,,,0,0,0,-11.00,57.00,1623.00,-108.00,0.00,1624.00,6,40.00,0.00,12.31,0.00,0.00,0.00,0,,,100,100,0,2,0,0,0,2,0,,,,,0.0,0.0,0.0,0.0,0.0,0.0,0
