latitude,longitude,altitude(m),ultrasonicHeight(m),speed(mps),distance(m),max_altitude(m),max_ascent(m),max_speed(mps),max_distance(m),time(millisecond),datetime(utc),datetime(local),satellites,pressure(Pa),temperature(F),voltage(v),home_latitude,home_longitude,velocityX(mps),velocityY(mps),velocityZ(mps),pitch(deg),roll(deg),yaw(deg),powerlevel,isflying,istakingphoto,remainPowerPercent,remainLifePercent,currentCurrent,currentElectricity,currentVoltage,batteryTemperature,dischargeCount,flightmode,isMotorsOn,isTakingVideo,Rc_elevator,Rc_aileron,Rc_throttle,Rc_rudder,Rc_gyro,timestamp,Battery_Cell1,Battery_Cell2,Battery_Cell3,Battery_Cell4,Battery_Cell5,Battery_Cell6,Dronetype,AppVersion,Planename,FlyControllerSerialNumber,RemoteSerialNumber,BatterySerialNumber,CENTER_BATTERY.productDate,CENTER_BATTERY.serialNo,CENTER_BATTERY.fullCapacity,CENTER_BATTERY.productDateRaw,pitchRaw,rollRaw,yawRaw,gimbalPitchRaw,gimbalRollRaw,gimbalYawRaw,flyState,altitudeRaw,speedRaw,distanceRaw,velocityXRaw,velocityYRaw,velocityZRaw,data_reuse,App_Tip,App_Warning,downlinkSignalQuality,uplinkSignalQuality,transmissionChannel,rcModeSwitch,rcHome,rcPause,rcTransform,rcJoystickMode,appMode,FlyControllerSerialNumber_legacy,RemoteSerialNumber_legacy,BatterySerialNumber_legacy,Battery2SerialNumber,frontAvoidDist,backAvoidDist,rightAvoidDist,leftAvoidDist,upAvoidDist,downAvoidDist,isBrakingToAvoid
55.888736,-4.272410,0.40,0.40,0.10,11.98,0.40,0.40,0.10,11.98,0,2022-09-29 11:05:44.903,2022-09-29 12:05:44.902,10,0,0,16.735,55.888736,-4.272411,0.00,0.00,-0.10,0.40,1.20,95.30,0,1,0,99,100,-4120,3297,16735,2929.50,13,TakeOff,1,0,0,0,0,0,0,1664449544902,4199,4175,4181,4181,0,0,27,Litchi_4.24.1-g,CJTMAVIC,163DFAS001K45C,0VECFAK0072T52,0P2AFAL5340E87,,0,0,0,-4.00,12.00,953.00,0.00,0.00,946.00,11,4.00,1.00,119.81,0.00,0.00,-1.00,0,,,100,100,0,2,0,0,0,2,2,,,,null,1.0,1.3,0.0,0.0,0.0,0.0,1
55.888736,-4.272410,0.40,0.40,0.20,11.98,0.40,0.40,0.20,11.98,91,2022-09-29 11:05:44.993,2022-09-29 12:05:44.993,10,0,0,16.735,55.888736,-4.272411,0.00,0.00,-0.20,0.30,1.20,95.20,0,1,0,99,100,-4120,3297,16735,2929.50,13,TakeOff,1,0,0,0,0,0,0,1664449544993,4199,4175,4181,4181,0,0,27,,,,,,,0,0,0,-3.00,12.00,952.00,0.00,0.00,947.00,11,4.00,2.00,119.75,0.00,0.00,-2.00,0,,,100,100,0,2,0,0,0,2,2,,,,,1.0,1.3,0.0,0.0,0.0,0.0,1
55.888736,-4.272410,0.40,0.40,0.30,11.98,0.40,0.40,0.30,11.98,190,2022-09-29 11:05:45.093,2022-09-29 12:05:45.092,10,0,0,16.735,55.888736,-4.272411,0.00,0.00,-0.30,0.20,1.60,95.20,0,1,0,99,100,-4120,3297,16735,2929.50,13,TakeOff,1,0,0,0,0,0,0,1664449545092,4199,4175,4181,4181,0,0,27,,,,,,,0,0,0,-2.00,16.00,952.00,0.00,0.00,947.00,11,4.00,3.00,119.83,0.00,0.00,-3.00,0,,,100,100,0,2,0,0,0,2,2,,,,,1.0,1.3,0.0,0.0,0.0,0.0,1
55.888736,-4.272410,0.40,0.50,0.30,11.98,0.40,0.40,0.30,11.98,291,2022-09-29 11:05:45.193,2022-09-29 12:05:45.193,10,0,0,16.735,55.888736,-4.272411,0.00,0.00,-0.30,0.10,1.80,95.20,0,1,0,99,100,-4120,3297,16735,2929.50,13,TakeOff,1,0,0,0,0,0,0,1664449545193,4199,4175,4181,4181,0,0,27,,,,,,,0,0,0,-1.00,18.00,952.00,0.00,0.00,947.00,11,4.00,3.00,119.78,0.00,0.00,-3.00,0,,,100,100,0,2,0,0,0,2,2,,,,,1.3,2.3,0.0,0.0,0.0,0.0,1
55.888736,-4.272411,0.50,0.50,0.40,11.96,0.50,0.50,0.40,11.98,389,2022-09-29 11:05:45.292,2022-09-29 12:05:45.291,10,0,0,16.735,55.888736,-4.272411,0.00,0.00,-0.40,0.10,1.80,95.20,0,1,0,99,100,-4120,3297,16735,2929.50,13,TakeOff,1,0,0,0,0,0,0,1664449545291,4199,4175,4181,4181,0,0,27,,,,,,,0,0,0,-1.00,18.00,952.00,0.00,0.00,948.00,11,5.00,4.00,119.62,0.00,0.00,-4.00,0,,,100,100,0,2,0,0,0,2,2,,,,,1.3,2.3,0.0,0.0,0.0,0.0,1
55.888736,-4.272411,0.50,0.60,0.40,11.96,0.50,0.50,0.40,11.98,491,2022-09-29 11:05:45.393,2022-09-29 12:05:45.393,10,0,0,16.735,55.888736,-4.272411,0.00,0.00,-0.40,0.00,1.70,95.20,0,1,0,99,100,-4120,3297,16735,2929.50,13,TakeOff,1,0,0,0,0,0,0,1664449545393,4199,4175,4181,4181,0,0,27,,,,,,,0,0,0,-0.00,17.00,952.00,0.00,0.00,948.00,11,5.00,4.00,119.58,0.00,0.00,-4.00,0,,,100,100,0,2,0,0,0,2,2,,,,,1.3,2.3,0.0,0.0,0.0,0.0,1
55.888736,-4.272411,0.60,0.60,0.50,11.95,0.60,0.60,0.50,11.98,592,2022-09-29 11:05:45.495,2022-09-29 12:05:45.495,10,0,0,16.286,55.888736,-4.272411,0.00,0.00,-0.50,0.00,2.00,95.10,0,1,0,99,100,-7063,3295,16286,2929.50,13,TakeOff,1,0,0,0,0,0,0,1664449545494,4199,4175,4181,4181,0,0,27,,,,,,,0,0,0,-0.00,20.00,951.00,0.00,0.00,948.00,11,6.00,5.00,119.45,0.00,0.00,-5.00,0,,,100,100,0,2,0,0,0,2,2,,,,,1.3,2.3,0.0,0.0,0.0,0.0,1
55.888736,-4.272411,0.60,0.70,0.50,11.94,0.60,0.60,0.50,11.98,691,2022-09-29 11:05:45.593,2022-09-29 12:05:45.593,10,0,0,16.286,55.888736,-4.272411,0.00,0.00,-0.50,0.10,2.00,95.10,0,1,0,99,100,-7063,3295,16286,2929.50,13,TakeOff,1,0,0,0,0,0,0,1664449545593,4199,4175,4181,4181,0,0,27,,,,,,,0,0,0,-1.00,20.00,951.00,0.00,0.00,948.00,11,6.00,5.00,119.43,0.00,0.00,-5.00,0,,,100,100,0,2,0,0,0,2,2,,,,,2.9,2.3,0.0,0.0,0.0,0.0,1
55.888736,-4.272411,0.70,0.70,0.50,11.94,0.70,0.70,0.50,11.98,795,2022-09-29 11:05:45.697,2022-09-29 12:05:45.697,10,0,0,16.286,55.888736,-4.272411,0.00,0.00,-0.50,0.20,1.90,95.20,0,1,0,99,100,-7063,3295,16286,2929.50,13,TakeOff,1,0,0,0,0,0,0,1664449545697,4199,4175,4181,4181,0,0,27,,,,,,,0,0,0,-2.00,19.00,952.00,0.00,0.00,948.00,11,7.00,5.00,119.36,0.00,0.00,-5.00,0,,,100,100,0,2,0,0,0,2,2,,,,,2.9,2.3,0.0,0.0,0.0,0.0,1
55.888736,-4.272411,0.70,0.80,0.50,11.94,0.70,0.70,0.50,11.98,890,2022-09-29 11:05:45.793,2022-09-29 12:05:45.792,10,0,0,16.286,55.888736,-4.272411,0.00,0.00,-0.50,0.20,1.60,95.10,0,1,0,99,100,-7063,3295,16286,2929.50,13,TakeOff,1,0,0,0,0,0,0,1664449545792,4199,4175,4181,4181,0,0,27,,,,,,,0,0,0,-2.00,16.00,951.00,0.00,0.00,948.00,11,7.00,5.00,119.35,0.00,0.00,-5.00,0,,,100,100,0,2,0,0,0,2,2,,,,,3.0,2.3,0.0,0.0,0.0,0.0,1
55.888736,-4.272411,0.80,0.80,0.50,11.99,0.80,0.80,0.50,11.99,996,2022-09-29 11:05:45.899,2022-09-29 12:05:45.898,10,0,0,16.286,55.888736,-4.272411,0.00,0.00,-0.50,0.10,1.20,95.10,0,1,0,99,100,-7063,3295,16286,2929.50,13,TakeOff,1,0,0,0,0,0,0,1664449545898,4199,4175,4181,4181,0,0,27,,,,,,,0,0,0,-1.00,12.00,951.00,0.00,0.00,948.00,11,8.00,5.00,119.92,0.00,0.00,-5.00,0,,,100,100,0,2,0,0,0,2,2,,,,,3.0,2.3,0.0,0.0,0.0,0.0,1
55.888736,-4.272411,0.80,0.80,0.50,11.99,0.80,0.80,0.50,11.99,1089,2022-09-29 11:05:45.991,2022-09-29 12:05:45.991,10,0,0,16.286,55.888736,-4.272411,0.00,0.00,-0.50,0.10,1.20,95.10,0,1,0,99,100,-7063,3295,16286,2929.50,13,TakeOff,1,0,0,0,0,0,0,1664449545991,4199,4175,4181,4181,0,0,27,,,,,,,0,0,0,-1.00,12.00,951.00,0.00,0.00,948.00,11,8.00,5.00,119.91,0.00,0.00,-5.00,0,,,100,100,0,2,0,0,0,2,2,,,,,3.0,2.3,0.0,0.0,0.0,0.0,1
55.888736,-4.272412,0.90,0.90,0.50,12.00,0.90,0.90,0.50,12.00,1197,2022-09-29 11:05:46.100,2022-09-29 12:05:46.099,10,0,0,16.286,55.888736,-4.272411,0.00,0.00,-0.50,0.10,0.90,95.10,0,1,0,99,100,-7063,3295,16286,2929.50,13,TakeOff,1,0,0,0,-237,0,0,1664449546099,4199,4175,4181,4181,0,0,27,,,,,,,0,0,0,-1.00,9.00,951.00,0.00,0.00,948.00,11,9.00,5.00,120.02,0.00,0.00,-5.00,0,,,100,100,0,2,0,0,0,2,2,,,,,3.0,2.3,0.0,0.0,0.0,0.0,1
55.888736,-4.272412,0.90,1.00,0.50,12.01,0.90,0.90,0.50,12.01,1290,2022-09-29 11:05:46.193,2022-09-29 12:05:46.192,10,0,0,16.200,55.888736,-4.272411,0.00,0.00,-0.50,0.00,1.00,95.10,0,1,0,99,100,-7347,3293,16200,2929.50,13,TakeOff,1,0,0,0,-658,0,0,1664449546192,4199,4175,4181,4181,0,0,27,,,,,,,0,0,0,-0.00,10.00,951.00,0.00,0.00,948.00,11,9.00,5.00,120.06,0.00,0.00,-5.00,0,,,100,100,0,2,0,0,0,2,2,,,,,3.1,2.3,0.0,0.0,0.0,0.0,0
55.888736,-4.272411,1.00,1.00,0.30,12.00,1.00,1.00,0.50,12.01,1397,2022-09-29 11:05:46.300,2022-09-29 12:05:46.299,10,0,0,16.200,55.888736,-4.272411,0.00,0.00,-0.30,-0.30,1.10,95.20,0,1,0,99,100,-7347,3293,16200,2929.50,13,TakeOff,1,0,0,0,-660,0,0,1664449546299,4199,4175,4181,4181,0,0,27,,,,,,,0,0,0,3.00,11.00,952.00,0.00,0.00,948.00,11,10.00,3.00,119.97,0.00,0.00,-3.00,0,,,100,100,0,2,0,0,0,2,2,,,,,3.1,2.3,0.0,0.0,0.0,0.0,0
55.888736,-4.272412,1.00,1.10,0.10,12.00,1.00,1.00,0.50,12.01,1490,2022-09-29 11:05:46.393,2022-09-29 12:05:46.392,10,0,0,16.200,55.888736,-4.272411,0.00,0.00,-0.10,-0.50,1.30,95.20,0,1,0,99,100,-7347,3293,16200,2929.50,13,TakeOff,1,0,0,0,-660,0,0,1664449546392,4199,4175,4181,4181,0,0,27,,,,,,,0,0,0,5.00,13.00,952.00,0.00,0.00,948.00,6,10.00,1.00,120.00,0.00,0.00,-1.00,0,,,100,100,0,2,0,0,0,2,2,,,,,3.1,2.3,0.0,0.0,0.0,0.0,0
55.888736,-4.272412,1.00,1.10,0.00,11.97,1.00,1.00,0.50,12.01,1589,2022-09-29 11:05:46.491,2022-09-29 12:05:46.491,10,0,0,16.200,55.888736,-4.272411,0.00,0.00,0.00,-0.50,1.20,95.20,0,1,0,99,100,-7347,3293,16200,2929.50,13,P-GPS,1,0,0,0,-660,0,0,1664449546491,4199,4175,4181,4181,0,0,27,,,,,,,0,0,0,5.00,12.00,952.00,0.00,0.00,948.00,6,10.00,0.00,119.65,0.00,0.00,0.00,0,,,100,100,0,2,0,0,0,2,2,,,,,3.1,2.3,0.0,0.0,0.0,0.0,0
55.888736,-4.272412,1.00,1.00,0.20,11.96,1.00,1.00,0.50,12.01,1685,2022-09-29 11:05:46.587,2022-09-29 12:05:46.587,10,0,0,16.200,55.888736,-4.272411,0.00,0.00,0.20,-0.30,1.10,95.20,0,1,0,99,100,-7347,3293,16200,2929.50,13,P-GPS,1,0,0,0,-660,0,0,1664449546587,4199,4175,4181,4181,0,0,27,,,,,,,0,0,0,3.00,11.00,952.00,0.00,0.00,948.00,6,10.00,2.00,119.64,0.00,0.00,2.00,0,,,100,100,0,2,0,0,0,2,2,,,,,3.2,2.3,0.0,0.0,0.0,0.0,0
55.888736,-4.272412,1.00,1.00,0.20,11.96,1.00,1.00,0.50,12.01,1800,2022-09-29 11:05:46.702,2022-09-29 12:05:46.702,10,0,0,16.200,55.888736,-4.272411,0.00,0.00,0.20,0.00,1.00,95.30,0,1,0,99,100,-7347,3293,16200,2929.50,13,P-GPS,1,0,0,0,-660,0,0,1664449546702,4199,4175,4181,4181,0,0,27,,,,,,,0,0,0,-0.00,10.00,953.00,0.00,0.00,948.00,17,10.00,2.00,119.55,0.00,0.00,2.00,0,,,100,100,0,2,0,0,0,2,2,,,,,3.2,2.3,0.0,0.0,0.0,0.0,0
55.888736,-4.272412,0.90,1.00,0.10,11.97,1.00,1.00,0.50,12.01,1997,2022-09-29 11:05:46.900,2022-09-29 12:05:46.899,10,0,0,16.200,55.888736,-4.272411,0.00,0.00,0.10,0.10,0.70,95.30,0,1,0,99,100,-7347,3293,16200,2929.50,13,Joystick,1,0,0,0,-660,0,0,1664449546899,4199,4175,4181,4181,0,0,27,,,,,,,0,0,0,-1.00,7.00,953.00,26.00,0.00,948.00,17,9.00,1.00,119.68,0.00,0.00,1.00,0,,,100,100,0,2,0,0,0,2,2,,,,,3.2,2.3,0.0,0.0,0.0,0.0,0
55.888736,-4.272412,0.90,1.00,0.00,11.96,1.00,1.00,0.50,12.01,2090,2022-09-29 11:05:46.993,2022-09-29 12:05:46.992,10,0,0,16.200,55.888736,-4.272411,0.00,0.00,0.00,0.10,0.90,95.20,0,1,0,99,100,-7347,3293,16200,2929.50,13,Joystick,1,0,0,0,-660,0,0,1664449546992,4199,4175,4181,4181,0,0,27,,,,,,,0,0,0,-1.00,9.00,952.00,50.00,0.00,948.00,17,9.00,0.00,119.64,0.00,0.00,0.00,0,,,100,100,0,2,0,0,0,2,2,,,,,3.2,2.3,0.0,0.0,0.0,0.0,0
55.888736,-4.272413,0.90,1.00,0.00,11.96,1.00,1.00,0.50,12.01,2190,2022-09-29 11:05:47.093,2022-09-29 12:05:47.092,10,0,0,16.200,55.888736,-4.272411,0.00,0.00,0.00,0.00,1.00,95.20,0,1,0,99,100,-7347,3293,16200,2929.50,13,Joystick,1,0,0,0,-660,0,0,1664449547092,4199,4175,4181,4181,0,0,27,,,,,,,0,0,0,-0.00,10.00,952.00,80.00,0.00,948.00,17,9.00,0.00,119.55,0.00,0.00,0.00,0,,,100,100,0,2,0,0,0,2,2,,,,,3.2,2.3,0.0,0.0,0.0,0.0,0
55.888736,-4.272413,0.90,0.90,0.00,11.95,1.00,1.00,0.50,12.01,2291,2022-09-29 11:05:47.193,2022-09-29 12:05:47.193,10,0,0,16.200,55.888736,-4.272411,0.00,0.00,0.00,-0.10,0.70,94.60,0,1,0,99,100,-7347,3293,16200,2929.50,13,Joystick,1,0,0,0,-660,0,0,1664449547193,4199,4175,4181,4181,0,0,27,,,,,,,0,0,0,1.00,7.00,946.00,116.00,0.00,948.00,17,9.00,0.00,119.50,0.00,0.00,0.00,0,,,100,100,0,2,0,0,0,2,2,,,,,3.2,2.3,0.0,0.0,0.0,0.0,0
55.888736,-4.272413,0.90,1.00,0.30,11.95,1.00,1.00,0.50,12.01,2388,2022-09-29 11:05:47.291,2022-09-29 12:05:47.290,10,0,0,16.200,55.888736,-4.272411,0.00,0.00,-0.30,-0.40,0.50,94.10,0,1,0,99,100,-7347,3293,16200,2929.50,13,Joystick,1,0,0,0,-660,0,0,1664449547290,4199,4175,4181,4181,0,0,27,,,,,,,0,0,0,4.00,5.00,941.00,154.00,0.00,948.00,17,9.00,3.00,119.46,0.00,0.00,-3.00,0,,,100,100,0,2,0,0,0,2,2,,,,,3.2,2.3,0.0,0.0,0.0,0.0,0
55.888736,-4.272413,1.00,1.00,0.80,11.94,1.00,1.00,0.80,12.01,2486,2022-09-29 11:05:47.388,2022-09-29 12:05:47.388,10,0,0,16.200,55.888736,-4.272411,0.00,0.00,-0.80,-0.30,0.70,93.20,0,1,0,99,100,-7347,3293,16200,2929.50,13,Joystick,1,0,0,0,-660,0,0,1664449547388,4199,4175,4181,4181,0,0,27,,,,,,,0,0,0,3.00,7.00,932.00,196.00,0.00,948.00,17,10.00,8.00,119.39,0.00,0.00,-8.00,0,,,100,100,0,2,0,0,0,2,2,,,,,3.2,2.3,0.0,0.0,0.0,0.0,0
55.888736,-4.272413,1.10,1.10,1.30,11.94,1.10,1.10,1.30,12.01,2583,2022-09-29 11:05:47.485,2022-09-29 12:05:47.485,10,0,0,16.413,55.888736,-4.272411,0.00,0.00,-1.30,-0.40,1.90,92.30,0,1,0,99,100,-6277,3291,16413,2929.50,13,Joystick,1,0,0,0,-660,0,0,1664449547485,4199,4175,4181,4181,0,0,27,,,,,,,0,0,0,4.00,19.00,923.00,241.00,0.00,947.00,17,11.00,13.00,119.38,0.00,0.00,-13.00,0,,,100,100,0,2,0,0,0,2,2,,,,,3.2,2.3,0.0,0.0,0.0,0.0,0
55.888736,-4.272414,1.20,1.30,1.70,11.93,1.20,1.20,1.70,12.01,2690,2022-09-29 11:05:47.593,2022-09-29 12:05:47.592,10,0,0,16.413,55.888736,-4.272411,0.00,0.00,-1.70,-0.60,2.10,91.30,0,1,0,99,100,-6277,3291,16413,2929.50,13,Joystick,1,0,0,0,-660,0,0,1664449547592,4199,4175,4181,4181,0,0,27,,,,,,,0,0,0,6.00,21.00,913.00,274.00,0.00,945.00,17,12.00,17.00,119.35,0.00,0.00,-17.00,0,,,100,100,0,2,0,0,0,2,2,,,,,3.2,2.3,0.0,0.0,0.0,0.0,0
55.888736,-4.272414,1.40,1.50,2.20,11.93,1.40,1.40,2.20,12.01,2792,2022-09-29 11:05:47.694,2022-09-29 12:05:47.694,10,0,0,16.413,55.888736,-4.272411,0.00,0.00,-2.20,-0.40,1.30,90.20,0,1,0,99,100,-6277,3291,16413,2929.50,13,Joystick,1,0,0,0,0,0,0,1664449547694,4199,4175,4181,4181,0,0,27,,,,,,,0,0,0,4.00,13.00,902.00,275.00,0.00,941.00,17,14.00,22.00,119.29,0.00,0.00,-22.00,0,,,100,100,0,2,0,0,0,2,2,,,,,3.2,2.3,0.0,0.0,0.0,0.0,0
55.888736,-4.272414,1.70,1.80,2.70,11.93,1.70,1.70,2.70,12.01,2895,2022-09-29 11:05:47.797,2022-09-29 12:05:47.797,10,0,0,16.413,55.888736,-4.272411,0.00,0.00,-2.70,0.00,0.30,89.00,0,1,0,99,100,-6277,3291,16413,2929.50,13,Joystick,1,0,0,0,0,0,0,1664449547797,4199,4175,4181,4181,0,0,27,,,,,,,0,0,0,-0.00,3.00,890.00,276.00,0.00,934.00,17,17.00,27.00,119.31,0.00,0.00,-27.00,0,,,100,100,0,2,0,0,0,2,2,,,,,3.4,2.3,0.0,0.0,0.0,0.0,0
55.888736,-4.272414,2.00,2.10,3.20,11.93,2.00,2.00,3.20,12.01,2995,2022-09-29 11:05:47.897,2022-09-29 12:05:47.897,10,0,0,16.413,55.888736,-4.272411,0.00,0.00,-3.20,0.10,0.00,87.80,0,1,0,99,100,-6277,3291,16413,2929.50,13,Joystick,1,0,0,0,0,0,0,1664449547897,4199,4175,4181,4181,0,0,27,,,,,,,0,0,0,-1.00,0.00,878.00,280.00,0.00,925.00,17,20.00,32.00,119.33,0.00,0.00,-32.00,0,,,100,100,0,2,0,0,0,2,2,,,,,3.4,2.3,0.0,0.0,0.0,0.0,0
55.888736,-4.272414,2.30,2.50,3.60,11.97,2.30,2.30,3.60,12.01,3093,2022-09-29 11:05:47.995,2022-09-29 12:05:47.995,10,0,0,16.413,55.888736,-4.272411,0.00,0.00,-3.60,0.50,0.00,86.50,0,1,0,99,100,-6277,3291,16413,2929.50,13,Joystick,1,0,0,0,0,0,0,1664449547995,4199,4175,4181,4181,0,0,27,,,,,,,0,0,0,-5.00,0.00,865.00,282.00,0.00,916.00,17,23.00,36.00,119.65,0.00,0.00,-36.00,0,,,100,100,0,2,0,0,0,2,2,,,,,11.5,2.3,0.0,0.0,0.0,0.0,0
55.888736,-4.272415,2.70,2.80,3.80,11.97,2.70,2.70,3.80,12.01,3194,2022-09-29 11:05:48.096,2022-09-29 12:05:48.096,10,0,0,16.413,55.888736,-4.272411,0.00,0.00,-3.80,0.60,0.00,84.90,0,1,0,99,100,-6277,3291,16413,2929.50,13,Joystick,1,0,0,0,0,0,0,1664449548096,4199,4175,4181,4181,0,0,27,,,,,,,0,0,0,-6.00,0.00,849.00,286.00,0.00,903.00,17,27.00,38.00,119.67,0.00,0.00,-38.00,0,,,100,100,0,2,0,0,0,2,2,,,,,11.5,2.3,0.0,0.0,0.0,0.0,0
55.888736,-4.272415,3.10,3.30,4.00,11.97,3.10,3.10,4.00,12.01,3291,2022-09-29 11:05:48.194,2022-09-29 12:05:48.194,10,0,0,16.413,55.888736,-4.272411,0.00,0.00,-4.00,1.00,0.40,83.20,0,1,0,99,100,-6277,3291,16413,2929.50,13,Joystick,1,0,0,0,0,0,0,1664449548193,4199,4175,4181,4181,0,0,27,,,,,,,0,0,0,-10.00,4.00,832.00,289.00,0.00,888.00,17,31.00,40.00,119.66,0.00,0.00,-40.00,0,,,100,100,0,2,0,0,0,2,2,,,,,0.0,2.3,0.0,0.0,0.0,0.0,0
55.888736,-4.272415,3.50,3.70,4.00,12.00,3.50,3.50,4.00,12.01,3387,2022-09-29 11:05:48.289,2022-09-29 12:05:48.289,10,0,0,16.413,55.888736,-4.272411,0.00,0.00,-4.00,0.10,1.10,81.50,0,1,0,99,100,-6277,3291,16413,2929.50,13,Joystick,1,0,0,0,0,0,0,1664449548289,4199,4175,4181,4181,0,0,27,,,,,,,0,0,0,-1.00,11.00,815.00,290.00,0.00,870.00,17,35.00,40.00,119.98,0.00,0.00,-40.00,0,,,100,100,0,2,0,0,0,2,2,,,,,0.0,2.0,0.0,0.0,0.0,0.0,0
55.888735,-4.272415,3.90,4.10,4.10,12.00,3.90,3.90,4.10,12.01,3491,2022-09-29 11:05:48.393,2022-09-29 12:05:48.393,10,0,0,16.413,55.888736,-4.272411,0.00,0.00,-4.10,-0.50,0.60,79.90,0,1,0,99,100,-6277,3291,16413,2929.50,13,Joystick,1,0,0,0,-79,0,0,1664449548393,4199,4175,4181,4181,0,0,27,,,,,,,0,0,0,5.00,6.00,799.00,290.00,0.00,853.00,17,39.00,41.00,120.02,0.00,0.00,-41.00,0,,,100,100,0,2,0,0,0,2,2,,,,,0.0,1.9,0.0,0.0,0.0,0.0,0
55.888735,-4.272416,4.40,4.60,4.10,12.04,4.40,4.40,4.10,12.04,3595,2022-09-29 11:05:48.497,2022-09-29 12:05:48.497,10,0,0,15.740,55.888736,-4.272411,-0.10,0.00,-4.10,-0.70,-0.10,78.20,0,1,0,99,100,-9563,3289,15740,2929.50,13,Joystick,1,0,0,0,0,0,0,1664449548497,4199,4175,4181,4181,0,0,27,,,,,,,0,0,0,7.00,-1.00,782.00,272.00,0.00,837.00,17,44.00,41.01,120.41,-1.00,0.00,-41.00,0,,,100,100,0,2,0,0,0,2,2,,,,,0.0,1.9,0.0,0.0,0.0,0.0,0
55.888735,-4.272416,4.80,5.00,4.10,12.05,4.80,4.80,4.10,12.05,3694,2022-09-29 11:05:48.597,2022-09-29 12:05:48.596,10,0,0,15.740,55.888736,-4.272411,-0.10,0.00,-4.10,-1.10,-0.80,76.40,0,1,0,99,100,-9563,3289,15740,2929.50,13,Joystick,1,0,0,0,0,0,0,1664449548596,4199,4175,4181,4181,0,0,27,,,,,,,0,0,0,11.00,-8.00,764.00,264.00,0.00,820.00,17,48.00,41.01,120.52,-1.00,0.00,-41.00,0,,,100,100,0,2,0,0,0,2,2,,,,,0.0,1.9,0.0,0.0,0.0,0.0,0
55.888735,-4.272417,5.20,5.40,4.10,12.05,5.20,5.20,4.10,12.05,3791,2022-09-29 11:05:48.693,2022-09-29 12:05:48.693,10,0,0,15.740,55.888736,-4.272411,-0.10,0.00,-4.10,-1.10,-1.20,74.50,0,1,0,99,100,-9563,3289,15740,2929.50,13,Joystick,1,0,0,0,0,0,0,1664449548693,4199,4175,4181,4181,0,0,27,,,,,,,0,0,0,11.00,-12.00,745.00,264.00,0.00,802.00,17,52.00,41.01,120.53,-1.00,0.00,-41.00,0,,,100,100,0,2,0,0,0,2,2,,,,,0.0,1.9,0.0,0.0,0.0,0.0,0
55.888735,-4.272417,5.60,5.80,4.00,12.06,5.60,5.60,4.10,12.06,3896,2022-09-29 11:05:48.798,2022-09-29 12:05:48.798,10,0,0,15.740,55.888736,-4.272411,0.00,0.00,-4.00,-1.10,-1.40,72.40,0,1,0,99,100,-9563,3289,15740,2929.50,13,Joystick,1,0,0,0,-2,0,0,1664449548798,4199,4175,4181,4181,0,0,27,,,,,,,0,0,0,11.00,-14.00,724.00,264.00,0.00,782.00,17,56.00,40.00,120.64,0.00,0.00,-40.00,0,,,100,100,0,2,0,0,0,2,2,,,,,0.0,1.9,0.0,0.0,0.0,0.0,0
55.888735,-4.272417,6.00,6.20,4.00,12.20,6.00,6.00,4.10,12.20,3993,2022-09-29 11:05:48.895,2022-09-29 12:05:48.895,10,0,0,15.740,55.888736,-4.272411,0.00,0.00,-4.00,-1.20,-1.50,70.30,0,1,0,99,100,-9563,3289,15740,2929.50,13,Joystick,1,0,0,0,0,0,0,1664449548895,4199,4175,4181,4181,0,0,27,,,,,,,0,0,0,12.00,-15.00,703.00,264.00,0.00,761.00,17,60.00,40.00,121.97,0.00,0.00,-40.00,0,,,100,100,0,2,0,0,0,2,2,,,,,0.0,1.9,0.0,0.0,0.0,0.0,0
55.888735,-4.272417,6.40,6.50,4.00,12.21,6.40,6.40,4.10,12.21,4092,2022-09-29 11:05:48.994,2022-09-29 12:05:48.994,10,0,0,15.740,55.888736,-4.272411,0.00,0.00,-4.00,-1.50,-1.50,68.00,0,1,0,99,100,-9563,3289,15740,2929.50,13,Joystick,1,0,0,0,0,0,0,1664449548994,4199,4175,4181,4181,0,0,27,,,,,,,0,0,0,15.00,-15.00,680.00,264.00,0.00,738.00,17,64.00,40.00,122.09,0.00,0.00,-40.00,0,,,100,100,0,2,0,0,0,2,2,,,,,0.0,1.9,0.0,0.0,0.0,0.0,0
55.888735,-4.272417,6.80,6.90,4.00,12.18,6.80,6.80,4.10,12.21,4194,2022-09-29 11:05:49.097,2022-09-29 12:05:49.096,10,0,0,15.740,55.888736,-4.272411,0.00,0.00,-4.00,-1.60,-1.40,65.50,0,1,0,99,100,-9563,3289,15740,2929.50,13,Joystick,1,0,0,0,0,0,0,1664449549096,4199,4175,4181,4181,0,0,27,,,,,,,0,0,0,16.00,-14.00,655.00,264.00,0.00,714.00,17,68.00,40.00,121.80,0.00,0.00,-40.00,0,,,100,100,0,2,0,0,0,2,2,,,,,0.0,1.9,0.0,0.0,0.0,0.0,0
55.888735,-4.272418,7.20,7.30,4.00,12.18,7.20,7.20,4.10,12.21,4286,2022-09-29 11:05:49.188,2022-09-29 12:05:49.188,10,0,0,15.740,55.888736,-4.272411,0.00,0.00,-4.00,-1.30,-1.20,62.90,0,1,0,99,100,-9563,3289,15740,2929.50,13,Joystick,1,0,0,0,0,0,0,1664449549188,4199,4175,4181,4181,0,0,27,,,,,,,0,0,0,13.00,-12.00,629.00,264.00,0.00,689.00,17,72.00,40.00,121.79,0.00,0.00,-40.00,0,,,100,100,0,2,0,0,0,2,2,,,,,0.0,1.9,0.0,0.0,0.0,0.0,0
55.888735,-4.272417,7.60,7.70,4.00,12.15,7.60,7.60,4.10,12.21,4398,2022-09-29 11:05:49.300,2022-09-29 12:05:49.300,10,0,0,15.740,55.888736,-4.272411,0.00,0.00,-4.00,-0.80,-0.90,60.30,0,1,0,99,100,-9563,3289,15740,2929.50,13,Joystick,1,0,0,0,0,0,0,1664449549300,4199,4175,4181,4181,0,0,27,,,,,,,0,0,0,8.00,-9.00,603.00,264.00,0.00,663.00,17,76.00,40.00,121.55,0.00,0.00,-40.00,0,,,100,100,0,2,0,0,0,2,2,,,,,0.0,2.1,0.0,0.0,0.0,0.0,0
55.888735,-4.272417,8.10,8.10,4.00,12.15,8.10,8.10,4.10,12.21,4486,2022-09-29 11:05:49.388,2022-09-29 12:05:49.388,10,0,0,15.740,55.888736,-4.272411,0.00,0.00,-4.00,-0.60,-0.80,57.70,0,1,0,99,100,-9563,3289,15740,2929.50,13,Joystick,1,0,0,0,0,0,0,1664449549388,4199,4175,4181,4181,0,0,27,,,,,,,0,0,0,6.00,-8.00,577.00,264.00,0.00,636.00,17,81.00,40.00,121.53,0.00,0.00,-40.00,0,,,100,100,0,2,0,0,0,2,2,,,,,0.0,2.1,0.0,0.0,0.0,0.0,0
55.888735,-4.272418,8.50,8.40,4.00,12.13,8.50,8.50,4.10,12.21,4583,2022-09-29 11:05:49.485,2022-09-29 12:05:49.485,10,0,0,15.892,55.888736,-4.272411,0.00,0.00,-4.00,-0.60,-0.60,55.10,0,1,0,99,100,-10938,3286,15892,2930.50,13,Joystick,1,0,0,0,0,0,0,1664449549485,4199,4175,4181,4181,0,0,27,,,,,,,0,0,0,6.00,-6.00,551.00,264.00,0.00,610.00,17,85.00,40.00,121.31,0.00,0.00,-40.00,0,,,100,100,0,2,0,0,0,2,2,,,,,0.0,2.1,0.0,0.0,0.0,0.0,0
55.888736,-4.272418,8.90,8.80,4.00,12.13,8.90,8.90,4.10,12.21,4686,2022-09-29 11:05:49.590,2022-09-29 12:05:49.588,10,0,0,15.892,55.888736,-4.272411,0.00,0.00,-4.00,-0.60,-0.60,52.30,0,1,0,99,100,-10938,3286,15892,2930.50,13,Joystick,1,0,0,0,0,0,0,1664449549588,4199,4175,4181,4181,0,0,27,,,,,,,0,0,0,6.00,-6.00,523.00,264.00,0.00,583.00,17,89.00,40.00,121.25,0.00,0.00,-40.00,0,,,100,100,0,2,0,0,0,2,2,,,,,0.0,2.1,0.0,0.0,0.0,0.0,0
55.888735,-4.272418,9.30,9.20,4.00,12.17,9.30,9.30,4.10,12.21,4790,2022-09-29 11:05:49.692,2022-09-29 12:05:49.692,10,0,0,15.892,55.888736,-4.272411,0.00,0.00,-4.00,-0.50,-0.50,49.20,0,1,0,99,100,-10938,3286,15892,2930.50,13,Joystick,1,0,0,0,0,0,0,1664449549692,4199,4175,4181,4181,0,0,27,,,,,,,0,0,0,5.00,-5.00,492.00,264.00,0.00,553.00,17,93.00,40.00,121.72,0.00,0.00,-40.00,0,,,100,100,0,2,0,0,0,2,2,,,,,0.0,3.7,0.0,0.0,0.0,0.0,0
55.888735,-4.272418,9.70,9.60,4.00,12.17,9.70,9.70,4.10,12.21,4887,2022-09-29 11:05:49.789,2022-09-29 12:05:49.789,10,0,0,15.892,55.888736,-4.272411,0.00,0.00,-4.00,-0.50,-0.50,46.10,0,1,0,99,100,-10938,3286,15892,2930.50,13,Joystick,1,0,0,0,0,0,0,1664449549789,4199,4175,4181,4181,0,0,27,,,,,,,0,0,0,5.00,-5.00,461.00,264.00,0.00,523.00,17,97.00,40.00,121.70,0.00,0.00,-40.00,0,,,100,100,0,2,0,0,0,2,2,,,,,0.0,3.7,0.0,0.0,0.0,0.0,0
55.888735,-4.272418,10.10,10.00,4.00,12.24,10.10,10.10,4.10,12.24,4992,2022-09-29 11:05:49.894,2022-09-29 12:05:49.894,10,0,0,15.892,55.888736,-4.272411,0.00,0.00,-4.00,-0.40,-0.50,43.00,0,1,0,99,100,-10938,3286,15892,2930.50,13,Joystick,1,0,0,0,0,0,0,1664449549894,4199,4175,4181,4181,0,0,27,,,,,,,0,0,0,4.00,-5.00,430.00,264.00,0.00,492.00,17,101.00,40.00,122.36,0.00,0.00,-40.00,0,,,100,100,0,2,0,0,0,2,2,,,,,0.0,3.9,0.0,0.0,0.0,0.0,0
55.888735,-4.272418,10.50,10.40,4.00,12.24,10.50,10.50,4.10,12.24,5091,2022-09-29 11:05:49.994,2022-09-29 12:05:49.993,10,0,0,15.892,55.888736,-4.272411,0.00,0.00,-4.00,-0.40,-0.30,39.90,0,1,0,99,100,-10938,3286,15892,2930.50,13,Joystick,1,0,0,0,0,0,0,1664449549993,4199,4175,4181,4181,0,0,27,,,,,,,0,0,0,4.00,-3.00,399.00,264.00,0.00,460.00,17,105.00,40.00,122.36,0.00,0.00,-40.00,0,,,100,100,0,2,0,0,0,2,2,,,,,0.0,3.9,0.0,0.0,0.0,0.0,0
55.888735,-4.272418,10.90,10.80,3.90,12.25,10.90,10.90,4.10,12.25,5197,2022-09-29 11:05:50.100,2022-09-29 12:05:50.099,10,0,0,15.892,55.888736,-4.272411,0.00,0.00,-3.90,-0.50,-0.10,36.90,0,1,0,99,100,-10938,3286,15892,2930.50,13,Joystick,1,0,0,0,0,0,0,1664449550099,4199,4175,4181,4181,0,0,27,,,,,,,0,0,0,5.00,-1.00,369.00,264.00,0.00,428.00,17,109.00,39.00,122.53,0.00,0.00,-39.00,0,,,100,100,0,2,0,0,0,2,2,,,,,0.0,6.2,0.0,0.0,0.0,0.0,0
55.888735,-4.272418,11.30,11.20,3.90,12.25,11.30,11.30,4.10,12.25,5288,2022-09-29 11:05:50.190,2022-09-29 12:05:50.190,10,0,0,15.892,55.888736,-4.272411,0.00,0.00,-3.90,-0.20,-0.20,34.00,0,1,0,99,100,-10938,3286,15892,2930.50,13,Joystick,1,0,0,0,0,0,0,1664449550190,4199,4175,4181,4181,0,0,27,,,,,,,0,0,0,2.00,-2.00,340.00,264.00,0.00,398.00,17,113.00,39.00,122.53,0.00,0.00,-39.00,0,,,100,100,0,2,0,0,0,2,2,,,,,0.0,6.2,0.0,0.0,0.0,0.0,0
55.888735,-4.272418,11.30,11.20,3.90,12.26,11.30,11.30,4.10,12.26,5387,2022-09-29 11:05:50.290,2022-09-29 12:05:50.289,10,0,0,15.892,55.888736,-4.272411,0.00,0.00,-3.90,-0.20,-0.20,34.00,0,1,0,99,100,-10938,3286,15892,2930.50,13,Joystick,1,0,0,0,0,0,0,1664449550289,4199,4175,4181,4181,0,0,27,,,,,,,0,0,0,2.00,-2.00,340.00,264.00,0.00,398.00,17,113.00,39.00,122.60,0.00,0.00,-39.00,0,,,100,100,0,2,0,0,0,2,2,,,,,0.0,6.2,0.0,0.0,0.0,0.0,0
55.888735,-4.272418,12.10,0.00,3.90,12.25,12.10,12.10,4.10,12.26,5487,2022-09-29 11:05:50.389,2022-09-29 12:05:50.389,10,0,0,15.892,55.888736,-4.272411,0.00,0.00,-3.90,-0.30,0.00,28.60,0,1,0,99,100,-10938,3286,15892,2930.50,13,Joystick,1,0,0,0,0,0,0,1664449550389,4199,4175,4181,4181,0,0,27,,,,,,,0,0,0,3.00,0.00,286.00,264.00,0.00,343.00,17,121.00,39.00,122.47,0.00,0.00,-39.00,0,,,100,100,0,2,0,0,0,2,2,,,,,0.0,14.1,0.0,0.0,0.0,0.0,0
55.888735,-4.272418,12.40,0.00,3.90,12.27,12.40,12.40,4.10,12.27,5596,2022-09-29 11:05:50.498,2022-09-29 12:05:50.498,10,0,0,15.914,55.888736,-4.272411,0.00,0.00,-3.90,-0.30,0.00,25.80,0,1,0,99,100,-8615,3283,15914,2930.50,13,Joystick,1,0,0,0,0,0,0,1664449550498,4199,4175,4181,4181,0,0,27,,,,,,,0,0,0,3.00,0.00,258.00,264.00,0.00,316.00,17,124.00,39.00,122.69,0.00,0.00,-39.00,0,,,100,100,0,2,0,0,0,2,2,,,,,0.0,14.1,0.0,0.0,0.0,0.0,0
55.888735,-4.272419,12.80,0.00,3.90,12.26,12.80,12.80,4.10,12.27,5687,2022-09-29 11:05:50.589,2022-09-29 12:05:50.589,10,0,0,15.914,55.888736,-4.272411,0.00,0.00,-3.90,0.00,0.20,23.40,0,1,0,99,100,-8615,3283,15914,2930.50,13,Joystick,1,0,0,0,0,0,0,1664449550589,4199,4175,4181,4181,0,0,27,,,,,,,0,0,0,-0.00,2.00,234.00,264.00,0.00,290.00,17,128.00,39.00,122.63,0.00,0.00,-39.00,0,,,100,100,0,2,0,0,0,2,2,,,,,0.0,14.1,0.0,0.0,0.0,0.0,0
55.888735,-4.272419,13.20,0.00,4.00,12.29,13.20,13.20,4.10,12.29,5786,2022-09-29 11:05:50.689,2022-09-29 12:05:50.688,10,0,0,15.914,55.888736,-4.272411,0.00,0.00,-4.00,-0.10,-0.20,20.90,0,1,0,99,100,-8615,3283,15914,2930.50,13,Joystick,1,0,0,0,0,0,0,1664449550688,4199,4175,4181,4181,0,0,27,,,,,,,0,0,0,1.00,-2.00,209.00,273.00,0.00,265.00,17,132.00,40.00,122.93,0.00,0.00,-40.00,0,,,100,100,0,2,0,0,0,2,2,,,,,0.0,14.1,0.0,0.0,0.0,0.0,0
55.888735,-4.272419,13.60,0.00,4.00,12.30,13.60,13.60,4.10,12.30,5895,2022-09-29 11:05:50.797,2022-09-29 12:05:50.797,10,0,0,15.914,55.888736,-4.272411,0.00,0.00,-4.00,0.00,0.00,18.70,0,1,0,99,100,-8615,3283,15914,2930.50,13,Joystick,1,0,0,0,0,0,0,1664449550797,4199,4175,4181,4181,0,0,27,,,,,,,0,0,0,-0.00,0.00,187.00,279.00,0.00,242.00,17,136.00,40.00,122.97,0.00,0.00,-40.00,0,,,100,100,0,2,0,0,0,2,2,,,,,0.0,0.0,0.0,0.0,0.0,0.0,0
55.888735,-4.272419,14.00,0.00,3.90,12.31,14.00,14.00,4.10,12.31,5992,2022-09-29 11:05:50.894,2022-09-29 12:05:50.894,10,0,0,15.914,55.888736,-4.272411,0.00,0.00,-3.90,-0.20,0.00,16.40,0,1,0,99,100,-8615,3283,15914,2930.50,13,Joystick,1,0,0,0,0,0,0,1664449550894,4199,4175,4181,4181,0,0,27,,,,,,,0,0,0,2.00,0.00,164.00,279.00,0.00,219.00,17,140.00,39.00,123.09,0.00,0.00,-39.00,0,,,100,100,0,2,0,0,0,2,2,,,,,0.0,0.0,0.0,0.0,0.0,0.0,0
55.888735,-4.272419,14.40,0.00,3.90,12.31,14.40,14.40,4.10,12.31,6091,2022-09-29 11:05:50.994,2022-09-29 12:05:50.993,10,0,0,15.914,55.888736,-4.272411,0.00,0.00,-3.90,0.00,-0.30,14.30,0,1,0,99,100,-8615,3283,15914,2930.50,13,Joystick,1,0,0,0,0,0,0,1664449550993,4199,4175,4181,4181,0,0,27,,,,,,,0,0,0,-0.00,-3.00,143.00,279.00,0.00,197.00,17,144.00,39.00,123.11,0.00,0.00,-39.00,0,,,100,100,0,2,0,0,0,2,2,,,,,0.0,0.0,0.0,0.0,0.0,0.0,0
55.888735,-4.272419,14.80,0.00,3.90,12.33,14.80,14.80,4.10,12.33,6183,2022-09-29 11:05:51.085,2022-09-29 12:05:51.085,10,0,0,15.914,55.888736,-4.272411,0.00,0.00,-3.90,0.00,0.00,12.40,0,1,0,99,100,-8615,3283,15914,2930.50,13,Joystick,1,0,0,0,0,0,0,1664449551085,4199,4175,4181,4181,0,0,27,,,,,,,0,0,0,-0.00,0.00,124.00,279.00,0.00,177.00,17,148.00,39.00,123.34,0.00,0.00,-39.00,0,,,100,100,0,2,0,0,0,2,2,,,,,0.0,0.0,0.0,0.0,0.0,0.0,0
55.888735,-4.272419,15.20,0.00,3.90,12.34,15.20,15.20,4.10,12.34,6290,2022-09-29 11:05:51.193,2022-09-29 12:05:51.192,10,0,0,15.914,55.888736,-4.272411,0.00,0.00,-3.90,0.00,0.20,10.50,0,1,0,99,100,-8615,3283,15914,2930.50,13,Joystick,1,0,0,0,0,0,0,1664449551192,4199,4175,4181,4181,0,0,27,,,,,,,0,0,0,-0.00,2.00,105.00,277.00,0.00,158.00,17,152.00,39.00,123.41,0.00,0.00,-39.00,0,,,100,100,0,2,0,0,0,2,2,,,,,0.0,0.0,0.0,0.0,0.0,0.0,0
55.888735,-4.272419,15.60,0.00,3.90,12.36,15.60,15.60,4.10,12.36,6391,2022-09-29 11:05:51.293,2022-09-29 12:05:51.293,10,0,0,15.914,55.888736,-4.272411,0.00,0.00,-3.90,-0.20,0.30,8.60,0,1,0,99,100,-8615,3283,15914,2930.50,13,Joystick,1,0,0,0,0,0,0,1664449551293,4199,4175,4181,4181,0,0,27,,,,,,,0,0,0,2.00,3.00,86.00,274.00,0.00,140.00,17,156.00,39.00,123.63,0.00,0.00,-39.00,0,,,100,100,0,2,0,0,0,2,2,,,,,0.0,0.0,0.0,0.0,0.0,0.0,0
55.888735,-4.272420,16.00,0.00,4.00,12.37,16.00,16.00,4.10,12.37,6486,2022-09-29 11:05:51.388,2022-09-29 12:05:51.388,10,0,0,15.914,55.888736,-4.272411,0.00,0.00,-4.00,-0.30,0.20,6.90,0,1,0,99,100,-8615,3283,15914,2930.50,13,Joystick,1,0,0,0,0,0,0,1664449551388,4199,4175,4181,4181,0,0,27,,,,,,,0,0,0,3.00,2.00,69.00,270.00,0.00,122.00,17,160.00,40.00,123.73,0.00,0.00,-40.00,0,,,100,100,0,2,0,0,0,2,2,,,,,0.0,0.0,0.0,0.0,0.0,0.0,0
55.888735,-4.272420,16.40,0.00,4.00,12.37,16.40,16.40,4.10,12.37,6596,2022-09-29 11:05:51.498,2022-09-29 12:05:51.498,10,0,0,15.854,55.888736,-4.272411,0.00,0.00,-4.00,-0.50,0.30,5.50,0,1,0,99,100,-8944,3281,15854,2931.50,13,Joystick,1,0,0,0,0,0,0,1664449551498,4199,4175,4181,4181,0,0,27,,,,,,,0,0,0,5.00,3.00,55.00,264.00,0.00,105.00,17,164.00,40.00,123.73,0.00,0.00,-40.00,0,,,100,100,0,2,0,0,0,2,2,,,,,0.0,0.0,0.0,0.0,0.0,0.0,0
55.888734,-4.272420,16.80,0.00,4.00,12.38,16.80,16.80,4.10,12.38,6685,2022-09-29 11:05:51.587,2022-09-29 12:05:51.587,10,0,0,15.854,55.888736,-4.272411,0.00,0.00,-4.00,-0.60,0.20,3.90,0,1,0,99,100,-8944,3281,15854,2931.50,13,Joystick,1,0,0,0,0,0,0,1664449551587,4199,4175,4181,4181,0,0,27,,,,,,,0,0,0,6.00,2.00,39.00,257.00,0.00,90.00,17,168.00,40.00,123.83,0.00,0.00,-40.00,0,,,100,100,0,2,0,0,0,2,2,,,,,0.0,0.0,0.0,0.0,0.0,0.0,0
55.888734,-4.272420,17.20,0.00,4.00,12.41,17.20,17.20,4.10,12.41,6794,2022-09-29 11:05:51.696,2022-09-29 12:05:51.696,10,0,0,15.854,55.888736,-4.272411,0.00,0.00,-4.00,-0.70,0.50,2.60,0,1,0,99,100,-8944,3281,15854,2931.50,13,Joystick,1,0,0,0,0,0,0,1664449551696,4199,4175,4181,4181,0,0,27,,,,,,,0,0,0,7.00,5.00,26.00,248.00,0.00,76.00,17,172.00,40.00,124.06,0.00,0.00,-40.00,0,,,100,100,0,2,0,0,0,2,2,,,,,0.0,0.0,0.0,0.0,0.0,0.0,0
55.888734,-4.272421,17.60,0.00,4.00,12.43,17.60,17.60,4.10,12.43,6889,2022-09-29 11:05:51.792,2022-09-29 12:05:51.791,10,0,0,15.854,55.888736,-4.272411,0.00,0.00,-4.00,-0.80,1.00,1.50,0,1,0,99,100,-8944,3281,15854,2931.50,13,Joystick,1,0,0,0,0,0,0,1664449551791,4199,4175,4181,4181,0,0,27,,,,,,,0,0,0,8.00,10.00,15.00,237.00,0.00,64.00,17,176.00,40.00,124.26,0.00,0.00,-40.00,0,,,100,100,0,2,0,0,0,2,2,,,,,0.0,0.0,0.0,0.0,0.0,0.0,0
55.888734,-4.272421,18.00,0.00,4.00,12.54,18.00,18.00,4.10,12.54,7006,2022-09-29 11:05:51.908,2022-09-29 12:05:51.908,10,0,0,15.854,55.888736,-4.272411,0.00,0.00,-4.00,-1.00,1.30,0.20,0,1,0,99,100,-8944,3281,15854,2931.50,13,Joystick,1,0,0,0,0,0,0,1664449551908,4199,4175,4181,4181,0,0,27,,,,,,,0,0,0,10.00,13.00,2.00,225.00,0.00,52.00,17,180.00,40.00,125.39,0.00,0.00,-40.00,0,,,100,100,0,2,0,0,0,2,2,,,,,0.0,0.0,0.0,0.0,0.0,0.0,0
55.888734,-4.272422,18.80,0.00,4.00,12.55,18.80,18.80,4.10,12.55,7200,2022-09-29 11:05:52.102,2022-09-29 12:05:52.102,10,0,0,15.854,55.888736,-4.272411,0.00,0.00,-4.00,-1.40,1.50,-1.90,0,1,0,99,100,-8944,3281,15854,2931.50,13,Joystick,1,0,0,0,0,0,0,1664449552102,4199,4175,4181,4181,0,0,27,,,,,,,0,0,0,14.00,15.00,-19.00,195.00,0.00,29.00,17,188.00,40.00,125.51,0.00,0.00,-40.00,0,,,100,100,0,2,0,0,0,2,2,,,,,0.0,0.0,0.0,0.0,0.0,0.0,0
55.888734,-4.272422,19.20,0.00,3.90,12.58,19.20,19.20,4.10,12.58,7292,2022-09-29 11:05:52.195,2022-09-29 12:05:52.194,10,0,0,15.854,55.888736,-4.272411,0.00,0.00,-3.90,-1.60,1.60,-2.80,0,1,0,99,100,-8944,3281,15854,2931.50,13,Joystick,1,0,0,0,0,0,0,1664449552194,4199,4175,4181,4181,0,0,27,,,,,,,0,0,0,16.00,16.00,-28.00,179.00,0.00,19.00,17,192.00,39.00,125.78,0.00,0.00,-39.00,0,,,100,100,0,2,0,0,0,2,2,,,,,0.0,0.0,0.0,0.0,0.0,0.0,0
55.888734,-4.272422,19.60,0.00,3.90,12.59,19.60,19.60,4.10,12.59,7386,2022-09-29 11:05:52.288,2022-09-29 12:05:52.288,10,0,0,15.854,55.888736,-4.272411,0.00,0.00,-3.90,-1.70,1.40,-3.60,0,1,0,99,100,-8944,3281,15854,2931.50,13,Joystick,1,0,0,0,0,0,0,1664449552288,4199,4175,4181,4181,0,0,27,,,,,,,0,0,0,17.00,14.00,-36.00,161.00,0.00,10.00,17,196.00,39.00,125.88,0.00,0.00,-39.00,0,,,100,100,0,2,0,0,0,2,2,,,,,0.0,0.0,0.0,0.0,0.0,0.0,0
55.888734,-4.272422,20.00,0.00,4.00,12.60,20.00,20.00,4.10,12.60,7493,2022-09-29 11:05:52.395,2022-09-29 12:05:52.395,10,0,0,15.854,55.888736,-4.272411,0.00,0.00,-4.00,-1.50,1.40,-4.20,0,1,0,99,100,-8944,3281,15854,2931.50,13,Joystick,1,0,0,0,0,0,0,1664449552395,4199,4175,4181,4181,0,0,27,,,,,,,0,0,0,15.00,14.00,-42.00,142.00,0.00,2.00,17,200.00,40.00,126.04,0.00,0.00,-40.00,0,,,100,100,0,2,0,0,0,2,2,,,,,0.0,0.0,0.0,0.0,0.0,0.0,0
55.888734,-4.272422,20.40,0.00,3.90,12.62,20.40,20.40,4.10,12.62,7595,2022-09-29 11:05:52.497,2022-09-29 12:05:52.497,10,0,0,15.860,55.888736,-4.272411,0.00,0.00,-3.90,-1.30,1.50,-4.80,0,1,0,99,100,-8923,3278,15860,2931.50,13,Joystick,1,0,0,0,0,0,0,1664449552497,4199,4175,4181,4181,0,0,27,,,,,,,0,0,0,13.00,15.00,-48.00,123.00,0.00,-4.00,17,204.00,39.00,126.20,0.00,0.00,-39.00,0,,,100,100,0,2,0,0,0,2,2,,,,,0.0,0.0,0.0,0.0,0.0,0.0,0
55.888733,-4.272422,20.80,0.00,3.90,12.64,20.80,20.80,4.10,12.64,7688,2022-09-29 11:05:52.590,2022-09-29 12:05:52.590,10,0,0,15.860,55.888736,-4.272411,0.00,0.00,-3.90,-1.10,2.00,-5.50,0,1,0,99,100,-8923,3278,15860,2931.50,13,P-GPS,1,0,0,0,0,0,0,1664449552590,4199,4175,4181,4181,0,0,27,,,,,,,0,0,0,11.00,20.00,-55.00,102.00,0.00,-10.00,6,208.00,39.00,126.36,0.00,0.00,-39.00,0,,,100,100,0,2,0,0,0,2,2,,,,,0.0,0.0,0.0,0.0,0.0,0.0,0
55.888733,-4.272423,21.20,0.00,3.80,12.65,21.20,21.20,4.10,12.65,7798,2022-09-29 11:05:52.702,2022-09-29 12:05:52.700,10,0,0,15.860,55.888736,-4.272411,0.00,0.00,-3.80,-0.40,1.40,-5.40,0,1,0,99,100,-8923,3278,15860,2931.50,13,P-GPS,1,0,0,0,0,0,0,1664449552700,4199,4175,4181,4181,0,0,27,,,,,,,0,0,0,4.00,14.00,-54.00,82.00,0.00,-14.00,6,212.00,38.00,126.51,0.00,0.00,-38.00,0,,,100,100,0,2,0,0,0,2,2,,,,,0.0,0.0,0.0,0.0,0.0,0.0,0
55.888733,-4.272423,21.60,0.00,3.50,12.67,21.60,21.60,4.10,12.67,7894,2022-09-29 11:05:52.796,2022-09-29 12:05:52.796,10,0,0,15.860,55.888736,-4.272411,0.00,-0.10,-3.50,-0.60,2.00,-5.50,0,1,0,99,100,-8923,3278,15860,2931.50,13,P-GPS,1,0,0,0,0,0,0,1664449552796,4199,4175,4181,4181,0,0,27,,,,,,,0,0,0,6.00,20.00,-55.00,61.00,0.00,-15.00,6,216.00,35.01,126.69,0.00,-1.00,-35.00,0,,,100,100,0,2,0,0,0,2,2,,,,,0.0,0.0,0.0,0.0,0.0,0.0,0
55.888733,-4.272423,21.90,0.00,3.10,12.82,21.90,21.90,4.10,12.82,7996,2022-09-29 11:05:52.899,2022-09-29 12:05:52.898,10,0,0,15.860,55.888736,-4.272411,0.00,-0.10,-3.10,-0.60,2.40,-5.50,0,1,0,99,100,-8923,3278,15860,2931.50,13,P-GPS,1,0,0,0,0,0,0,1664449552898,4199,4175,4181,4181,0,0,27,,,,,,,0,0,0,6.00,24.00,-55.00,41.00,0.00,-17.00,6,219.00,31.02,128.24,0.00,-1.00,-31.00,0,,,100,100,0,2,0,0,0,2,2,,,,,0.0,0.0,0.0,0.0,0.0,0.0,0
55.888733,-4.272423,22.20,0.00,2.70,12.85,22.20,22.20,4.10,12.85,8098,2022-09-29 11:05:53.001,2022-09-29 12:05:53.000,10,0,0,15.860,55.888736,-4.272411,0.00,-0.10,-2.70,-0.70,2.70,-5.50,0,1,0,99,100,-8923,3278,15860,2931.50,13,P-GPS,1,0,0,0,0,0,0,1664449553000,4199,4175,4181,4181,0,0,27,,,,,,,0,0,0,7.00,27.00,-55.00,20.00,0.00,-18.00,6,222.00,27.02,128.48,0.00,-1.00,-27.00,0,,,100,100,0,2,0,0,0,2,2,,,,,0.0,0.0,0.0,0.0,0.0,0.0,0
55.888733,-4.272423,22.50,0.00,2.30,12.89,22.50,22.50,4.10,12.89,8194,2022-09-29 11:05:53.096,2022-09-29 12:05:53.096,10,0,0,15.860,55.888736,-4.272411,0.00,-0.10,-2.30,-0.70,3.00,-5.50,0,1,0,99,100,-8923,3278,15860,2931.50,13,P-GPS,1,0,0,0,0,0,0,1664449553096,4199,4175,4181,4181,0,0,27,,,,,,,0,0,0,7.00,30.00,-55.00,0.00,0.00,-19.00,6,225.00,23.02,128.91,0.00,-1.00,-23.00,0,,,100,100,0,2,0,0,0,2,2,,,,,0.0,0.0,0.0,0.0,0.0,0.0,0
55.888733,-4.272424,22.70,0.00,1.90,12.92,22.70,22.70,4.10,12.92,8297,2022-09-29 11:05:53.200,2022-09-29 12:05:53.199,10,0,0,15.860,55.888736,-4.272411,0.00,-0.10,-1.90,-0.80,3.20,-5.50,0,1,0,99,100,-8923,3278,15860,2931.50,13,P-GPS,1,0,0,0,0,0,0,1664449553199,4199,4175,4181,4181,0,0,27,,,,,,,0,0,0,8.00,32.00,-55.00,-1.00,0.00,-20.00,6,227.00,19.03,129.18,0.00,-1.00,-19.00,0,,,100,100,0,2,0,0,0,2,2,,,,,0.0,0.0,0.0,0.0,0.0,0.0,0
55.888732,-4.272424,22.90,0.00,1.50,12.95,22.90,22.90,4.10,12.95,8395,2022-09-29 11:05:53.298,2022-09-29 12:05:53.297,10,0,0,15.860,55.888736,-4.272411,0.00,-0.10,-1.50,-0.80,3.30,-5.50,0,1,0,99,100,-8923,3278,15860,2931.50,13,P-GPS,1,0,0,0,0,0,0,1664449553297,4199,4175,4181,4181,0,0,27,,,,,,,0,0,0,8.00,33.00,-55.00,-1.00,0.00,-20.00,6,229.00,15.03,129.52,0.00,-1.00,-15.00,0,,,100,100,0,2,0,0,0,2,2,,,,,0.0,0.0,0.0,0.0,0.0,0.0,0
55.888732,-4.272424,23.00,0.00,1.00,12.98,23.00,23.00,4.10,12.98,8498,2022-09-29 11:05:53.402,2022-09-29 12:05:53.400,10,0,0,15.860,55.888736,-4.272411,0.00,0.00,-1.00,-0.80,3.40,-5.40,0,1,0,99,100,-8923,3278,15860,2931.50,13,P-GPS,1,0,0,0,0,0,0,1664449553400,4199,4175,4181,4181,0,0,27,,,,,,,0,0,0,8.00,34.00,-54.00,-1.00,0.00,-20.00,6,230.00,10.00,129.80,0.00,0.00,-10.00,0,,,100,100,0,2,0,0,0,2,2,,,,,0.0,0.0,0.0,0.0,0.0,0.0,0
55.888732,-4.272424,23.10,0.00,0.60,13.00,23.10,23.10,4.10,13.00,8594,2022-09-29 11:05:53.497,2022-09-29 12:05:53.497,10,0,0,15.969,55.888736,-4.272411,0.00,0.00,-0.60,-0.80,3.50,-5.50,0,1,0,99,100,-7855,3276,15969,2931.50,13,P-GPS,1,0,0,0,0,0,0,1664449553496,4199,4175,4181,4181,0,0,27,,,,,,,0,0,0,8.00,35.00,-55.00,-1.00,0.00,-20.00,6,231.00,6.00,130.01,0.00,0.00,-6.00,0,,,100,100,0,2,0,0,0,2,2,,,,,0.0,0.0,0.0,0.0,0.0,0.0,0
55.888732,-4.272424,23.20,0.00,0.30,13.03,23.20,23.20,4.10,13.03,8688,2022-09-29 11:05:53.590,2022-09-29 12:05:53.590,10,0,0,15.969,55.888736,-4.272411,0.00,0.00,-0.30,-0.80,3.40,-5.50,0,1,0,99,100,-7855,3276,15969,2931.50,13,P-GPS,1,0,0,0,0,0,0,1664449553590,4199,4175,4181,4181,0,0,27,,,,,,,0,0,0,8.00,34.00,-55.00,-1.00,0.00,-20.00,6,232.00,3.00,130.31,0.00,0.00,-3.00,0,,,100,100,0,2,0,0,0,2,2,,,,,0.0,0.0,0.0,0.0,0.0,0.0,0
55.888732,-4.272424,23.20,0.00,0.10,13.06,23.20,23.20,4.10,13.06,8792,2022-09-29 11:05:53.694,2022-09-29 12:05:53.694,10,0,0,15.969,55.888736,-4.272411,0.00,0.00,-0.10,-0.90,3.20,-5.40,0,1,0,99,100,-7855,3276,15969,2931.50,13,P-GPS,1,0,0,0,0,0,0,1664449553694,4199,4175,4181,4181,0,0,27,,,,,,,0,0,0,9.00,32.00,-54.00,-1.00,0.00,-20.00,6,232.00,1.00,130.65,0.00,0.00,-1.00,0,,,100,100,0,2,0,0,0,2,2,,,,,0.0,0.0,0.0,0.0,0.0,0.0,0
55.888732,-4.272424,23.20,0.00,0.00,13.10,23.20,23.20,4.10,13.10,8895,2022-09-29 11:05:53.798,2022-09-29 12:05:53.797,10,0,0,15.969,55.888736,-4.272411,0.00,0.00,0.00,-1.00,3.00,-5.50,0,1,0,99,100,-7855,3276,15969,2931.50,13,P-GPS,1,0,0,0,0,0,0,1664449553797,3971,3963,4001,4033,0,0,27,,,,,,,0,0,0,10.00,30.00,-55.00,-1.00,0.00,-20.00,6,232.00,0.00,130.97,0.00,0.00,0.00,0,,,100,100,0,2,0,0,0,2,2,,,,,0.0,0.0,0.0,0.0,0.0,0.0,0
55.888731,-4.272424,23.20,0.00,0.00,13.12,23.20,23.20,4.10,13.12,8996,2022-09-29 11:05:53.899,2022-09-29 12:05:53.898,10,0,0,15.969,55.888736,-4.272411,0.00,0.00,0.00,-1.10,2.80,-5.40,0,1,0,99,100,-7855,3276,15969,2931.50,13,P-GPS,1,0,0,0,0,0,0,1664449553898,3971,3963,4001,4033,0,0,27,,,,,,,0,0,0,11.00,28.00,-54.00,-1.00,0.00,-20.00,6,232.00,0.00,131.25,0.00,0.00,0.00,0,,,100,100,0,2,0,0,0,2,2,,,,,0.0,0.0,0.0,0.0,0.0,0.0,0
55.888731,-4.272424,23.20,0.00,0.00,13.02,23.20,23.20,4.10,13.12,9088,2022-09-29 11:05:53.991,2022-09-29 12:05:53.990,10,0,0,15.969,55.888736,-4.272411,0.00,0.00,0.00,-1.20,2.60,-5.50,0,1,0,99,100,-7855,3276,15969,2931.50,13,P-GPS,1,0,0,0,0,0,0,1664449553990,3971,3963,4001,4033,0,0,27,,,,,,,0,0,0,12.00,26.00,-55.00,-1.00,0.00,-20.00,6,232.00,0.00,130.17,0.00,0.00,0.00,0,,,100,100,0,2,0,0,0,2,2,,,,,0.0,0.0,0.0,0.0,0.0,0.0,0
55.888731,-4.272423,23.20,0.00,0.00,13.05,23.20,23.20,4.10,13.12,9193,2022-09-29 11:05:54.095,2022-09-29 12:05:54.095,10,0,0,15.969,55.888736,-4.272411,0.00,0.00,0.00,-1.50,2.50,-5.40,0,1,0,99,100,-7855,3276,15969,2931.50,13,P-GPS,1,0,0,0,-66,0,0,1664449554095,3971,3963,4001,4033,0,0,27,,,,,,,0,0,0,15.00,25.00,-54.00,-1.00,0.00,-20.00,6,232.00,0.00,130.47,0.00,0.00,0.00,0,,,100,100,0,2,0,0,0,2,2,,,,,0.0,0.0,0.0,0.0,0.0,0.0,0
55.888731,-4.272423,23.20,0.00,0.00,13.07,23.20,23.20,4.10,13.12,9295,2022-09-29 11:05:54.198,2022-09-29 12:05:54.197,10,0,0,16.247,55.888736,-4.272411,0.00,0.00,0.00,-1.70,2.30,-5.40,0,1,0,98,100,-4798,3274,16247,2931.50,13,P-GPS,1,0,0,0,-492,0,0,1664449554197,3971,3963,4001,4033,0,0,27,,,,,,,0,0,0,17.00,23.00,-54.00,-1.00,0.00,-20.00,6,232.00,0.00,130.74,0.00,0.00,0.00,0,,,100,100,0,2,0,0,0,2,2,,,,,0.0,0.0,0.0,0.0,0.0,0.0,0
55.888731,-4.272423,23.10,0.00,0.10,13.10,23.20,23.20,4.10,13.12,9392,2022-09-29 11:05:54.294,2022-09-29 12:05:54.294,10,0,0,16.247,55.888736,-4.272411,0.00,0.00,0.10,-2.00,2.40,-5.40,0,1,0,98,100,-4798,3274,16247,2931.50,13,P-GPS,1,0,0,0,-660,0,0,1664449554294,3971,3963,4001,4033,0,0,27,,,,,,,0,0,0,20.00,24.00,-54.00,-1.00,0.00,-20.00,6,231.00,1.00,131.00,0.00,0.00,1.00,0,,,100,100,0,2,0,0,0,2,2,,,,,0.0,0.0,0.0,0.0,0.0,0.0,0
55.888731,-4.272423,23.10,0.00,0.40,13.12,23.20,23.20,4.10,13.12,9490,2022-09-29 11:05:54.392,2022-09-29 12:05:54.392,10,0,0,16.247,55.888736,-4.272411,0.00,0.00,0.40,-2.10,2.50,-5.40,0,1,0,98,100,-4798,3274,16247,2931.50,13,P-GPS,1,0,0,0,-660,0,0,1664449554392,3971,3963,4001,4033,0,0,27,,,,,,,0,0,0,21.00,25.00,-54.00,-1.00,0.00,-20.00,6,231.00,4.00,131.25,0.00,0.00,4.00,0,,,100,100,0,2,0,0,0,2,2,,,,,0.0,0.0,0.0,0.0,0.0,0.0,0
55.888730,-4.272423,23.00,0.00,0.80,13.16,23.20,23.20,4.10,13.16,9588,2022-09-29 11:05:54.492,2022-09-29 12:05:54.490,10,0,0,16.247,55.888736,-4.272411,0.00,0.00,0.80,-1.90,2.30,-5.40,0,1,0,98,100,-4798,3274,16247,2931.50,13,P-GPS,1,0,0,0,-660,0,0,1664449554490,3971,3963,4001,4033,0,0,27,,,,,,,0,0,0,19.00,23.00,-54.00,-1.00,0.00,-20.00,6,230.00,8.00,131.62,0.00,0.00,8.00,0,,,100,100,0,2,0,0,0,2,2,,,,,0.0,0.0,0.0,0.0,0.0,0.0,0
55.888730,-4.272423,22.90,0.00,1.20,13.19,23.20,23.20,4.10,13.19,9692,2022-09-29 11:05:54.594,2022-09-29 12:05:54.594,10,0,0,16.247,55.888736,-4.272411,0.00,0.00,1.20,-2.00,2.00,-5.40,0,1,0,98,100,-4798,3274,16247,2931.50,13,P-GPS,1,0,0,0,-660,0,0,1664449554594,3971,3963,4001,4033,0,0,27,,,,,,,0,0,0,20.00,20.00,-54.00,-1.00,0.00,-20.00,6,229.00,12.00,131.87,0.00,0.00,12.00,0,,,100,100,0,2,0,0,0,2,2,,,,,0.0,0.0,0.0,0.0,0.0,0.0,0
55.888730,-4.272423,22.80,0.00,1.60,13.21,23.20,23.20,4.10,13.21,9790,2022-09-29 11:05:54.693,2022-09-29 12:05:54.693,10,0,0,16.247,55.888736,-4.272411,0.00,0.00,1.60,-2.50,1.10,-5.50,0,1,0,98,100,-4798,3274,16247,2931.50,13,P-GPS,1,0,0,0,-660,0,0,1664449554692,3971,3963,4001,4033,0,0,27,,,,,,,0,0,0,25.00,11.00,-55.00,-1.00,0.00,-20.00,6,228.00,16.00,132.15,0.00,0.00,16.00,0,,,100,100,0,2,0,0,0,2,2,,,,,0.0,0.0,0.0,0.0,0.0,0.0,0
55.888730,-4.272423,22.60,0.00,2.00,13.24,23.20,23.20,4.10,13.24,9896,2022-09-29 11:05:54.798,2022-09-29 12:05:54.798,10,0,0,16.247,55.888736,-4.272411,0.00,0.00,2.00,-2.90,0.90,-5.50,0,1,0,98,100,-4798,3274,16247,2931.50,13,P-GPS,1,0,0,0,-660,0,0,1664449554798,3971,3963,4001,4033,0,0,27,,,,,,,0,0,0,29.00,9.00,-55.00,-1.00,0.00,-20.00,6,226.00,20.00,132.36,0.00,0.00,20.00,0,,,100,100,0,2,0,0,0,2,2,,,,,0.0,0.0,0.0,0.0,0.0,0.0,0
55.888730,-4.272423,22.30,0.00,2.40,13.25,23.20,23.20,4.10,13.25,9995,2022-09-29 11:05:54.897,2022-09-29 12:05:54.897,10,0,0,16.247,55.888736,-4.272411,0.00,0.00,2.40,-3.30,1.10,-5.40,0,1,0,98,100,-4798,3274,16247,2931.50,13,P-GPS,1,0,0,0,-660,0,0,1664449554897,3971,3963,4001,4033,0,0,27,,,,,,,0,0,0,33.00,11.00,-54.00,-1.00,0.00,-20.00,6,223.00,24.00,132.49,0.00,0.00,24.00,0,,,100,100,0,2,0,0,0,2,2,,,,,0.0,0.0,0.0,0.0,0.0,0.0,0
55.888730,-4.272423,22.10,0.00,2.70,13.13,23.20,23.20,4.10,13.25,10088,2022-09-29 11:05:54.990,2022-09-29 12:05:54.990,10,0,0,16.247,55.888736,-4.272411,0.00,0.00,2.70,-3.70,0.80,-5.40,0,1,0,98,100,-4798,3274,16247,2931.50,13,P-GPS,1,0,0,0,-660,0,0,1664449554990,3971,3963,4001,4033,0,0,27,,,,,,,0,0,0,37.00,8.00,-54.00,-1.00,0.00,-20.00,6,221.00,27.00,131.27,0.00,0.00,27.00,0,,,100,100,0,2,0,0,0,2,2,,,,,0.0,0.0,0.0,0.0,0.0,0.0,0
55.888730,-4.272423,21.80,0.00,2.90,13.15,23.20,23.20,4.10,13.25,10193,2022-09-29 11:05:55.095,2022-09-29 12:05:55.095,10,0,0,16.247,55.888736,-4.272411,0.00,0.00,2.90,-3.10,0.30,-5.50,0,1,0,98,100,-4798,3274,16247,2931.50,13,P-GPS,1,0,0,0,-660,0,0,1664449555095,3971,3963,4001,4033,0,0,27,,,,,,,0,0,0,31.00,3.00,-55.00,-1.00,0.00,-20.00,6,218.00,29.00,131.49,0.00,0.00,29.00,0,,,100,100,0,2,0,0,0,2,2,,,,,0.0,0.0,0.0,0.0,0.0,0.0,0
55.888730,-4.272423,21.50,0.00,3.00,13.16,23.20,23.20,4.10,13.25,10287,2022-09-29 11:05:55.190,2022-09-29 12:05:55.189,10,0,0,16.247,55.888736,-4.272411,0.00,0.00,3.00,-1.40,0.30,-5.60,0,1,0,98,100,-4798,3274,16247,2931.50,13,P-GPS,1,0,0,0,-660,0,0,1664449555189,3971,3963,4001,4033,0,0,27,,,,,,,0,0,0,14.00,3.00,-56.00,-1.00,0.00,-20.00,6,215.00,30.00,131.56,0.00,0.00,30.00,0,,,100,100,0,2,0,0,0,2,2,,,,,0.0,0.0,0.0,0.0,0.0,0.0,0
55.888730,-4.272423,21.10,0.00,3.00,13.14,23.20,23.20,4.10,13.25,10393,2022-09-29 11:05:55.296,2022-09-29 12:05:55.295,10,0,0,16.247,55.888736,-4.272411,0.10,0.00,3.00,-0.20,0.10,-5.60,0,1,0,98,100,-4798,3274,16247,2931.50,13,P-GPS,1,0,0,0,-660,0,0,1664449555295,3971,3963,4001,4033,0,0,27,,,,,,,0,0,0,2.00,1.00,-56.00,-1.00,0.00,-20.00,6,211.00,30.02,131.43,1.00,0.00,30.00,0,,,100,100,0,2,0,0,0,2,2,,,,,0.0,0.0,0.0,0.0,0.0,0.0,0
55.888730,-4.272423,20.80,0.00,3.10,13.14,23.20,23.20,4.10,13.25,10484,2022-09-29 11:05:55.386,2022-09-29 12:05:55.386,10,0,0,16.247,55.888736,-4.272411,0.10,0.00,3.10,-0.40,-0.50,-5.60,0,1,0,98,100,-4798,3274,16247,2931.50,13,P-GPS,1,0,0,0,-660,0,0,1664449555386,3971,3963,4001,4033,0,0,27,,,,,,,0,0,0,4.00,-5.00,-56.00,-1.00,0.00,-20.00,6,208.00,31.02,131.45,1.00,0.00,31.00,0,,,100,100,0,2,0,0,0,2,2,,,,,0.0,0.0,0.0,0.0,0.0,0.0,0
55.888730,-4.272423,20.50,0.00,3.10,13.15,23.20,23.20,4.10,13.25,10584,2022-09-29 11:05:55.486,2022-09-29 12:05:55.486,10,0,0,16.506,55.888736,-4.272411,0.10,0.00,3.10,-0.60,0.00,-5.50,0,1,0,98,100,-4858,3273,16506,2932.50,13,P-GPS,1,0,0,0,-660,0,0,1664449555486,3971,3963,4001,4033,0,0,27,,,,,,,0,0,0,6.00,0.00,-55.00,-1.00,0.00,-20.00,6,205.00,31.02,131.51,1.00,0.00,31.00,0,,,100,100,0,2,0,0,0,2,2,,,,,0.0,0.0,0.0,0.0,0.0,0.0,0
55.888730,-4.272424,20.10,0.00,3.10,13.15,23.20,23.20,4.10,13.25,10690,2022-09-29 11:05:55.593,2022-09-29 12:05:55.592,10,0,0,16.506,55.888736,-4.272411,0.10,0.00,3.10,-1.10,0.40,-5.40,0,1,0,98,100,-4858,3273,16506,2932.50,13,P-GPS,1,0,0,0,-660,0,0,1664449555592,3971,3963,4001,4033,0,0,27,,,,,,,0,0,0,11.00,4.00,-54.00,-1.00,0.00,-20.00,6,201.00,31.02,131.51,1.00,0.00,31.00,0,,,100,100,0,2,0,0,0,2,2,,,,,0.0,0.0,0.0,0.0,0.0,0.0,0
55.888730,-4.272423,19.80,0.00,3.10,13.14,23.20,23.20,4.10,13.25,10800,2022-09-29 11:05:55.703,2022-09-29 12:05:55.703,10,0,0,16.506,55.888736,-4.272411,0.10,0.00,3.10,-0.40,1.70,-5.50,0,1,0,98,100,-4858,3273,16506,2932.50,13,P-GPS,1,0,0,0,-660,0,0,1664449555702,3971,3963,4001,4033,0,0,27,,,,,,,0,0,0,4.00,17.00,-55.00,-1.00,0.00,-20.00,6,198.00,31.02,131.41,1.00,0.00,31.00,0,,,100,100,0,2,0,0,0,2,2,,,,,0.0,0.0,0.0,0.0,0.0,0.0,0
55.888730,-4.272424,19.40,0.00,3.20,13.14,23.20,23.20,4.10,13.25,10901,2022-09-29 11:05:55.803,2022-09-29 12:05:55.803,10,0,0,16.506,55.888736,-4.272411,0.10,0.00,3.20,0.10,-0.10,-5.60,0,1,0,98,100,-4858,3273,16506,2932.50,13,P-GPS,1,0,0,0,-660,0,0,1664449555803,3971,3963,4001,4033,0,0,27,,,,,,,0,0,0,-1.00,-1.00,-56.00,-1.00,0.00,-20.00,6,194.00,32.02,131.37,1.00,0.00,32.00,0,,,100,100,0,2,0,0,0,2,2,,,,,0.0,0.0,0.0,0.0,0.0,0.0,0
55.888730,-4.272424,18.70,0.00,3.10,13.00,23.20,23.20,4.10,13.25,11087,2022-09-29 11:05:55.989,2022-09-29 12:05:55.989,10,0,0,16.506,55.888736,-4.272411,0.10,0.00,3.10,2.90,0.50,-5.90,0,1,0,98,100,-4858,3273,16506,2932.50,13,P-GPS,1,0,0,0,-660,0,0,1664449555989,3971,3963,4001,4033,0,0,27,,,,,,,0,0,0,-29.00,5.00,-59.00,-1.00,0.00,-20.00,6,187.00,31.02,130.05,1.00,0.00,31.00,0,,,100,100,0,2,0,0,0,2,2,,,,,0.0,0.0,0.0,0.0,0.0,0.0,0
55.888730,-4.272424,18.40,0.00,3.00,13.01,23.20,23.20,4.10,13.25,11198,2022-09-29 11:05:56.100,2022-09-29 12:05:56.100,10,0,0,16.506,55.888736,-4.272411,0.10,0.00,3.00,1.50,0.30,-5.60,0,1,0,98,100,-4858,3273,16506,2932.50,13,P-GPS,1,0,0,0,-660,0,0,1664449556100,3971,3963,4001,4033,0,0,27,,,,,,,0,0,0,-15.00,3.00,-56.00,-1.00,0.00,-20.00,6,184.00,30.02,130.07,1.00,0.00,30.00,0,,,100,100,0,2,0,0,0,2,2,,,,,0.0,0.0,0.0,0.0,0.0,0.0,0
55.888730,-4.272424,18.10,0.00,3.00,13.01,23.20,23.20,4.10,13.25,11286,2022-09-29 11:05:56.189,2022-09-29 12:05:56.188,10,0,0,16.506,55.888736,-4.272411,0.00,0.00,3.00,-1.20,0.50,-5.30,0,1,0,98,100,-4858,3273,16506,2932.50,13,P-GPS,1,0,0,0,-660,0,0,1664449556188,3971,3963,4001,4033,0,0,27,,,,,,,0,0,0,12.00,5.00,-53.00,-1.00,0.00,-20.00,6,181.00,30.00,130.07,0.00,0.00,30.00,0,,,100,100,0,2,0,0,0,2,2,,,,,0.0,0.0,0.0,0.0,0.0,0.0,0
55.888731,-4.272425,17.70,0.00,3.10,12.98,23.20,23.20,4.10,13.25,11395,2022-09-29 11:05:56.297,2022-09-29 12:05:56.297,10,0,0,16.506,55.888736,-4.272411,0.00,0.00,3.10,-1.90,0.90,-5.10,0,1,0,98,100,-4858,3273,16506,2932.50,13,P-GPS,1,0,0,0,-660,0,0,1664449556297,3971,3963,4001,4033,0,0,27,,,,,,,0,0,0,19.00,9.00,-51.00,-1.00,0.00,-20.00,6,177.00,31.00,129.79,0.00,0.00,31.00,0,,,100,100,0,2,0,0,0,2,2,,,,,0.0,0.0,0.0,0.0,0.0,0.0,0
55.888731,-4.272425,17.40,0.00,3.10,12.97,23.20,23.20,4.10,13.25,11486,2022-09-29 11:05:56.388,2022-09-29 12:05:56.388,10,0,0,16.506,55.888736,-4.272411,0.10,0.00,3.10,-0.80,-1.10,-5.10,0,1,0,98,100,-4858,3273,16506,2932.50,13,P-GPS,1,0,0,0,-660,0,0,1664449556388,3971,3963,4001,4033,0,0,27,,,,,,,0,0,0,8.00,-11.00,-51.00,-1.00,0.00,-20.00,6,174.00,31.02,129.70,1.00,0.00,31.00,0,,,100,100,0,2,0,0,0,2,2,,,,,0.0,0.0,0.0,0.0,0.0,0.0,0
55.888731,-4.272425,17.10,0.00,3.10,12.98,23.20,23.20,4.10,13.25,11596,2022-09-29 11:05:56.498,2022-09-29 12:05:56.498,10,0,0,16.164,55.888736,-4.272411,0.10,0.00,3.10,1.10,-0.40,-5.30,0,1,0,98,100,-5898,3271,16164,2932.50,13,P-GPS,1,0,0,0,-660,0,0,1664449556498,3971,3963,4001,4033,0,0,27,,,,,,,0,0,0,-11.00,-4.00,-53.00,-1.00,0.00,-20.00,6,171.00,31.02,129.78,1.00,0.00,31.00,0,,,100,100,0,2,0,0,0,2,2,,,,,0.0,0.0,0.0,0.0,0.0,0.0,0
55.888731,-4.272426,16.70,0.00,3.10,12.97,23.20,23.20,4.10,13.25,11696,2022-09-29 11:05:56.598,2022-09-29 12:05:56.598,10,0,0,16.164,55.888736,-4.272411,0.00,0.00,3.10,1.70,0.40,-5.60,0,1,0,98,100,-5898,3271,16164,2932.50,13,P-GPS,1,0,0,0,-660,0,0,1664449556598,3971,3963,4001,4033,0,0,27,,,,,,,0,0,0,-17.00,4.00,-56.00,-1.00,0.00,-20.00,6,167.00,31.00,129.71,0.00,0.00,31.00,0,,,100,100,0,2,0,0,0,2,2,,,,,0.0,0.0,0.0,0.0,0.0,0.0,0
55.888731,-4.272426,16.40,0.00,3.00,12.97,23.20,23.20,4.10,13.25,11792,2022-09-29 11:05:56.694,2022-09-29 12:05:56.694,10,0,0,16.164,55.888736,-4.272411,0.00,0.00,3.00,0.40,-0.20,-5.50,0,1,0,98,100,-5898,3271,16164,2932.50,13,P-GPS,1,0,0,0,-660,0,0,1664449556694,3971,3963,4001,4033,0,0,27,,,,,,,0,0,0,-4.00,-2.00,-55.00,-1.00,0.00,-20.00,6,164.00,30.00,129.72,0.00,0.00,30.00,0,,,100,100,0,2,0,0,0,2,2,,,,,0.0,0.0,0.0,0.0,0.0,0.0,0
55.888731,-4.272426,16.10,0.00,3.00,12.97,23.20,23.20,4.10,13.25,11887,2022-09-29 11:05:56.789,2022-09-29 12:05:56.789,10,0,0,16.164,55.888736,-4.272411,0.00,0.00,3.00,-1.80,0.00,-5.20,0,1,0,98,100,-5898,3271,16164,2932.50,13,P-GPS,1,0,0,0,-660,0,0,1664449556789,3971,3963,4001,4033,0,0,27,,,,,,,0,0,0,18.00,0.00,-52.00,-1.00,0.00,-20.00,6,161.00,30.00,129.69,0.00,0.00,30.00,0,,,100,100,0,2,0,0,0,2,2,,,,,0.0,0.0,0.0,0.0,0.0,0.0,0
55.888731,-4.272427,15.80,0.00,3.00,12.85,23.20,23.20,4.10,13.25,11996,2022-09-29 11:05:56.899,2022-09-29 12:05:56.898,10,0,0,16.164,55.888736,-4.272411,0.10,0.00,3.00,-0.70,2.10,-5.30,0,1,0,98,100,-5898,3271,16164,2932.50,13,P-GPS,1,0,0,0,-660,0,0,1664449556898,3971,3963,4001,4033,0,0,27,,,,,,,0,0,0,7.00,21.00,-53.00,-1.00,0.00,-20.00,6,158.00,30.02,128.52,1.00,0.00,30.00,0,,,100,100,0,2,0,0,0,2,2,,,,,0.0,0.0,0.0,0.0,0.0,0.0,0
55.888731,-4.272427,15.50,0.00,3.00,12.84,23.20,23.20,4.10,13.25,12087,2022-09-29 11:05:56.989,2022-09-29 12:05:56.989,10,0,0,16.164,55.888736,-4.272411,0.10,0.00,3.00,0.70,1.40,-5.30,0,1,0,98,100,-5898,3271,16164,2932.50,13,P-GPS,1,0,0,0,-660,0,0,1664449556989,3971,3963,4001,4033,0,0,27,,,,,,,0,0,0,-7.00,14.00,-53.00,-1.00,0.00,-20.00,6,155.00,30.02,128.40,1.00,0.00,30.00,0,,,100,100,0,2,0,0,0,2,2,,,,,0.0,0.0,0.0,0.0,0.0,0.0,0
55.888731,-4.272427,15.20,0.00,3.00,12.84,23.20,23.20,4.10,13.25,12195,2022-09-29 11:05:57.098,2022-09-29 12:05:57.097,10,0,0,16.164,55.888736,-4.272411,0.00,0.00,3.00,1.50,1.10,-5.60,0,1,0,98,100,-5898,3271,16164,2932.50,13,P-GPS,1,0,0,0,-660,0,0,1664449557097,3971,3963,4001,4033,0,0,27,,,,,,,0,0,0,-15.00,11.00,-56.00,-1.00,0.00,-20.00,6,152.00,30.00,128.44,0.00,0.00,30.00,0,,,100,100,0,2,0,0,0,2,2,,,,,0.0,0.0,0.0,0.0,0.0,0.0,0
55.888731,-4.272427,14.90,0.00,2.90,12.84,23.20,23.20,4.10,13.25,12288,2022-09-29 11:05:57.191,2022-09-29 12:05:57.190,10,0,0,16.011,55.888736,-4.272411,0.00,0.00,2.90,0.70,0.30,-5.70,0,1,0,98,100,-6938,3270,16011,2932.50,13,P-GPS,1,0,0,0,-660,0,0,1664449557190,3971,3963,4001,4033,0,0,27,,,,,,,0,0,0,-7.00,3.00,-57.00,-1.00,0.00,-20.00,6,149.00,29.00,128.37,0.00,0.00,29.00,0,,,100,100,0,2,0,0,0,2,2,,,,,0.0,0.0,0.0,0.0,0.0,0.0,0
55.888731,-4.272427,14.60,0.00,2.90,12.83,23.20,23.20,4.10,13.25,12395,2022-09-29 11:05:57.297,2022-09-29 12:05:57.297,10,0,0,16.011,55.888736,-4.272411,0.00,0.00,2.90,1.30,-0.20,-5.90,0,1,0,98,100,-6938,3270,16011,2932.50,13,P-GPS,1,0,0,0,-660,0,0,1664449557297,3971,3963,4001,4033,0,0,27,,,,,,,0,0,0,-13.00,-2.00,-59.00,-1.00,0.00,-20.00,6,146.00,29.00,128.26,0.00,0.00,29.00,0,,,100,100,0,2,0,0,0,2,2,,,,,0.0,0.0,0.0,0.0,0.0,0.0,0
55.888731,-4.272427,14.30,0.00,2.90,12.82,23.20,23.20,4.10,13.25,12497,2022-09-29 11:05:57.400,2022-09-29 12:05:57.399,10,0,0,16.011,55.888736,-4.272411,0.00,0.00,2.90,0.10,-1.40,-5.80,0,1,0,98,100,-6938,3270,16011,2932.50,13,P-GPS,1,0,0,0,-660,0,0,1664449557399,3971,3963,4001,4033,0,0,27,,,,,,,0,0,0,-1.00,-14.00,-58.00,-1.00,0.00,-20.00,6,143.00,29.00,128.21,0.00,0.00,29.00,0,,,100,100,0,2,0,0,0,2,2,,,,,0.0,0.0,0.0,0.0,0.0,0.0,0
55.888731,-4.272428,14.00,0.00,2.80,12.80,23.20,23.20,4.10,13.25,12594,2022-09-29 11:05:57.496,2022-09-29 12:05:57.496,10,0,0,16.011,55.888736,-4.272411,0.00,0.00,2.80,-1.30,-0.70,-5.60,0,1,0,98,100,-6938,3270,16011,2932.50,13,P-GPS,1,0,0,0,-660,0,0,1664449557496,3971,3963,4001,4033,0,0,27,,,,,,,0,0,0,13.00,-7.00,-56.00,-1.00,0.00,-20.00,6,140.00,28.00,128.00,0.00,0.00,28.00,0,,,100,100,0,2,0,0,0,2,2,,,,,0.0,0.0,0.0,0.0,0.0,0.0,0
55.888731,-4.272428,13.70,0.00,2.80,12.79,23.20,23.20,4.10,13.25,12696,2022-09-29 11:05:57.599,2022-09-29 12:05:57.598,10,0,0,16.011,55.888736,-4.272411,0.00,0.00,2.80,-1.80,0.50,-5.30,0,1,0,98,100,-6938,3270,16011,2932.50,13,P-GPS,1,0,0,0,-660,0,0,1664449557598,3971,3963,4001,4033,0,0,27,,,,,,,0,0,0,18.00,5.00,-53.00,-1.00,0.00,-20.00,6,137.00,28.00,127.92,0.00,0.00,28.00,0,,,100,100,0,2,0,0,0,2,2,,,,,0.0,0.0,0.0,0.0,0.0,0.0,0
55.888731,-4.272428,13.40,0.00,2.90,12.78,23.20,23.20,4.10,13.25,12796,2022-09-29 11:05:57.698,2022-09-29 12:05:57.698,10,0,0,16.011,55.888736,-4.272411,0.10,0.00,2.90,-1.90,1.80,-5.00,0,1,0,98,100,-6938,3270,16011,2932.50,13,P-GPS,1,0,0,0,-660,0,0,1664449557698,3971,3963,4001,4033,0,0,27,,,,,,,0,0,0,19.00,18.00,-50.00,-1.00,0.00,-20.00,6,134.00,29.02,127.79,1.00,0.00,29.00,0,,,100,100,0,2,0,0,0,2,2,,,,,0.0,0.0,0.0,0.0,0.0,0.0,0
55.888731,-4.272428,13.10,0.00,2.90,12.77,23.20,23.20,4.10,13.25,12893,2022-09-29 11:05:57.795,2022-09-29 12:05:57.795,10,0,0,16.011,55.888736,-4.272411,0.10,0.00,2.90,0.00,0.80,-5.00,0,1,0,98,100,-6938,3270,16011,2932.50,13,P-GPS,1,0,0,0,-660,0,0,1664449557795,3971,3963,4001,4033,0,0,27,,,,,,,0,0,0,-0.00,8.00,-50.00,-1.00,0.00,-20.00,6,131.00,29.02,127.66,1.00,0.00,29.00,0,,,100,100,0,2,0,0,0,2,2,,,,,0.0,0.0,0.0,0.0,0.0,0.0,0
55.888731,-4.272428,12.80,0.00,2.90,12.75,23.20,23.20,4.10,13.25,13003,2022-09-29 11:05:57.906,2022-09-29 12:05:57.905,10,0,0,16.011,55.888736,-4.272411,0.10,0.00,2.90,1.30,0.20,-5.30,0,1,0,98,100,-6938,3270,16011,2932.50,13,P-GPS,1,0,0,0,-660,0,0,1664449557905,3971,3963,4001,4033,0,0,27,,,,,,,0,0,0,-13.00,2.00,-53.00,-1.00,0.00,-20.00,6,128.00,29.02,127.50,1.00,0.00,29.00,0,,,100,100,0,2,0,0,0,2,2,,,,,0.0,0.0,0.0,0.0,0.0,0.0,0
55.888732,-4.272429,12.50,0.00,2.90,12.69,23.20,23.20,4.10,13.25,13092,2022-09-29 11:05:57.994,2022-09-29 12:05:57.994,10,0,0,16.011,55.888736,-4.272411,0.10,0.00,2.90,2.50,-0.10,-5.70,0,1,0,98,100,-6938,3270,16011,2932.50,13,P-GPS,1,0,0,0,-660,0,0,1664449557994,3971,3963,4001,4033,0,0,27,,,,,,,0,0,0,-25.00,-1.00,-57.00,-1.00,0.00,-20.00,6,125.00,29.02,126.93,1.00,0.00,29.00,0,,,100,100,0,2,0,0,0,2,2,,,,,0.0,0.0,0.0,0.0,0.0,0.0,0
55.888732,-4.272429,12.20,0.00,2.90,12.69,23.20,23.20,4.10,13.25,13194,2022-09-29 11:05:58.097,2022-09-29 12:05:58.096,10,0,0,16.011,55.888736,-4.272411,0.00,0.00,2.90,2.10,-0.40,-5.60,0,1,0,98,100,-6938,3270,16011,2932.50,13,P-GPS,1,0,0,0,-660,0,0,1664449558096,3971,3963,4001,4033,0,0,27,,,,,,,0,0,0,-21.00,-4.00,-56.00,-1.00,0.00,-20.00,6,122.00,29.00,126.93,0.00,0.00,29.00,0,,,100,100,0,2,0,0,0,2,2,,,,,0.0,0.0,0.0,0.0,0.0,0.0,0
55.888732,-4.272429,11.90,0.00,2.90,12.69,23.20,23.20,4.10,13.25,13291,2022-09-29 11:05:58.193,2022-09-29 12:05:58.193,10,0,0,16.011,55.888736,-4.272411,0.00,0.00,2.90,-0.60,0.40,-5.40,0,1,0,98,100,-6938,3270,16011,2932.50,13,P-GPS,1,0,0,0,-660,0,0,1664449558193,3971,3963,4001,4033,0,0,27,,,,,,,0,0,0,6.00,4.00,-54.00,-1.00,0.00,-20.00,6,119.00,29.00,126.87,0.00,0.00,29.00,0,,,100,100,0,2,0,0,0,2,2,,,,,0.0,0.0,0.0,0.0,0.0,0.0,0
55.888732,-4.272429,11.60,0.00,3.00,12.66,23.20,23.20,4.10,13.25,13394,2022-09-29 11:05:58.297,2022-09-29 12:05:58.296,10,0,0,16.011,55.888736,-4.272411,0.00,0.00,3.00,-0.20,1.80,-5.40,0,1,0,98,100,-6938,3270,16011,2932.50,13,P-GPS,1,0,0,0,-660,0,0,1664449558296,3971,3963,4001,4033,0,0,27,,,,,,,0,0,0,2.00,18.00,-54.00,-1.00,0.00,-20.00,6,116.00,30.00,126.58,0.00,0.00,30.00,0,,,100,100,0,2,0,0,0,2,2,,,,,0.0,0.0,0.0,0.0,0.0,0.0,0
55.888732,-4.272429,11.30,0.00,3.00,12.65,23.20,23.20,4.10,13.25,13493,2022-09-29 11:05:58.396,2022-09-29 12:05:58.395,10,0,0,16.011,55.888736,-4.272411,0.00,0.00,3.00,-0.30,0.80,-5.60,0,1,0,98,100,-6938,3270,16011,2932.50,13,P-GPS,1,0,0,0,-660,0,0,1664449558395,3971,3963,4001,4033,0,0,27,,,,,,,0,0,0,3.00,8.00,-56.00,-1.00,0.00,-20.00,6,113.00,30.00,126.49,0.00,0.00,30.00,0,,,100,100,0,2,0,0,0,2,2,,,,,0.0,0.0,0.0,0.0,0.0,0.0,0
55.888732,-4.272429,11.00,0.00,3.00,12.66,23.20,23.20,4.10,13.25,13594,2022-09-29 11:05:58.496,2022-09-29 12:05:58.496,10,0,0,16.086,55.888736,-4.272411,0.00,0.00,3.00,0.40,0.20,-5.40,0,1,0,98,100,-6711,3268,16086,2933.50,13,P-GPS,1,0,0,0,-660,0,0,1664449558496,3971,3963,4001,4033,0,0,27,,,,,,,0,0,0,-4.00,2.00,-54.00,-1.00,0.00,-20.00,6,110.00,30.00,126.60,0.00,0.00,30.00,0,,,100,100,0,2,0,0,0,2,2,,,,,0.0,0.0,0.0,0.0,0.0,0.0,0
55.888732,-4.272429,10.70,0.00,3.00,12.65,23.20,23.20,4.10,13.25,13696,2022-09-29 11:05:58.598,2022-09-29 12:05:58.598,10,0,0,16.086,55.888736,-4.272411,0.00,0.00,3.00,1.90,0.10,-5.60,0,1,0,98,100,-6711,3268,16086,2933.50,13,P-GPS,1,0,0,0,-660,0,0,1664449558598,3971,3963,4001,4033,0,0,27,,,,,,,0,0,0,-19.00,1.00,-56.00,-1.00,0.00,-20.00,6,107.00,30.00,126.52,0.00,0.00,30.00,0,,,100,100,0,2,0,0,0,2,2,,,,,0.0,0.0,0.0,0.0,0.0,0.0,0
