latitude,longitude,altitude(m),ultrasonicHeight(m),speed(mps),distance(m),max_altitude(m),max_ascent(m),max_speed(mps),max_distance(m),time(millisecond),datetime(utc),datetime(local),satellites,pressure(Pa),temperature(F),voltage(v),home_latitude,home_longitude,velocityX(mps),velocityY(mps),velocityZ(mps),pitch(deg),roll(deg),yaw(deg),powerlevel,isflying,istakingphoto,remainPowerPercent,remainLifePercent,currentCurrent,currentElectricity,currentVoltage,batteryTemperature,dischargeCount,flightmode,isMotorsOn,isTakingVideo,Rc_elevator,Rc_aileron,Rc_throttle,Rc_rudder,Rc_gyro,timestamp,Battery_Cell1,Battery_Cell2,Battery_Cell3,Battery_Cell4,Battery_Cell5,Battery_Cell6,Dronetype,AppVersion,Planename,FlyControllerSerialNumber,RemoteSerialNumber,BatterySerialNumber,CENTER_BATTERY.productDate,CENTER_BATTERY.serialNo,CENTER_BATTERY.fullCapacity,CENTER_BATTERY.productDateRaw,pitchRaw,rollRaw,yawRaw,gimbalPitchRaw,gimbalRollRaw,gimbalYawRaw,flyState,altitudeRaw,speedRaw,distanceRaw,velocityXRaw,velocityYRaw,velocityZRaw,data_reuse,App_Tip,App_Warning,downlinkSignalQuality,uplinkSignalQuality,transmissionChannel,rcModeSwitch,rcHome,rcPause,rcTransform,rcJoystickMode,appMode,FlyControllerSerialNumber_legacy,RemoteSerialNumber_legacy,BatterySerialNumber_legacy,Battery2SerialNumber,frontAvoidDist,backAvoidDist,rightAvoidDist,leftAvoidDist,upAvoidDist,downAvoidDist,isBrakingToAvoid
55.952636,-4.403304,1.40,1.50,3.21,0.33,1.40,1.40,3.21,0.33,0,2022-10-02 10:35:31.651,2022-10-02 11:35:31.651,18,0,0,14.815,55.952636,-4.403309,0.00,0.20,-3.20,5.60,-0.30,72.40,0,1,0,25,100,-2912,843,14815,3104.50,9,P-GPS,1,0,0,0,660,0,0,1664706931651,3704,3702,3703,3690,0,0,27,Litchi_4.24.1-g,CJTMAVIC,163DFAS001K45C,0VECFAK0072T52,0P2AFB25340AEP,,0,0,0,-56.00,-3.00,724.00,97.00,0.00,686.00,6,14.00,32.06,3.27,0.00,2.00,-32.00,0,,,100,100,0,2,0,0,0,2,0,,,,null,4.7,2.6,0.0,0.0,0.0,0.0,0
55.952636,-4.403304,1.70,1.90,3.61,0.35,1.70,1.70,3.61,0.35,101,2022-10-02 10:35:31.752,2022-10-02 11:35:31.752,18,0,0,14.815,55.952636,-4.403309,0.00,0.20,-3.60,5.40,-0.60,72.40,0,1,0,25,100,-2912,843,14815,3104.50,9,P-GPS,1,0,0,0,660,0,0,1664706931752,3704,3702,3703,3690,0,0,27,,,,,,,0,0,0,-54.00,-6.00,724.00,97.00,0.00,686.00,6,17.00,36.06,3.54,0.00,2.00,-36.00,0,,,100,100,0,2,0,0,0,2,0,,,,,4.7,2.6,0.0,0.0,0.0,0.0,0
55.952635,-4.403303,2.10,2.30,3.81,0.37,2.10,2.10,3.81,0.37,199,2022-10-02 10:35:31.851,2022-10-02 11:35:31.851,18,0,0,14.815,55.952636,-4.403309,0.00,0.20,-3.80,5.30,-0.90,72.20,0,1,0,25,100,-2912,843,14815,3104.50,9,P-GPS,1,0,0,0,660,0,0,1664706931850,3704,3702,3703,3690,0,0,27,,,,,,,0,0,0,-53.00,-9.00,722.00,97.00,0.00,686.00,6,21.00,38.05,3.72,0.00,2.00,-38.00,0,,,100,100,0,2,0,0,0,2,0,,,,,5.0,2.6,0.0,0.0,0.0,0.0,0
55.952635,-4.403303,2.50,2.70,4.00,0.39,2.50,2.50,4.00,0.39,302,2022-10-02 10:35:31.953,2022-10-02 11:35:31.953,18,0,0,14.815,55.952636,-4.403309,0.00,0.20,-4.00,5.20,-1.20,72.20,0,1,0,25,100,-2912,843,14815,3104.50,9,P-GPS,1,0,0,0,660,0,0,1664706931953,3704,3702,3703,3690,0,0,27,,,,,,,0,0,0,-52.00,-12.00,722.00,97.00,0.00,686.00,6,25.00,40.05,3.95,0.00,2.00,-40.00,0,,,100,100,0,2,0,0,0,2,0,,,,,5.0,2.6,0.0,0.0,0.0,0.0,0
55.952636,-4.403302,2.90,3.10,4.10,0.43,2.90,2.90,4.10,0.43,399,2022-10-02 10:35:32.051,2022-10-02 11:35:32.050,18,0,0,14.815,55.952636,-4.403309,0.00,0.20,-4.10,5.40,-1.10,72.30,0,1,0,25,100,-2912,843,14815,3104.50,9,P-GPS,1,0,0,0,604,0,0,1664706932050,3704,3702,3703,3690,0,0,27,,,,,,,0,0,0,-54.00,-11.00,723.00,97.00,0.00,686.00,6,29.00,41.05,4.25,0.00,2.00,-41.00,0,,,100,100,0,2,0,0,0,2,0,,,,,12.9,2.6,0.0,0.0,0.0,0.0,0
55.952636,-4.403302,3.30,3.50,4.00,0.45,3.30,3.30,4.10,0.45,502,2022-10-02 10:35:32.153,2022-10-02 11:35:32.153,18,0,0,14.815,55.952636,-4.403309,0.00,0.20,-4.00,5.40,-0.80,72.50,0,1,0,25,100,-2912,843,14815,3104.50,9,P-GPS,1,0,0,0,398,0,0,1664706932153,3704,3702,3703,3690,0,0,27,,,,,,,0,0,0,-54.00,-8.00,725.00,97.00,0.00,686.00,6,33.00,40.05,4.48,0.00,2.00,-40.00,0,,,100,100,0,2,0,0,0,2,0,,,,,12.9,2.6,0.0,0.0,0.0,0.0,0
55.952636,-4.403302,3.70,3.90,3.91,0.47,3.70,3.70,4.10,0.47,603,2022-10-02 10:35:32.255,2022-10-02 11:35:32.254,18,0,0,14.815,55.952636,-4.403309,0.00,0.20,-3.90,5.80,-0.90,72.50,0,1,0,25,100,-2912,843,14815,3104.50,9,P-GPS,1,0,0,0,234,0,0,1664706932254,3704,3702,3703,3690,0,0,27,,,,,,,0,0,0,-58.00,-9.00,725.00,97.00,0.00,686.00,6,37.00,39.05,4.70,0.00,2.00,-39.00,0,,,100,100,0,2,0,0,0,2,0,,,,,0.0,2.7,0.0,0.0,0.0,0.0,0
55.952635,-4.403301,4.10,4.20,3.71,0.49,4.10,4.10,4.10,0.49,700,2022-10-02 10:35:32.352,2022-10-02 11:35:32.351,18,0,0,14.815,55.952636,-4.403309,0.00,0.20,-3.70,6.30,-0.90,72.40,0,1,0,25,100,-2912,843,14815,3104.50,9,P-GPS,1,0,0,0,71,0,0,1664706932351,3704,3702,3703,3690,0,0,27,,,,,,,0,0,0,-63.00,-9.00,724.00,97.00,0.00,686.00,6,41.00,37.05,4.94,0.00,2.00,-37.00,0,,,100,100,0,2,0,0,0,2,0,,,,,0.0,2.7,0.0,0.0,0.0,0.0,0
55.952636,-4.403301,4.50,4.60,3.41,0.53,4.50,4.50,4.10,0.53,800,2022-10-02 10:35:32.451,2022-10-02 11:35:32.451,17,0,0,14.815,55.952636,-4.403309,0.00,0.20,-3.40,6.50,-1.00,72.40,0,1,0,25,100,-2912,843,14815,3104.50,9,P-GPS,1,0,0,0,0,0,0,1664706932451,3704,3702,3703,3690,0,0,27,,,,,,,0,0,0,-65.00,-10.00,724.00,97.00,0.00,686.00,6,45.00,34.06,5.35,0.00,2.00,-34.00,0,,,100,100,0,2,0,0,0,2,0,,,,,0.0,0.0,0.0,0.0,0.0,0.0,0
55.952636,-4.403300,4.80,4.90,3.11,0.56,4.80,4.80,4.10,0.56,902,2022-10-02 10:35:32.553,2022-10-02 11:35:32.553,17,0,0,14.481,55.952636,-4.403309,0.00,0.20,-3.10,6.70,-1.20,72.50,0,1,0,25,100,-10898,840,14481,3104.50,9,P-GPS,1,0,0,0,0,0,0,1664706932553,3704,3702,3703,3690,0,0,27,,,,,,,0,0,0,-67.00,-12.00,725.00,97.00,0.00,686.00,6,48.00,31.06,5.63,0.00,2.00,-31.00,0,,,100,100,0,2,0,0,0,2,0,,,,,0.0,0.0,0.0,0.0,0.0,0.0,0
55.952635,-4.403300,5.10,5.20,2.71,0.57,5.10,5.10,4.10,0.57,1002,2022-10-02 10:35:32.654,2022-10-02 11:35:32.653,17,0,0,14.481,55.952636,-4.403309,-0.10,0.20,-2.70,6.60,-1.60,72.50,0,1,0,25,100,-10898,840,14481,3104.50,9,P-GPS,1,0,0,0,0,-9,0,1664706932653,3704,3702,3703,3690,0,0,27,,,,,,,0,0,0,-66.00,-16.00,725.00,97.00,0.00,686.00,6,51.00,27.09,5.66,-1.00,2.00,-27.00,0,,,100,100,0,2,0,0,0,2,0,,,,,0.0,0.0,0.0,0.0,0.0,0.0,0
55.952635,-4.403300,5.40,5.40,2.41,0.59,5.40,5.40,4.10,0.59,1103,2022-10-02 10:35:32.754,2022-10-02 11:35:32.754,17,0,0,14.481,55.952636,-4.403309,-0.10,0.20,-2.40,6.40,-1.90,72.20,0,1,0,25,100,-10898,840,14481,3104.50,9,P-GPS,1,0,0,0,0,-286,0,1664706932754,3704,3702,3703,3690,0,0,27,,,,,,,0,0,0,-64.00,-19.00,722.00,97.00,0.00,686.00,6,54.00,24.10,5.93,-1.00,2.00,-24.00,0,,,100,100,0,2,0,0,0,2,0,,,,,0.0,0.0,0.0,0.0,0.0,0.0,0
55.952636,-4.403299,5.60,5.60,2.01,0.61,5.60,5.60,4.10,0.61,1209,2022-10-02 10:35:32.861,2022-10-02 11:35:32.860,18,0,0,14.481,55.952636,-4.403309,-0.10,0.20,-2.00,6.40,-2.30,71.10,0,1,0,25,100,-10898,840,14481,3104.50,9,P-GPS,1,0,0,0,0,-515,0,1664706932860,3704,3702,3703,3690,0,0,27,,,,,,,0,0,0,-64.00,-23.00,711.00,97.00,0.00,685.00,6,56.00,20.12,6.13,-1.00,2.00,-20.00,0,,,100,100,0,2,0,0,0,2,0,,,,,0.0,0.0,0.0,0.0,0.0,0.0,0
55.952636,-4.403299,5.80,5.80,1.61,0.64,5.80,5.80,4.10,0.64,1301,2022-10-02 10:35:32.952,2022-10-02 11:35:32.952,18,0,0,14.481,55.952636,-4.403309,0.00,0.20,-1.60,6.50,-2.70,67.60,0,1,0,25,100,-10898,840,14481,3104.50,9,P-GPS,1,0,0,0,0,-660,0,1664706932952,3704,3702,3703,3690,0,0,27,,,,,,,0,0,0,-65.00,-27.00,676.00,97.00,0.00,671.00,6,58.00,16.12,6.42,0.00,2.00,-16.00,0,,,100,100,0,2,0,0,0,2,0,,,,,0.0,0.0,0.0,0.0,0.0,0.0,0
55.952636,-4.403298,5.90,5.90,1.24,0.68,5.90,5.90,4.10,0.68,1403,2022-10-02 10:35:33.054,2022-10-02 11:35:33.054,18,0,0,14.481,55.952636,-4.403309,0.00,0.30,-1.20,6.60,-3.20,62.60,0,1,0,25,100,-10898,840,14481,3104.50,9,P-GPS,1,0,0,0,0,-660,0,1664706933054,3704,3702,3703,3690,0,0,27,,,,,,,0,0,0,-66.00,-32.00,626.00,97.00,0.00,630.00,6,59.00,12.37,6.79,0.00,3.00,-12.00,0,,,100,100,0,2,0,0,0,2,0,,,,,0.0,0.0,0.0,0.0,0.0,0.0,0
55.952636,-4.403298,6.00,6.00,0.85,0.71,6.00,6.00,4.10,0.71,1506,2022-10-02 10:35:33.157,2022-10-02 11:35:33.157,18,0,0,14.481,55.952636,-4.403309,0.00,0.30,-0.80,6.70,-3.70,56.90,0,1,0,25,100,-10898,840,14481,3104.50,9,P-GPS,1,0,0,0,0,-660,0,1664706933157,3704,3702,3703,3690,0,0,27,,,,,,,0,0,0,-67.00,-37.00,569.00,97.00,0.00,571.00,6,60.00,8.54,7.11,0.00,3.00,-8.00,0,,,100,100,0,2,0,0,0,2,0,,,,,0.0,0.0,0.0,0.0,0.0,0.0,0
55.952636,-4.403297,6.00,6.10,0.50,0.74,6.00,6.00,4.10,0.74,1599,2022-10-02 10:35:33.251,2022-10-02 11:35:33.250,18,0,0,14.481,55.952636,-4.403309,0.00,0.30,-0.40,6.50,-4.30,51.20,0,1,0,25,100,-10898,840,14481,3104.50,9,P-GPS,1,0,0,0,0,-660,0,1664706933250,3704,3702,3703,3690,0,0,27,,,,,,,0,0,0,-65.00,-43.00,512.00,97.00,0.00,511.00,6,60.00,5.00,7.44,0.00,3.00,-4.00,0,,,100,100,0,2,0,0,0,2,0,,,,,0.0,0.0,0.0,0.0,0.0,0.0,0
55.952636,-4.403297,6.00,6.10,0.50,0.74,6.00,6.00,4.10,0.74,1685,2022-10-02 10:35:33.336,2022-10-02 11:35:33.336,18,0,0,14.481,55.952636,-4.403309,0.00,0.30,-0.10,6.50,-4.30,51.20,0,1,0,25,100,-10898,840,14481,3104.50,9,P-GPS,1,0,0,0,0,-660,0,1664706933336,3704,3702,3703,3690,0,0,27,,,,,,,0,0,0,-65.00,-43.00,512.00,97.00,0.00,451.00,6,60.00,5.00,7.44,0.00,3.00,-1.00,0,,,100,100,0,2,0,0,0,2,0,,,,,0.0,0.0,0.0,0.0,0.0,0.0,0
55.952636,-4.403297,6.10,6.10,0.22,0.80,6.10,6.10,4.10,0.80,1800,2022-10-02 10:35:33.451,2022-10-02 11:35:33.451,18,0,0,14.481,55.952636,-4.403309,0.10,0.20,0.00,5.30,-4.30,39.40,0,1,0,25,100,-10898,840,14481,3104.50,9,P-GPS,1,0,0,0,0,-660,0,1664706933451,3704,3702,3703,3690,0,0,27,,,,,,,0,0,0,-53.00,-43.00,394.00,97.00,0.00,391.00,6,61.00,2.24,7.96,1.00,2.00,0.00,0,,,100,100,0,2,0,0,0,2,0,,,,,0.0,0.0,0.0,0.0,0.0,0.0,0
55.952636,-4.403296,6.00,6.10,0.22,0.83,6.10,6.10,4.10,0.83,1901,2022-10-02 10:35:33.552,2022-10-02 11:35:33.552,18,0,0,14.710,55.952636,-4.403309,0.10,0.20,0.00,4.60,-4.60,33.40,0,1,0,25,100,-7487,837,14710,3105.50,9,P-GPS,1,0,0,0,0,-660,0,1664706933552,3704,3702,3703,3690,0,0,27,,,,,,,0,0,0,-46.00,-46.00,334.00,97.00,0.00,331.00,6,60.00,2.24,8.27,1.00,2.00,0.00,0,,,100,100,0,2,0,0,0,2,0,,,,,0.0,0.0,0.0,0.0,0.0,0.0,0
55.952637,-4.403296,6.10,6.10,0.28,0.85,6.10,6.10,4.10,0.85,2001,2022-10-02 10:35:33.653,2022-10-02 11:35:33.653,18,0,0,14.710,55.952636,-4.403309,0.20,0.20,0.00,4.50,-4.90,27.50,0,1,0,25,100,-7487,837,14710,3105.50,9,P-GPS,1,0,0,0,0,-660,0,1664706933652,3704,3702,3703,3690,0,0,27,,,,,,,0,0,0,-45.00,-49.00,275.00,97.00,0.00,272.00,6,61.00,2.83,8.46,2.00,2.00,0.00,0,,,100,100,0,2,0,0,0,2,0,,,,,0.0,0.0,0.0,0.0,0.0,0.0,0
55.952637,-4.403295,6.10,6.10,0.28,0.87,6.10,6.10,4.10,0.87,2101,2022-10-02 10:35:33.752,2022-10-02 11:35:33.752,18,0,0,14.710,55.952636,-4.403309,0.20,0.20,0.00,4.20,-5.10,21.50,0,1,0,25,100,-7487,837,14710,3105.50,9,P-GPS,1,0,0,0,0,-660,0,1664706933752,3704,3702,3703,3690,0,0,27,,,,,,,0,0,0,-42.00,-51.00,215.00,97.00,0.00,212.00,6,61.00,2.83,8.73,2.00,2.00,0.00,0,,,100,100,0,2,0,0,0,2,0,,,,,0.0,0.0,0.0,0.0,0.0,0.0,0
55.952637,-4.403295,6.10,6.10,0.28,0.89,6.10,6.10,4.10,0.89,2201,2022-10-02 10:35:33.853,2022-10-02 11:35:33.852,18,0,0,14.710,55.952636,-4.403309,0.20,0.20,0.00,3.50,-5.20,15.70,0,1,0,25,100,-7487,837,14710,3105.50,9,P-GPS,1,0,0,0,0,-660,0,1664706933852,3704,3702,3703,3690,0,0,27,,,,,,,0,0,0,-35.00,-52.00,157.00,97.00,0.00,152.00,6,61.00,2.83,8.92,2.00,2.00,0.00,0,,,100,100,0,2,0,0,0,2,0,,,,,0.0,0.0,0.0,0.0,0.0,0.0,0
55.952637,-4.403295,6.10,6.10,0.28,0.91,6.10,6.10,4.10,0.91,2301,2022-10-02 10:35:33.952,2022-10-02 11:35:33.952,18,0,0,14.710,55.952636,-4.403309,0.20,0.20,0.00,3.10,-5.50,9.70,0,1,0,25,100,-7487,837,14710,3105.50,9,P-GPS,1,0,0,0,0,-660,0,1664706933952,3704,3702,3703,3690,0,0,27,,,,,,,0,0,0,-31.00,-55.00,97.00,97.00,0.00,92.00,6,61.00,2.83,9.14,2.00,2.00,0.00,0,,,100,100,0,2,0,0,0,2,0,,,,,0.0,0.0,0.0,0.0,0.0,0.0,0
55.952637,-4.403294,6.10,6.10,0.32,0.93,6.10,6.10,4.10,0.93,2401,2022-10-02 10:35:34.052,2022-10-02 11:35:34.052,18,0,0,14.710,55.952636,-4.403309,0.30,0.10,0.00,3.20,-5.60,3.60,0,1,0,25,100,-7487,837,14710,3105.50,9,P-GPS,1,0,0,0,0,-660,0,1664706934052,3704,3702,3703,3690,0,0,27,,,,,,,0,0,0,-32.00,-56.00,36.00,97.00,0.00,31.00,6,61.00,3.16,9.33,3.00,1.00,0.00,0,,,100,100,0,2,0,0,0,2,0,,,,,0.0,0.0,0.0,0.0,0.0,0.0,0
55.952637,-4.403294,6.10,6.10,0.22,0.95,6.10,6.10,4.10,0.95,2500,2022-10-02 10:35:34.152,2022-10-02 11:35:34.151,18,0,0,14.710,55.952636,-4.403309,0.20,0.10,0.00,3.20,-6.30,-2.30,0,1,0,25,100,-7487,837,14710,3105.50,9,P-GPS,1,0,0,0,0,-660,0,1664706934151,3704,3702,3703,3690,0,0,27,,,,,,,0,0,0,-32.00,-63.00,-23.00,97.00,0.00,-28.00,6,61.00,2.24,9.53,2.00,1.00,0.00,0,,,100,100,0,2,0,0,0,2,0,,,,,0.0,0.0,0.0,0.0,0.0,0.0,0
55.952637,-4.403294,6.10,6.10,0.22,0.96,6.10,6.10,4.10,0.96,2601,2022-10-02 10:35:34.253,2022-10-02 11:35:34.252,18,0,0,14.710,55.952636,-4.403309,0.20,0.10,0.00,4.00,-6.20,-8.60,0,1,0,25,100,-7487,837,14710,3105.50,9,P-GPS,1,0,0,0,0,-660,0,1664706934252,3704,3702,3703,3690,0,0,27,,,,,,,0,0,0,-40.00,-62.00,-86.00,97.00,0.00,-88.00,6,61.00,2.24,9.59,2.00,1.00,0.00,0,,,100,100,0,2,0,0,0,2,0,,,,,0.0,0.0,0.0,0.0,0.0,0.0,0
55.952637,-4.403294,6.20,6.10,0.14,0.98,6.20,6.20,4.10,0.98,2700,2022-10-02 10:35:34.352,2022-10-02 11:35:34.351,18,0,0,14.710,55.952636,-4.403309,0.10,0.10,0.00,3.50,-6.00,-14.40,0,1,0,25,100,-7487,837,14710,3105.50,9,P-GPS,1,0,0,0,0,-660,0,1664706934351,3704,3702,3703,3690,0,0,27,,,,,,,0,0,0,-35.00,-60.00,-144.00,97.00,0.00,-147.00,6,62.00,1.41,9.76,1.00,1.00,0.00,0,,,100,100,0,2,0,0,0,2,0,,,,,0.0,0.0,0.0,0.0,0.0,0.0,0
55.952637,-4.403293,6.20,6.00,0.10,0.99,6.20,6.20,4.10,0.99,2800,2022-10-02 10:35:34.451,2022-10-02 11:35:34.451,18,0,0,14.710,55.952636,-4.403309,0.00,0.10,0.00,2.10,-6.10,-20.30,0,1,0,25,100,-7487,837,14710,3105.50,9,P-GPS,1,0,0,0,0,-660,0,1664706934451,3704,3702,3703,3690,0,0,27,,,,,,,0,0,0,-21.00,-61.00,-203.00,97.00,0.00,-207.00,6,62.00,1.00,9.94,0.00,1.00,0.00,0,,,100,100,0,2,0,0,0,2,0,,,,,0.0,0.0,0.0,0.0,0.0,0.0,0
55.952636,-4.403293,6.20,6.00,0.20,1.01,6.20,6.20,4.10,1.01,2901,2022-10-02 10:35:34.553,2022-10-02 11:35:34.552,18,0,0,14.660,55.952636,-4.403309,0.00,0.20,0.00,0.40,-5.80,-26.10,0,1,0,25,100,-5590,835,14660,3105.50,9,P-GPS,1,0,0,0,0,-660,0,1664706934552,3704,3702,3703,3690,0,0,27,,,,,,,0,0,0,-4.00,-58.00,-261.00,97.00,0.00,-267.00,6,62.00,2.00,10.11,0.00,2.00,0.00,0,,,100,100,0,2,0,0,0,2,0,,,,,0.0,0.0,0.0,0.0,0.0,0.0,0
55.952636,-4.403293,6.20,6.00,0.20,1.03,6.20,6.20,4.10,1.03,3002,2022-10-02 10:35:34.654,2022-10-02 11:35:34.653,18,0,0,14.660,55.952636,-4.403309,0.00,0.20,0.00,-1.20,-5.60,-32.10,0,1,0,25,100,-5590,835,14660,3105.50,9,P-GPS,1,0,0,0,0,-660,0,1664706934653,3672,3671,3668,3649,0,0,27,,,,,,,0,0,0,12.00,-56.00,-321.00,97.00,0.00,-327.00,6,62.00,2.00,10.29,0.00,2.00,0.00,0,,,100,100,0,2,0,0,0,2,0,,,,,0.0,0.0,0.0,0.0,0.0,0.0,0
55.952636,-4.403292,6.20,6.00,0.20,1.05,6.20,6.20,4.10,1.05,3107,2022-10-02 10:35:34.758,2022-10-02 11:35:34.758,18,0,0,14.660,55.952636,-4.403309,0.00,0.20,0.00,-2.50,-5.70,-38.00,0,1,0,25,100,-5590,835,14660,3105.50,9,P-GPS,1,0,0,0,0,-660,0,1664706934758,3672,3671,3668,3649,0,0,27,,,,,,,0,0,0,25.00,-57.00,-380.00,97.00,0.00,-387.00,6,62.00,2.00,10.49,0.00,2.00,0.00,0,,,100,100,0,2,0,0,0,2,0,,,,,0.0,0.0,0.0,0.0,0.0,0.0,0
55.952636,-4.403292,6.20,6.00,0.22,1.06,6.20,6.20,4.10,1.06,3203,2022-10-02 10:35:34.854,2022-10-02 11:35:34.854,18,0,0,14.660,55.952636,-4.403309,0.00,0.20,0.10,-2.50,-5.90,-44.20,0,1,0,25,100,-5590,835,14660,3105.50,9,P-GPS,1,0,0,0,0,-660,0,1664706934854,3672,3671,3668,3649,0,0,27,,,,,,,0,0,0,25.00,-59.00,-442.00,97.00,0.00,-447.00,6,62.00,2.24,10.62,0.00,2.00,1.00,0,,,100,100,0,2,0,0,0,2,0,,,,,0.0,0.0,0.0,0.0,0.0,0.0,0
55.952635,-4.403292,6.20,6.00,0.10,1.08,6.20,6.20,4.10,1.08,3309,2022-10-02 10:35:34.960,2022-10-02 11:35:34.960,18,0,0,14.660,55.952636,-4.403309,0.00,0.10,0.00,-2.90,-5.80,-50.20,0,1,0,25,100,-5590,835,14660,3105.50,9,P-GPS,1,0,0,0,0,-660,0,1664706934960,3672,3671,3668,3649,0,0,27,,,,,,,0,0,0,29.00,-58.00,-502.00,97.00,0.00,-507.00,6,62.00,1.00,10.81,0.00,1.00,0.00,0,,,100,100,0,2,0,0,0,2,0,,,,,0.0,0.0,0.0,0.0,0.0,0.0,0
55.952635,-4.403292,6.20,6.00,0.14,1.09,6.20,6.20,4.10,1.09,3402,2022-10-02 10:35:35.053,2022-10-02 11:35:35.053,18,0,0,14.660,55.952636,-4.403309,-0.10,0.10,0.00,-3.40,-5.10,-56.30,0,1,0,25,100,-5590,835,14660,3105.50,9,P-GPS,1,0,0,0,0,-660,0,1664706935053,3672,3671,3668,3649,0,0,27,,,,,,,0,0,0,34.00,-51.00,-563.00,97.00,0.00,-567.00,6,62.00,1.41,10.89,-1.00,1.00,0.00,0,,,100,100,0,2,0,0,0,2,0,,,,,0.0,0.0,0.0,0.0,0.0,0.0,0
55.952635,-4.403292,6.10,6.00,0.14,1.10,6.20,6.20,4.10,1.10,3502,2022-10-02 10:35:35.153,2022-10-02 11:35:35.153,18,0,0,14.660,55.952636,-4.403309,-0.10,0.10,0.00,-4.40,-4.40,-62.50,0,1,0,25,100,-5590,835,14660,3105.50,9,P-GPS,1,0,0,0,0,-660,0,1664706935153,3672,3671,3668,3649,0,0,27,,,,,,,0,0,0,44.00,-44.00,-625.00,97.00,0.00,-627.00,6,61.00,1.41,11.04,-1.00,1.00,0.00,0,,,100,100,0,2,0,0,0,2,0,,,,,0.0,0.0,0.0,0.0,0.0,0.0,0
55.952634,-4.403292,6.00,5.90,0.22,1.11,6.20,6.20,4.10,1.11,3607,2022-10-02 10:35:35.259,2022-10-02 11:35:35.258,18,0,0,14.660,55.952636,-4.403309,-0.20,0.10,0.00,-4.80,-2.40,-68.40,0,1,0,25,100,-5590,835,14660,3105.50,9,P-GPS,1,0,0,0,0,-660,0,1664706935258,3672,3671,3668,3649,0,0,27,,,,,,,0,0,0,48.00,-24.00,-684.00,97.00,0.00,-687.00,6,60.00,2.24,11.11,-2.00,1.00,0.00,0,,,100,100,0,2,0,0,0,2,0,,,,,0.0,0.0,0.0,0.0,0.0,0.0,0
55.952634,-4.403292,6.00,5.90,0.22,1.12,6.20,6.20,4.10,1.12,3707,2022-10-02 10:35:35.358,2022-10-02 11:35:35.358,18,0,0,14.660,55.952636,-4.403309,-0.20,0.10,0.00,-4.10,-0.30,-74.40,0,1,0,25,100,-5590,835,14660,3105.50,9,P-GPS,1,0,0,0,0,-660,0,1664706935358,3672,3671,3668,3649,0,0,27,,,,,,,0,0,0,41.00,-3.00,-744.00,97.00,0.00,-747.00,6,60.00,2.24,11.22,-2.00,1.00,0.00,0,,,100,100,0,2,0,0,0,2,0,,,,,0.0,0.0,0.0,0.0,0.0,0.0,0
55.952634,-4.403292,6.00,5.90,0.22,1.13,6.20,6.20,4.10,1.13,3801,2022-10-02 10:35:35.453,2022-10-02 11:35:35.452,18,0,0,14.660,55.952636,-4.403309,-0.20,0.10,0.00,-3.60,0.10,-80.40,0,1,0,25,100,-5590,835,14660,3105.50,9,P-GPS,1,0,0,0,0,-660,0,1664706935452,3672,3671,3668,3649,0,0,27,,,,,,,0,0,0,36.00,1.00,-804.00,97.00,0.00,-807.00,6,60.00,2.24,11.31,-2.00,1.00,0.00,0,,,100,100,0,2,0,0,0,2,0,,,,,0.0,0.0,0.0,0.0,0.0,0.0,0
55.952633,-4.403291,6.00,5.90,0.22,1.15,6.20,6.20,4.10,1.15,3914,2022-10-02 10:35:35.565,2022-10-02 11:35:35.565,18,0,0,14.636,55.952636,-4.403309,-0.20,0.10,0.00,-3.90,1.00,-86.40,0,1,0,24,100,-7231,833,14636,3105.50,9,P-GPS,1,0,0,0,0,-660,0,1664706935565,3672,3671,3668,3649,0,0,27,,,,,,,0,0,0,39.00,10.00,-864.00,97.00,0.00,-867.00,6,60.00,2.24,11.46,-2.00,1.00,0.00,0,,,100,100,0,2,0,0,0,2,0,,,,,0.0,0.0,0.0,0.0,0.0,0.0,0
55.952633,-4.403291,6.00,5.90,0.22,1.17,6.20,6.20,4.10,1.17,4001,2022-10-02 10:35:35.653,2022-10-02 11:35:35.652,18,0,0,14.636,55.952636,-4.403309,-0.20,0.10,0.00,-4.70,2.70,-92.40,0,1,0,24,100,-7231,833,14636,3105.50,9,P-GPS,1,0,0,0,0,-660,0,1664706935652,3672,3671,3668,3649,0,0,27,,,,,,,0,0,0,47.00,27.00,-924.00,97.00,0.00,-927.00,6,60.00,2.24,11.68,-2.00,1.00,0.00,0,,,100,100,0,2,0,0,0,2,0,,,,,0.0,0.0,0.0,0.0,0.0,0.0,0
55.952633,-4.403291,6.00,5.90,0.22,1.18,6.20,6.20,4.10,1.18,4100,2022-10-02 10:35:35.751,2022-10-02 11:35:35.751,18,0,0,14.636,55.952636,-4.403309,-0.20,0.10,0.00,-5.30,3.60,-98.30,0,1,0,24,100,-7231,833,14636,3105.50,9,P-GPS,1,0,0,0,0,-636,0,1664706935751,3672,3671,3668,3649,0,0,27,,,,,,,0,0,0,53.00,36.00,-983.00,97.00,0.00,-987.00,6,60.00,2.24,11.85,-2.00,1.00,0.00,0,,,100,100,0,2,0,0,0,2,0,,,,,0.0,0.0,0.0,0.0,0.0,0.0,0
55.952632,-4.403291,6.00,5.90,0.22,1.21,6.20,6.20,4.10,1.21,4207,2022-10-02 10:35:35.858,2022-10-02 11:35:35.858,18,0,0,14.636,55.952636,-4.403309,-0.20,0.10,0.00,-5.30,4.00,-102.50,0,1,0,24,100,-7231,833,14636,3105.50,9,P-GPS,1,0,0,0,0,-235,0,1664706935858,3672,3671,3668,3649,0,0,27,,,,,,,0,0,0,53.00,40.00,-1025.00,97.00,0.00,-1047.00,6,60.00,2.24,12.06,-2.00,1.00,0.00,0,,,100,100,0,2,0,0,0,2,0,,,,,0.0,0.0,0.0,0.0,0.0,0.0,0
55.952632,-4.403291,6.00,5.90,0.10,1.22,6.20,6.20,4.10,1.22,4304,2022-10-02 10:35:35.955,2022-10-02 11:35:35.955,18,0,0,14.636,55.952636,-4.403309,-0.10,0.00,0.00,-5.30,4.10,-104.00,0,1,0,24,100,-7231,833,14636,3105.50,9,P-GPS,1,0,0,0,0,0,0,1664706935955,3672,3671,3668,3649,0,0,27,,,,,,,0,0,0,53.00,41.00,-1040.00,97.00,0.00,-1089.00,6,60.00,1.00,12.19,-1.00,0.00,0.00,0,,,100,100,0,2,0,0,0,2,0,,,,,0.0,0.0,0.0,0.0,0.0,0.0,0
55.952632,-4.403291,6.00,5.90,0.10,1.22,6.20,6.20,4.10,1.22,4402,2022-10-02 10:35:36.053,2022-10-02 11:35:36.053,18,0,0,14.636,55.952636,-4.403309,-0.10,0.00,0.00,-4.90,4.40,-104.60,0,1,0,24,100,-7231,833,14636,3105.50,9,P-GPS,1,0,0,0,0,0,0,1664706936053,3672,3671,3668,3649,0,0,27,,,,,,,0,0,0,49.00,44.00,-1046.00,97.00,0.00,-1093.00,6,60.00,1.00,12.24,-1.00,0.00,0.00,0,,,100,100,0,2,0,0,0,2,0,,,,,0.0,0.0,0.0,0.0,0.0,0.0,0
55.952632,-4.403291,6.00,5.90,0.00,1.23,6.20,6.20,4.10,1.23,4503,2022-10-02 10:35:36.154,2022-10-02 11:35:36.154,18,0,0,14.636,55.952636,-4.403309,0.00,0.00,0.00,-4.60,4.00,-104.90,0,1,0,24,100,-7231,833,14636,3105.50,9,P-GPS,1,0,0,0,0,0,0,1664706936154,3672,3671,3668,3649,0,0,27,,,,,,,0,0,0,46.00,40.00,-1049.00,97.00,0.00,-1093.00,6,60.00,0.00,12.30,0.00,0.00,0.00,0,,,100,100,0,2,0,0,0,2,0,,,,,0.0,0.0,0.0,0.0,0.0,0.0,0
55.952632,-4.403291,6.00,5.90,0.00,1.24,6.20,6.20,4.10,1.24,4602,2022-10-02 10:35:36.254,2022-10-02 11:35:36.253,18,0,0,14.636,55.952636,-4.403309,0.00,0.00,0.00,-4.20,3.90,-105.00,0,1,0,24,100,-7231,833,14636,3105.50,9,P-GPS,1,0,0,0,0,0,0,1664706936253,3672,3671,3668,3649,0,0,27,,,,,,,0,0,0,42.00,39.00,-1050.00,97.00,0.00,-1093.00,6,60.00,0.00,12.43,0.00,0.00,0.00,0,,,100,100,0,2,0,0,0,2,0,,,,,0.0,0.0,0.0,0.0,0.0,0.0,0
55.952632,-4.403291,6.00,5.90,0.00,1.25,6.20,6.20,4.10,1.25,4700,2022-10-02 10:35:36.351,2022-10-02 11:35:36.351,18,0,0,14.636,55.952636,-4.403309,0.00,0.00,0.00,-5.10,3.50,-105.10,0,1,0,24,100,-7231,833,14636,3105.50,9,P-GPS,1,0,0,0,0,0,0,1664706936351,3672,3671,3668,3649,0,0,27,,,,,,,0,0,0,51.00,35.00,-1051.00,97.00,0.00,-1093.00,6,60.00,0.00,12.45,0.00,0.00,0.00,0,,,100,100,0,2,0,0,0,2,0,,,,,0.0,0.0,0.0,0.0,0.0,0.0,0
55.952632,-4.403291,6.00,5.90,0.00,1.24,6.20,6.20,4.10,1.25,4800,2022-10-02 10:35:36.451,2022-10-02 11:35:36.451,18,0,0,14.641,55.952636,-4.403309,0.00,0.00,0.00,-5.80,2.70,-105.20,0,1,0,24,100,-7092,831,14641,3105.50,9,P-GPS,1,0,0,0,0,0,-454,1664706936451,3672,3671,3668,3649,0,0,27,,,,,,,0,0,0,58.00,27.00,-1052.00,97.00,0.00,-1093.00,6,60.00,0.00,12.42,0.00,0.00,0.00,0,,,100,100,0,2,0,0,0,2,0,,,,,0.0,0.0,0.0,0.0,0.0,0.0,0
55.952632,-4.403291,6.00,5.90,0.00,1.24,6.20,6.20,4.10,1.25,4907,2022-10-02 10:35:36.559,2022-10-02 11:35:36.558,18,0,0,14.641,55.952636,-4.403309,0.00,0.00,0.00,-5.70,2.50,-105.40,0,1,0,24,100,-7092,831,14641,3105.50,9,P-GPS,1,0,0,0,0,0,-660,1664706936558,3672,3671,3668,3649,0,0,27,,,,,,,0,0,0,57.00,25.00,-1054.00,93.00,0.00,-1093.00,6,60.00,0.00,12.43,0.00,0.00,0.00,0,,,100,100,0,2,0,0,0,2,0,,,,,0.0,0.0,0.0,0.0,0.0,0.0,0
55.952632,-4.403291,6.00,5.90,0.00,1.24,6.20,6.20,4.10,1.25,5013,2022-10-02 10:35:36.665,2022-10-02 11:35:36.664,18,0,0,14.641,55.952636,-4.403309,0.00,0.00,0.00,-5.30,2.40,-105.50,0,1,0,24,100,-7092,831,14641,3105.50,9,P-GPS,1,0,0,0,0,0,-660,1664706936664,3672,3671,3668,3649,0,0,27,,,,,,,0,0,0,53.00,24.00,-1055.00,85.00,0.00,-1093.00,6,60.00,0.00,12.45,0.00,0.00,0.00,0,,,100,100,0,2,0,0,0,2,0,,,,,0.0,0.0,0.0,0.0,0.0,0.0,0
55.952632,-4.403291,6.00,5.90,0.00,1.24,6.20,6.20,4.10,1.25,5101,2022-10-02 10:35:36.752,2022-10-02 11:35:36.752,18,0,0,14.641,55.952636,-4.403309,0.00,0.00,0.00,-4.10,2.80,-105.30,0,1,0,24,100,-7092,831,14641,3105.50,9,P-GPS,1,0,0,0,0,0,-660,1664706936752,3672,3671,3668,3649,0,0,27,,,,,,,0,0,0,41.00,28.00,-1053.00,70.00,0.00,-1093.00,6,60.00,0.00,12.44,0.00,0.00,0.00,0,,,100,100,0,2,0,0,0,2,0,,,,,0.0,0.0,0.0,0.0,0.0,0.0,0
55.952632,-4.403291,6.00,5.90,0.00,1.24,6.20,6.20,4.10,1.25,5219,2022-10-02 10:35:36.871,2022-10-02 11:35:36.870,18,0,0,14.641,55.952636,-4.403309,0.00,0.00,0.00,-3.50,2.70,-105.20,0,1,0,24,100,-7092,831,14641,3105.50,9,P-GPS,1,0,0,0,0,0,-660,1664706936870,3672,3671,3668,3649,0,0,27,,,,,,,0,0,0,35.00,27.00,-1052.00,50.00,0.00,-1093.00,6,60.00,0.00,12.39,0.00,0.00,0.00,0,,,100,100,0,2,0,0,0,2,0,,,,,0.0,0.0,0.0,0.0,0.0,0.0,0
55.952632,-4.403291,6.00,5.90,0.10,1.24,6.20,6.20,4.10,1.25,5363,2022-10-02 10:35:37.015,2022-10-02 11:35:37.014,18,0,0,14.641,55.952636,-4.403309,0.10,0.00,0.00,-5.00,1.90,-105.20,0,1,0,24,100,-7092,831,14641,3105.50,9,P-GPS,1,0,0,0,0,0,-660,1664706937014,3672,3671,3668,3649,0,0,27,,,,,,,0,0,0,50.00,19.00,-1052.00,27.00,0.00,-1093.00,6,60.00,1.00,12.39,1.00,0.00,0.00,0,,,100,100,0,2,0,0,0,2,0,,,,,0.0,0.0,0.0,0.0,0.0,0.0,0
55.952632,-4.403290,6.00,5.90,0.10,1.24,6.20,6.20,4.10,1.25,5504,2022-10-02 10:35:37.155,2022-10-02 11:35:37.155,18,0,0,14.641,55.952636,-4.403309,0.10,0.00,0.00,-6.60,0.90,-105.40,0,1,0,24,100,-7092,831,14641,3105.50,9,P-GPS,1,0,0,0,0,0,-660,1664706937155,3672,3671,3668,3649,0,0,27,,,,,,,0,0,0,66.00,9.00,-1054.00,-20.00,0.00,-1093.00,6,60.00,1.00,12.43,1.00,0.00,0.00,0,,,100,100,0,2,0,0,0,2,0,,,,,0.0,0.0,0.0,0.0,0.0,0.0,0
55.952633,-4.403290,6.00,5.90,0.10,1.24,6.20,6.20,4.10,1.25,5611,2022-10-02 10:35:37.263,2022-10-02 11:35:37.262,18,0,0,14.641,55.952636,-4.403309,0.10,0.00,0.00,-6.50,0.60,-105.40,0,1,0,24,100,-7092,831,14641,3105.50,9,P-GPS,1,0,0,0,0,0,-660,1664706937262,3672,3671,3668,3649,0,0,27,,,,,,,0,0,0,65.00,6.00,-1054.00,-43.00,0.00,-1093.00,6,60.00,1.00,12.35,1.00,0.00,0.00,0,,,100,100,0,2,0,0,0,2,0,,,,,0.0,0.0,0.0,0.0,0.0,0.0,0
55.952633,-4.403290,6.00,5.90,0.10,1.24,6.20,6.20,4.10,1.25,5713,2022-10-02 10:35:37.364,2022-10-02 11:35:37.364,18,0,0,14.641,55.952636,-4.403309,0.10,0.00,0.00,-6.50,0.90,-105.40,0,1,0,24,100,-7092,831,14641,3105.50,9,P-GPS,1,0,0,0,0,0,-660,1664706937364,3672,3671,3668,3649,0,0,27,,,,,,,0,0,0,65.00,9.00,-1054.00,-67.00,0.00,-1093.00,6,60.00,1.00,12.35,1.00,0.00,0.00,0,,,100,100,0,2,0,0,0,2,0,,,,,0.0,0.0,0.0,0.0,0.0,0.0,0
55.952633,-4.403290,6.00,5.90,0.10,1.25,6.20,6.20,4.10,1.25,5806,2022-10-02 10:35:37.458,2022-10-02 11:35:37.457,18,0,0,14.645,55.952636,-4.403309,0.10,0.00,0.00,-7.00,0.80,-105.30,0,1,0,24,100,-6842,829,14645,3105.50,9,P-GPS,1,0,0,0,0,0,-660,1664706937457,3672,3671,3668,3649,0,0,27,,,,,,,0,0,0,70.00,8.00,-1053.00,-91.00,0.00,-1093.00,6,60.00,1.00,12.49,1.00,0.00,0.00,0,,,100,100,0,2,0,0,0,2,0,,,,,0.0,0.0,0.0,0.0,0.0,0.0,0
55.952633,-4.403290,6.00,5.90,0.10,1.25,6.20,6.20,4.10,1.25,5910,2022-10-02 10:35:37.561,2022-10-02 11:35:37.561,18,0,0,14.645,55.952636,-4.403309,0.10,0.00,0.00,-6.50,0.80,-105.30,0,1,0,24,100,-6842,829,14645,3105.50,9,P-GPS,1,0,0,0,0,0,-660,1664706937561,3672,3671,3668,3649,0,0,27,,,,,,,0,0,0,65.00,8.00,-1053.00,-114.00,0.00,-1093.00,6,60.00,1.00,12.51,1.00,0.00,0.00,0,,,100,100,0,2,0,0,0,2,0,,,,,0.0,0.0,0.0,0.0,0.0,0.0,0
55.952633,-4.403290,6.00,5.90,0.10,1.25,6.20,6.20,4.10,1.25,6007,2022-10-02 10:35:37.658,2022-10-02 11:35:37.658,18,0,0,14.645,55.952636,-4.403309,0.10,0.00,0.00,-6.70,0.70,-105.20,0,1,0,24,100,-6842,829,14645,3105.50,9,P-GPS,1,0,0,0,0,0,-582,1664706937658,3672,3671,3668,3649,0,0,27,,,,,,,0,0,0,67.00,7.00,-1052.00,-138.00,0.00,-1093.00,6,60.00,1.00,12.53,1.00,0.00,0.00,0,,,100,100,0,2,0,0,0,2,0,,,,,0.0,0.0,0.0,0.0,0.0,0.0,0
55.952633,-4.403290,6.00,5.90,0.10,1.25,6.20,6.20,4.10,1.25,6106,2022-10-02 10:35:37.758,2022-10-02 11:35:37.757,18,0,0,14.645,55.952636,-4.403309,0.10,0.00,0.00,-8.30,0.30,-105.30,0,1,0,24,100,-6842,829,14645,3105.50,9,P-GPS,1,0,0,0,0,0,0,1664706937757,3672,3671,3668,3649,0,0,27,,,,,,,0,0,0,83.00,3.00,-1053.00,-161.00,0.00,-1093.00,6,60.00,1.00,12.54,1.00,0.00,0.00,0,,,100,100,0,2,0,0,0,2,0,,,,,0.0,0.0,0.0,0.0,0.0,0.0,0
55.952634,-4.403290,6.00,5.90,0.10,1.25,6.20,6.20,4.10,1.25,6218,2022-10-02 10:35:37.869,2022-10-02 11:35:37.869,18,0,0,14.645,55.952636,-4.403309,0.10,0.00,0.00,-8.30,0.00,-105.50,0,1,0,24,100,-6842,829,14645,3105.50,9,P-GPS,1,0,0,0,0,0,0,1664706937869,3672,3671,3668,3649,0,0,27,,,,,,,0,0,0,83.00,0.00,-1055.00,-179.00,0.00,-1093.00,6,60.00,1.00,12.53,1.00,0.00,0.00,0,,,100,100,0,2,0,0,0,2,0,,,,,0.0,0.0,0.0,0.0,0.0,0.0,0
55.952634,-4.403290,6.00,5.90,0.10,1.25,6.20,6.20,4.10,1.25,6311,2022-10-02 10:35:37.962,2022-10-02 11:35:37.962,18,0,0,14.645,55.952636,-4.403309,0.10,0.00,0.00,-8.10,-0.70,-105.60,0,1,0,24,100,-6842,829,14645,3105.50,9,P-GPS,1,0,0,0,0,0,0,1664706937962,3672,3671,3668,3649,0,0,27,,,,,,,0,0,0,81.00,-7.00,-1056.00,-191.00,0.00,-1093.00,6,60.00,1.00,12.54,1.00,0.00,0.00,0,,,100,100,0,2,0,0,0,2,0,,,,,0.0,0.0,0.0,0.0,0.0,0.0,0
55.952634,-4.403289,6.00,5.90,0.10,1.27,6.20,6.20,4.10,1.27,6408,2022-10-02 10:35:38.059,2022-10-02 11:35:38.059,18,0,0,14.645,55.952636,-4.403309,0.10,0.00,0.00,-8.20,-0.40,-105.60,0,1,0,24,100,-6842,829,14645,3105.50,9,P-GPS,1,0,0,0,0,0,0,1664706938059,3672,3671,3668,3649,0,0,27,,,,,,,0,0,0,82.00,-4.00,-1056.00,-198.00,0.00,-1093.00,6,60.00,1.00,12.65,1.00,0.00,0.00,0,,,100,100,0,2,0,0,0,2,0,,,,,0.0,0.0,0.0,0.0,0.0,0.0,0
55.952634,-4.403289,6.00,5.90,0.10,1.27,6.20,6.20,4.10,1.27,6502,2022-10-02 10:35:38.154,2022-10-02 11:35:38.153,18,0,0,14.645,55.952636,-4.403309,0.10,0.00,0.00,-8.20,-0.20,-105.50,0,1,0,24,100,-6842,829,14645,3105.50,9,P-GPS,1,0,0,0,0,0,-167,1664706938153,3672,3671,3668,3649,0,0,27,,,,,,,0,0,0,82.00,-2.00,-1055.00,-199.00,0.00,-1093.00,6,60.00,1.00,12.69,1.00,0.00,0.00,0,,,100,100,0,2,0,0,0,2,0,,,,,0.0,0.0,0.0,0.0,0.0,0.0,0
55.952635,-4.403289,6.00,5.90,0.10,1.27,6.20,6.20,4.10,1.27,6622,2022-10-02 10:35:38.273,2022-10-02 11:35:38.273,18,0,0,14.645,55.952636,-4.403309,0.10,0.00,0.00,-8.20,0.00,-105.60,0,1,0,24,100,-6842,829,14645,3105.50,9,P-GPS,1,0,0,0,0,0,-472,1664706938273,3672,3671,3668,3649,0,0,27,,,,,,,0,0,0,82.00,0.00,-1056.00,-202.00,0.00,-1093.00,6,60.00,1.00,12.72,1.00,0.00,0.00,0,,,100,100,0,2,0,0,0,2,0,,,,,0.0,0.0,0.0,0.0,0.0,0.0,0
55.952635,-4.403289,6.00,5.90,0.10,1.28,6.20,6.20,4.10,1.28,6709,2022-10-02 10:35:38.360,2022-10-02 11:35:38.360,18,0,0,14.645,55.952636,-4.403309,0.10,0.00,0.00,-8.80,-0.30,-105.60,0,1,0,24,100,-6842,829,14645,3105.50,9,P-GPS,1,0,0,0,0,0,-660,1664706938360,3672,3671,3668,3649,0,0,27,,,,,,,0,0,0,88.00,-3.00,-1056.00,-209.00,0.00,-1093.00,6,60.00,1.00,12.77,1.00,0.00,0.00,0,,,100,100,0,2,0,0,0,2,0,,,,,0.0,0.0,0.0,0.0,0.0,0.0,0
55.952635,-4.403289,6.00,5.90,0.10,1.27,6.20,6.20,4.10,1.28,6804,2022-10-02 10:35:38.456,2022-10-02 11:35:38.455,18,0,0,14.645,55.952636,-4.403309,0.10,0.00,0.00,-9.00,-0.90,-105.60,0,1,0,24,100,-6842,829,14645,3105.50,9,P-GPS,1,0,0,0,0,0,-660,1664706938455,3672,3671,3668,3649,0,0,27,,,,,,,0,0,0,90.00,-9.00,-1056.00,-222.00,0.00,-1093.00,6,60.00,1.00,12.72,1.00,0.00,0.00,0,,,100,100,0,2,0,0,0,2,0,,,,,0.0,0.0,0.0,0.0,0.0,0.0,0
55.952635,-4.403289,6.00,5.90,0.10,1.27,6.20,6.20,4.10,1.28,6903,2022-10-02 10:35:38.554,2022-10-02 11:35:38.554,18,0,0,14.634,55.952636,-4.403309,0.10,0.00,0.00,-8.70,-1.40,-105.50,0,1,0,24,100,-7026,828,14634,3106.50,9,P-GPS,1,0,0,0,0,0,-660,1664706938554,3672,3671,3668,3649,0,0,27,,,,,,,0,0,0,87.00,-14.00,-1055.00,-241.00,0.00,-1093.00,6,60.00,1.00,12.74,1.00,0.00,0.00,0,,,100,100,0,2,0,0,0,2,0,,,,,0.0,0.0,0.0,0.0,0.0,0.0,0
55.952635,-4.403289,6.00,5.90,0.10,1.28,6.20,6.20,4.10,1.28,7009,2022-10-02 10:35:38.661,2022-10-02 11:35:38.661,18,0,0,14.634,55.952636,-4.403309,0.10,0.00,0.00,-8.30,-1.60,-105.50,0,1,0,24,100,-7026,828,14634,3106.50,9,P-GPS,1,0,0,0,0,0,-660,1664706938660,3672,3671,3668,3649,0,0,27,,,,,,,0,0,0,83.00,-16.00,-1055.00,-264.00,0.00,-1093.00,6,60.00,1.00,12.77,1.00,0.00,0.00,0,,,100,100,0,2,0,0,0,2,0,,,,,0.0,0.0,0.0,0.0,0.0,0.0,0
55.952635,-4.403289,6.00,5.90,0.10,1.28,6.20,6.20,4.10,1.28,7102,2022-10-02 10:35:38.753,2022-10-02 11:35:38.753,18,0,0,14.634,55.952636,-4.403309,0.10,0.00,0.00,-7.70,-2.20,-105.50,0,1,0,24,100,-7026,828,14634,3106.50,9,P-GPS,1,0,0,0,0,0,-660,1664706938753,3672,3671,3668,3649,0,0,27,,,,,,,0,0,0,77.00,-22.00,-1055.00,-288.00,0.00,-1093.00,6,60.00,1.00,12.77,1.00,0.00,0.00,0,,,100,100,0,2,0,0,0,2,0,,,,,0.0,0.0,0.0,0.0,0.0,0.0,0
55.952636,-4.403289,6.00,5.80,0.10,1.28,6.20,6.20,4.10,1.28,7205,2022-10-02 10:35:38.856,2022-10-02 11:35:38.856,18,0,0,14.634,55.952636,-4.403309,0.10,0.00,0.00,-7.80,-2.10,-105.50,0,1,0,24,100,-7026,828,14634,3106.50,9,P-GPS,1,0,0,0,0,0,-660,1664706938856,3672,3671,3668,3649,0,0,27,,,,,,,0,0,0,78.00,-21.00,-1055.00,-312.00,0.00,-1093.00,6,60.00,1.00,12.80,1.00,0.00,0.00,0,,,100,100,0,2,0,0,0,2,0,,,,,0.0,0.0,0.0,0.0,0.0,0.0,0
55.952636,-4.403289,6.00,5.80,0.10,1.28,6.20,6.20,4.10,1.28,7303,2022-10-02 10:35:38.954,2022-10-02 11:35:38.954,18,0,0,14.634,55.952636,-4.403309,0.10,0.00,0.00,-8.20,-2.00,-105.50,0,1,0,24,100,-7026,828,14634,3106.50,9,P-GPS,1,0,0,0,0,0,-660,1664706938954,3672,3671,3668,3649,0,0,27,,,,,,,0,0,0,82.00,-20.00,-1055.00,-335.00,0.00,-1093.00,6,60.00,1.00,12.79,1.00,0.00,0.00,0,,,100,100,0,2,0,0,0,2,0,,,,,0.0,0.0,0.0,0.0,0.0,0.0,0
55.952636,-4.403289,6.00,5.80,0.00,1.28,6.20,6.20,4.10,1.28,7408,2022-10-02 10:35:39.060,2022-10-02 11:35:39.060,18,0,0,14.634,55.952636,-4.403309,0.00,0.00,0.00,-7.50,-1.90,-105.60,0,1,0,24,100,-7026,828,14634,3106.50,9,P-GPS,1,0,0,0,0,0,-660,1664706939059,3672,3671,3668,3649,0,0,27,,,,,,,0,0,0,75.00,-19.00,-1056.00,-359.00,0.00,-1093.00,6,60.00,0.00,12.77,0.00,0.00,0.00,0,,,100,100,0,2,0,0,0,2,0,,,,,0.0,0.0,0.0,0.0,0.0,0.0,0
55.952636,-4.403289,6.00,5.80,0.00,1.27,6.20,6.20,4.10,1.28,7505,2022-10-02 10:35:39.157,2022-10-02 11:35:39.156,18,0,0,14.634,55.952636,-4.403309,0.00,0.00,0.00,-7.00,-1.70,-105.60,0,1,0,24,100,-7026,828,14634,3106.50,9,P-GPS,1,0,0,0,0,0,-660,1664706939156,3672,3671,3668,3649,0,0,27,,,,,,,0,0,0,70.00,-17.00,-1056.00,-383.00,0.00,-1093.00,6,60.00,0.00,12.72,0.00,0.00,0.00,0,,,100,100,0,2,0,0,0,2,0,,,,,0.0,0.0,0.0,0.0,0.0,0.0,0
55.952636,-4.403289,6.00,5.80,0.00,1.27,6.20,6.20,4.10,1.28,7606,2022-10-02 10:35:39.257,2022-10-02 11:35:39.257,18,0,0,14.634,55.952636,-4.403309,0.00,0.00,0.00,-6.40,-1.20,-105.40,0,1,0,24,100,-7026,828,14634,3106.50,9,P-GPS,1,0,0,0,0,0,-660,1664706939257,3672,3671,3668,3649,0,0,27,,,,,,,0,0,0,64.00,-12.00,-1054.00,-406.00,0.00,-1093.00,6,60.00,0.00,12.67,0.00,0.00,0.00,0,,,100,100,0,2,0,0,0,2,0,,,,,0.0,0.0,0.0,0.0,0.0,0.0,0
55.952636,-4.403289,6.00,5.80,0.00,1.26,6.20,6.20,4.10,1.28,7711,2022-10-02 10:35:39.363,2022-10-02 11:35:39.362,18,0,0,14.634,55.952636,-4.403309,0.00,0.00,0.00,-5.70,-1.10,-105.40,0,1,0,24,100,-7026,828,14634,3106.50,9,P-GPS,1,0,0,0,0,0,-660,1664706939362,3672,3671,3668,3649,0,0,27,,,,,,,0,0,0,57.00,-11.00,-1054.00,-430.00,0.00,-1093.00,6,60.00,0.00,12.63,0.00,0.00,0.00,0,,,100,100,0,2,0,0,0,2,0,,,,,0.0,0.0,0.0,0.0,0.0,0.0,0
55.952636,-4.403289,6.00,5.80,0.00,1.25,6.20,6.20,4.10,1.28,7808,2022-10-02 10:35:39.459,2022-10-02 11:35:39.459,18,0,0,14.634,55.952636,-4.403309,0.00,0.00,0.00,-6.00,-0.60,-105.40,0,1,0,24,100,-7026,828,14634,3106.50,9,P-GPS,1,0,0,0,0,0,-660,1664706939459,3672,3671,3668,3649,0,0,27,,,,,,,0,0,0,60.00,-6.00,-1054.00,-453.00,0.00,-1093.00,6,60.00,0.00,12.50,0.00,0.00,0.00,0,,,100,100,0,2,0,0,0,2,0,,,,,0.0,0.0,0.0,0.0,0.0,0.0,0
55.952636,-4.403289,6.00,5.80,0.00,1.25,6.20,6.20,4.10,1.28,7904,2022-10-02 10:35:39.555,2022-10-02 11:35:39.555,18,0,0,14.629,55.952636,-4.403309,0.00,0.00,0.00,-6.30,-0.60,-105.40,0,1,0,24,100,-6960,826,14629,3106.50,9,P-GPS,1,0,0,0,0,0,-660,1664706939555,3672,3671,3668,3649,0,0,27,,,,,,,0,0,0,63.00,-6.00,-1054.00,-477.00,0.00,-1093.00,6,60.00,0.00,12.45,0.00,0.00,0.00,0,,,100,100,0,2,0,0,0,2,0,,,,,0.0,0.0,0.0,0.0,0.0,0.0,0
55.952636,-4.403289,6.00,5.80,0.00,1.24,6.20,6.20,4.10,1.28,8006,2022-10-02 10:35:39.657,2022-10-02 11:35:39.657,18,0,0,14.629,55.952636,-4.403309,0.00,0.00,0.00,-5.70,-0.30,-105.40,0,1,0,24,100,-6960,826,14629,3106.50,9,P-GPS,1,0,0,0,0,0,0,1664706939657,3672,3671,3668,3649,0,0,27,,,,,,,0,0,0,57.00,-3.00,-1054.00,-501.00,0.00,-1093.00,6,60.00,0.00,12.38,0.00,0.00,0.00,0,,,100,100,0,2,0,0,0,2,0,,,,,0.0,0.0,0.0,0.0,0.0,0.0,0
55.952636,-4.403290,6.00,5.80,0.00,1.23,6.20,6.20,4.10,1.28,8115,2022-10-02 10:35:39.766,2022-10-02 11:35:39.766,18,0,0,14.629,55.952636,-4.403309,0.00,0.00,0.00,-5.30,0.00,-105.40,0,1,0,24,100,-6960,826,14629,3106.50,9,P-GPS,1,0,0,0,0,0,0,1664706939766,3672,3671,3668,3649,0,0,27,,,,,,,0,0,0,53.00,0.00,-1054.00,-524.00,0.00,-1093.00,6,60.00,0.00,12.32,0.00,0.00,0.00,0,,,100,100,0,2,0,0,0,2,0,,,,,0.0,0.0,0.0,0.0,0.0,0.0,0
55.952636,-4.403290,6.00,5.80,0.00,1.22,6.20,6.20,4.10,1.28,8210,2022-10-02 10:35:39.861,2022-10-02 11:35:39.861,18,0,0,14.629,55.952636,-4.403309,0.00,0.00,0.00,-4.80,-0.60,-105.50,0,1,0,24,100,-6960,826,14629,3106.50,9,P-GPS,1,0,0,0,0,0,0,1664706939861,3672,3671,3668,3649,0,0,27,,,,,,,0,0,0,48.00,-6.00,-1055.00,-542.00,0.00,-1093.00,6,60.00,0.00,12.24,0.00,0.00,0.00,0,,,100,100,0,2,0,0,0,2,0,,,,,0.0,0.0,0.0,0.0,0.0,0.0,0
55.952636,-4.403290,6.00,5.80,0.00,1.22,6.20,6.20,4.10,1.28,8307,2022-10-02 10:35:39.959,2022-10-02 11:35:39.958,18,0,0,14.629,55.952636,-4.403309,0.00,0.00,0.00,-5.20,-0.50,-105.50,0,1,0,24,100,-6960,826,14629,3106.50,9,P-GPS,1,0,0,0,0,0,0,1664706939958,3672,3671,3668,3649,0,0,27,,,,,,,0,0,0,52.00,-5.00,-1055.00,-556.00,0.00,-1093.00,6,60.00,0.00,12.20,0.00,0.00,0.00,0,,,100,100,0,2,0,0,0,2,0,,,,,0.0,0.0,0.0,0.0,0.0,0.0,0
55.952636,-4.403290,6.00,5.80,0.00,1.22,6.20,6.20,4.10,1.28,8407,2022-10-02 10:35:40.058,2022-10-02 11:35:40.058,18,0,0,14.629,55.952636,-4.403309,0.00,0.00,0.00,-5.70,-0.30,-105.40,0,1,0,24,100,-6960,826,14629,3106.50,9,P-GPS,1,0,0,0,0,0,0,1664706940058,3672,3671,3668,3649,0,0,27,,,,,,,0,0,0,57.00,-3.00,-1054.00,-563.00,0.00,-1093.00,6,60.00,0.00,12.16,0.00,0.00,0.00,0,,,100,100,0,2,0,0,0,2,0,,,,,0.0,0.0,0.0,0.0,0.0,0.0,0
55.952636,-4.403290,6.00,5.80,0.00,1.22,6.20,6.20,4.10,1.28,8509,2022-10-02 10:35:40.160,2022-10-02 11:35:40.160,18,0,0,14.629,55.952636,-4.403309,0.00,0.00,0.00,-6.20,-0.30,-105.50,0,1,0,24,100,-6960,826,14629,3106.50,9,P-GPS,1,0,0,0,0,0,0,1664706940160,3672,3671,3668,3649,0,0,27,,,,,,,0,0,0,62.00,-3.00,-1055.00,-565.00,0.00,-1093.00,6,60.00,0.00,12.15,0.00,0.00,0.00,0,,,100,100,0,2,0,0,0,2,0,,,,,0.0,0.0,0.0,0.0,0.0,0.0,0
55.952636,-4.403290,6.00,5.80,0.00,1.20,6.20,6.20,4.10,1.28,8604,2022-10-02 10:35:40.255,2022-10-02 11:35:40.255,18,0,0,14.629,55.952636,-4.403309,0.00,0.00,0.00,-5.90,0.00,-105.40,0,1,0,24,100,-6960,826,14629,3106.50,9,P-GPS,1,0,0,0,0,-235,0,1664706940255,3672,3671,3668,3649,0,0,27,,,,,,,0,0,0,59.00,0.00,-1054.00,-565.00,0.00,-1093.00,6,60.00,0.00,12.02,0.00,0.00,0.00,0,,,100,100,0,2,0,0,0,2,0,,,,,0.0,0.0,0.0,0.0,0.0,0.0,0
55.952636,-4.403290,6.00,5.70,0.00,1.20,6.20,6.20,4.10,1.28,8711,2022-10-02 10:35:40.362,2022-10-02 11:35:40.362,18,0,0,14.629,55.952636,-4.403309,0.00,0.00,0.00,-6.30,0.00,-105.90,0,1,0,24,100,-6960,826,14629,3106.50,9,P-GPS,1,0,0,0,0,-268,0,1664706940362,3672,3671,3668,3649,0,0,27,,,,,,,0,0,0,63.00,0.00,-1059.00,-565.00,0.00,-1094.00,6,60.00,0.00,12.01,0.00,0.00,0.00,0,,,100,100,0,2,0,0,0,2,0,,,,,0.0,0.0,0.0,0.0,0.0,0.0,0
55.952636,-4.403290,6.00,5.70,0.00,1.21,6.20,6.20,4.10,1.28,8809,2022-10-02 10:35:40.460,2022-10-02 11:35:40.460,18,0,0,14.629,55.952636,-4.403309,0.00,0.00,0.00,-6.60,0.20,-106.80,0,1,0,24,100,-6960,826,14629,3106.50,9,P-GPS,1,0,0,0,0,-428,0,1664706940460,3672,3671,3668,3649,0,0,27,,,,,,,0,0,0,66.00,2.00,-1068.00,-565.00,0.00,-1098.00,6,60.00,0.00,12.11,0.00,0.00,0.00,0,,,100,100,0,2,0,0,0,2,0,,,,,0.0,0.0,0.0,0.0,0.0,0.0,0
55.952636,-4.403290,6.00,5.70,0.00,1.21,6.20,6.20,4.10,1.28,8904,2022-10-02 10:35:40.556,2022-10-02 11:35:40.555,18,0,0,14.620,55.952636,-4.403309,0.00,0.00,0.00,-6.70,0.50,-108.50,0,1,0,24,100,-6864,824,14620,3106.50,9,P-GPS,1,0,0,0,0,-367,0,1664706940555,3672,3671,3668,3649,0,0,27,,,,,,,0,0,0,67.00,5.00,-1085.00,-565.00,0.00,-1110.00,6,60.00,0.00,12.13,0.00,0.00,0.00,0,,,100,100,0,2,0,0,0,2,0,,,,,0.0,0.0,0.0,0.0,0.0,0.0,0
55.952636,-4.403290,5.90,5.70,0.00,1.22,6.20,6.20,4.10,1.28,9006,2022-10-02 10:35:40.658,2022-10-02 11:35:40.657,18,0,0,14.620,55.952636,-4.403309,0.00,0.00,0.00,-6.50,0.90,-110.20,0,1,0,24,100,-6864,824,14620,3106.50,9,P-GPS,1,0,0,0,0,-488,0,1664706940657,3672,3671,3668,3649,0,0,27,,,,,,,0,0,0,65.00,9.00,-1102.00,-565.00,0.00,-1129.00,6,59.00,0.00,12.16,0.00,0.00,0.00,0,,,100,100,0,2,0,0,0,2,0,,,,,0.0,0.0,0.0,0.0,0.0,0.0,0
55.952636,-4.403290,5.90,5.70,0.00,1.22,6.20,6.20,4.10,1.28,9110,2022-10-02 10:35:40.761,2022-10-02 11:35:40.761,18,0,0,14.620,55.952636,-4.403309,0.00,0.00,0.00,-6.60,1.10,-112.70,0,1,0,24,100,-6864,824,14620,3106.50,9,P-GPS,1,0,0,0,0,-333,0,1664706940761,3672,3671,3668,3649,0,0,27,,,,,,,0,0,0,66.00,11.00,-1127.00,-565.00,0.00,-1147.00,6,59.00,0.00,12.19,0.00,0.00,0.00,0,,,100,100,0,2,0,0,0,2,0,,,,,0.0,0.0,0.0,0.0,0.0,0.0,0
55.952635,-4.403290,5.90,5.70,0.00,1.22,6.20,6.20,4.10,1.28,9203,2022-10-02 10:35:40.854,2022-10-02 11:35:40.854,18,0,0,14.620,55.952636,-4.403309,0.00,0.00,0.00,-6.60,1.40,-113.70,0,1,0,24,100,-6864,824,14620,3106.50,9,P-GPS,1,0,0,0,0,-28,0,1664706940854,3672,3671,3668,3649,0,0,27,,,,,,,0,0,0,66.00,14.00,-1137.00,-565.00,0.00,-1175.00,6,59.00,0.00,12.20,0.00,0.00,0.00,0,,,100,100,0,2,0,0,0,2,0,,,,,0.0,0.0,0.0,0.0,0.0,0.0,0
55.952635,-4.403290,5.90,5.70,0.00,1.22,6.20,6.20,4.10,1.28,9303,2022-10-02 10:35:40.955,2022-10-02 11:35:40.955,18,0,0,14.620,55.952636,-4.403309,0.00,0.00,0.00,-6.60,1.60,-114.20,0,1,0,24,100,-6864,824,14620,3106.50,9,P-GPS,1,0,0,0,0,0,0,1664706940954,3672,3671,3668,3649,0,0,27,,,,,,,0,0,0,66.00,16.00,-1142.00,-565.00,0.00,-1184.00,6,59.00,0.00,12.25,0.00,0.00,0.00,0,,,100,100,0,2,0,0,0,2,0,,,,,0.0,0.0,0.0,0.0,0.0,0.0,0
55.952635,-4.403290,5.90,5.70,0.00,1.22,6.20,6.20,4.10,1.28,9405,2022-10-02 10:35:41.056,2022-10-02 11:35:41.056,18,0,0,14.620,55.952636,-4.403309,0.00,0.00,0.00,-6.50,1.70,-114.50,0,1,0,24,100,-6864,824,14620,3106.50,9,P-GPS,1,0,0,0,0,0,0,1664706941056,3672,3671,3668,3649,0,0,27,,,,,,,0,0,0,65.00,17.00,-1145.00,-565.00,0.00,-1185.00,6,59.00,0.00,12.23,0.00,0.00,0.00,0,,,100,100,0,2,0,0,0,2,0,,,,,0.0,0.0,0.0,0.0,0.0,0.0,0
55.952635,-4.403290,5.90,5.70,0.00,1.23,6.20,6.20,4.10,1.28,9500,2022-10-02 10:35:41.151,2022-10-02 11:35:41.151,18,0,0,14.620,55.952636,-4.403309,0.00,0.00,0.00,-7.10,0.40,-114.60,0,1,0,24,100,-6864,824,14620,3106.50,9,P-GPS,1,0,0,0,0,0,0,1664706941151,3672,3671,3668,3649,0,0,27,,,,,,,0,0,0,71.00,4.00,-1146.00,-565.00,0.00,-1185.00,6,59.00,0.00,12.27,0.00,0.00,0.00,0,,,100,100,0,2,0,0,0,2,0,,,,,0.0,0.0,0.0,0.0,0.0,0.0,0
55.952635,-4.403290,5.90,5.70,0.10,1.24,6.20,6.20,4.10,1.28,9614,2022-10-02 10:35:41.266,2022-10-02 11:35:41.265,18,0,0,14.620,55.952636,-4.403309,-0.10,0.00,0.00,-6.20,1.40,-114.60,0,1,0,24,100,-6864,824,14620,3106.50,9,P-GPS,1,0,0,0,0,0,0,1664706941265,3672,3671,3668,3649,0,0,27,,,,,,,0,0,0,62.00,14.00,-1146.00,-565.00,0.00,-1185.00,6,59.00,1.00,12.39,-1.00,0.00,0.00,0,,,100,100,0,2,0,0,0,2,0,,,,,0.0,0.0,0.0,0.0,0.0,0.0,0
55.952635,-4.403289,5.90,5.70,0.10,1.24,6.20,6.20,4.10,1.28,9703,2022-10-02 10:35:41.355,2022-10-02 11:35:41.354,18,0,0,14.620,55.952636,-4.403309,-0.10,0.00,0.00,-4.90,3.20,-114.30,0,1,0,24,100,-6864,824,14620,3106.50,9,P-GPS,1,0,0,0,0,33,0,1664706941354,3672,3671,3668,3649,0,0,27,,,,,,,0,0,0,49.00,32.00,-1143.00,-565.00,0.00,-1185.00,6,59.00,1.00,12.43,-1.00,0.00,0.00,0,,,100,100,0,2,0,0,0,2,0,,,,,0.0,0.0,0.0,0.0,0.0,0.0,0
55.952635,-4.403289,5.90,5.70,0.00,1.25,6.20,6.20,4.10,1.28,9809,2022-10-02 10:35:41.461,2022-10-02 11:35:41.460,18,0,0,14.620,55.952636,-4.403309,0.00,0.00,0.00,-4.50,3.00,-114.30,0,1,0,24,100,-6864,824,14620,3106.50,9,P-GPS,1,0,0,0,0,18,0,1664706941460,3672,3671,3668,3649,0,0,27,,,,,,,0,0,0,45.00,30.00,-1143.00,-565.00,0.00,-1185.00,6,59.00,0.00,12.49,0.00,0.00,0.00,0,,,100,100,0,2,0,0,0,2,0,,,,,0.0,0.0,0.0,0.0,0.0,0.0,0
55.952635,-4.403289,5.90,5.70,0.00,1.25,6.20,6.20,4.10,1.28,9907,2022-10-02 10:35:41.558,2022-10-02 11:35:41.558,18,0,0,14.620,55.952636,-4.403309,0.00,0.00,0.00,-4.70,2.30,-114.20,0,1,0,24,100,-6864,824,14620,3106.50,9,P-GPS,1,0,0,0,0,0,0,1664706941558,3672,3671,3668,3649,0,0,27,,,,,,,0,0,0,47.00,23.00,-1142.00,-565.00,0.00,-1184.00,6,59.00,0.00,12.52,0.00,0.00,0.00,0,,,100,100,0,2,0,0,0,2,0,,,,,0.0,0.0,0.0,0.0,0.0,0.0,0
55.952635,-4.403289,5.90,5.70,0.00,1.26,6.20,6.20,4.10,1.28,10001,2022-10-02 10:35:41.652,2022-10-02 11:35:41.652,18,0,0,14.620,55.952636,-4.403309,0.00,0.00,0.00,-4.80,1.50,-114.20,0,1,0,24,100,-6864,824,14620,3106.50,9,P-GPS,1,0,0,0,0,0,0,1664706941652,3672,3671,3668,3649,0,0,27,,,,,,,0,0,0,48.00,15.00,-1142.00,-565.00,0.00,-1184.00,6,59.00,0.00,12.61,0.00,0.00,0.00,0,,,100,100,0,2,0,0,0,2,0,,,,,0.0,0.0,0.0,0.0,0.0,0.0,0
55.952635,-4.403289,5.90,5.70,0.00,1.26,6.20,6.20,4.10,1.28,10111,2022-10-02 10:35:41.763,2022-10-02 11:35:41.762,18,0,0,14.620,55.952636,-4.403309,0.00,0.00,0.00,-5.20,0.70,-114.30,0,1,0,24,100,-6864,824,14620,3106.50,9,P-GPS,1,0,0,0,0,0,0,1664706941762,3672,3671,3668,3649,0,0,27,,,,,,,0,0,0,52.00,7.00,-1143.00,-565.00,0.00,-1184.00,6,59.00,0.00,12.63,0.00,0.00,0.00,0,,,100,100,0,2,0,0,0,2,0,,,,,0.0,0.0,0.0,0.0,0.0,0.0,0
55.952635,-4.403289,5.90,5.70,0.00,1.25,6.20,6.20,4.10,1.28,10202,2022-10-02 10:35:41.853,2022-10-02 11:35:41.853,18,0,0,14.620,55.952636,-4.403309,0.00,0.00,0.00,-5.00,1.20,-114.20,0,1,0,24,100,-6864,824,14620,3106.50,9,P-GPS,1,0,0,0,0,0,0,1664706941853,3672,3671,3668,3649,0,0,27,,,,,,,0,0,0,50.00,12.00,-1142.00,-565.00,0.00,-1184.00,6,59.00,0.00,12.53,0.00,0.00,0.00,0,,,100,100,0,2,0,0,0,2,0,,,,,0.0,0.0,0.0,0.0,0.0,0.0,0
55.952635,-4.403289,5.90,5.70,0.00,1.25,6.20,6.20,4.10,1.28,10313,2022-10-02 10:35:41.965,2022-10-02 11:35:41.964,18,0,0,14.620,55.952636,-4.403309,0.00,0.00,0.00,-5.60,1.00,-114.30,0,1,0,24,100,-6864,824,14620,3106.50,9,P-GPS,1,0,0,0,0,0,0,1664706941964,3672,3671,3668,3649,0,0,27,,,,,,,0,0,0,56.00,10.00,-1143.00,-565.00,0.00,-1184.00,6,59.00,0.00,12.53,0.00,0.00,0.00,0,,,100,100,0,2,0,0,0,2,0,,,,,0.0,0.0,0.0,0.0,0.0,0.0,0
55.952635,-4.403289,5.90,5.60,0.00,1.26,6.20,6.20,4.10,1.28,10405,2022-10-02 10:35:42.057,2022-10-02 11:35:42.056,18,0,0,14.620,55.952636,-4.403309,0.00,0.00,0.00,-4.70,0.90,-114.50,0,1,0,24,100,-6864,824,14620,3106.50,9,P-GPS,1,0,0,0,0,0,0,1664706942056,3672,3671,3668,3649,0,0,27,,,,,,,0,0,0,47.00,9.00,-1145.00,-565.00,0.00,-1184.00,6,59.00,0.00,12.60,0.00,0.00,0.00,0,,,100,100,0,2,0,0,0,2,0,,,,,0.0,0.0,0.0,0.0,0.0,0.0,0
55.952634,-4.403289,5.90,5.60,0.00,1.26,6.20,6.20,4.10,1.28,10512,2022-10-02 10:35:42.163,2022-10-02 11:35:42.163,18,0,0,14.620,55.952636,-4.403309,0.00,0.00,0.00,-3.80,1.20,-114.40,0,1,0,24,100,-6864,824,14620,3106.50,9,P-GPS,1,0,0,0,0,0,0,1664706942163,3672,3671,3668,3649,0,0,27,,,,,,,0,0,0,38.00,12.00,-1144.00,-565.00,0.00,-1184.00,6,59.00,0.00,12.60,0.00,0.00,0.00,0,,,100,100,0,2,0,0,0,2,0,,,,,0.0,0.0,0.0,0.0,0.0,0.0,0
55.952635,-4.403289,5.90,5.60,0.00,1.26,6.20,6.20,4.10,1.28,10605,2022-10-02 10:35:42.257,2022-10-02 11:35:42.256,18,0,0,14.620,55.952636,-4.403309,0.00,0.00,0.00,-3.50,0.80,-114.40,0,1,0,24,100,-6864,824,14620,3106.50,9,P-GPS,1,0,0,0,0,0,0,1664706942256,3672,3671,3668,3649,0,0,27,,,,,,,0,0,0,35.00,8.00,-1144.00,-565.00,0.00,-1184.00,6,59.00,0.00,12.59,0.00,0.00,0.00,0,,,100,100,0,2,0,0,0,2,0,,,,,0.0,0.0,0.0,0.0,0.0,0.0,0
55.952634,-4.403289,5.90,5.60,0.00,1.26,6.20,6.20,4.10,1.28,10706,2022-10-02 10:35:42.358,2022-10-02 11:35:42.357,18,0,0,14.620,55.952636,-4.403309,0.00,0.00,0.00,-3.60,0.80,-114.60,0,1,0,24,100,-6864,824,14620,3106.50,9,P-GPS,1,0,0,0,0,0,0,1664706942357,3672,3671,3668,3649,0,0,27,,,,,,,0,0,0,36.00,8.00,-1146.00,-565.00,0.00,-1184.00,6,59.00,0.00,12.58,0.00,0.00,0.00,0,,,100,100,0,2,0,0,0,2,0,,,,,0.0,0.0,0.0,0.0,0.0,0.0,0
55.952634,-4.403289,5.80,5.60,0.00,1.26,6.20,6.20,4.10,1.28,10808,2022-10-02 10:35:42.460,2022-10-02 11:35:42.460,18,0,0,14.620,55.952636,-4.403309,0.00,0.00,0.00,-4.00,1.30,-114.40,0,1,0,24,100,-6864,824,14620,3106.50,9,P-GPS,1,0,0,0,0,0,0,1664706942459,3672,3671,3668,3649,0,0,27,,,,,,,0,0,0,40.00,13.00,-1144.00,-565.00,0.00,-1184.00,6,58.00,0.00,12.57,0.00,0.00,0.00,0,,,100,100,0,2,0,0,0,2,0,,,,,0.0,0.0,0.0,0.0,0.0,0.0,0
55.952634,-4.403289,5.80,5.60,0.00,1.26,6.20,6.20,4.10,1.28,10907,2022-10-02 10:35:42.559,2022-10-02 11:35:42.558,18,0,0,14.609,55.952636,-4.403309,0.00,0.00,0.00,-4.50,1.00,-114.30,0,1,0,24,100,-6995,822,14609,3106.50,9,P-GPS,1,0,0,0,0,0,0,1664706942558,3672,3671,3668,3649,0,0,27,,,,,,,0,0,0,45.00,10.00,-1143.00,-565.00,0.00,-1184.00,6,58.00,0.00,12.57,0.00,0.00,0.00,0,,,100,100,0,2,0,0,0,2,0,,,,,0.0,0.0,0.0,0.0,0.0,0.0,0
55.952634,-4.403289,5.80,5.60,0.00,1.26,6.20,6.20,4.10,1.28,11004,2022-10-02 10:35:42.656,2022-10-02 11:35:42.655,18,0,0,14.609,55.952636,-4.403309,0.00,0.00,0.00,-5.40,0.90,-114.20,0,1,0,24,100,-6995,822,14609,3106.50,9,P-GPS,1,0,0,0,0,0,0,1664706942655,3672,3671,3668,3649,0,0,27,,,,,,,0,0,0,54.00,9.00,-1142.00,-565.00,0.00,-1184.00,6,58.00,0.00,12.60,0.00,0.00,0.00,0,,,100,100,0,2,0,0,0,2,0,,,,,0.0,0.0,0.0,0.0,0.0,0.0,0
55.952634,-4.403289,5.80,5.60,0.00,1.26,6.20,6.20,4.10,1.28,11100,2022-10-02 10:35:42.752,2022-10-02 11:35:42.751,18,0,0,14.609,55.952636,-4.403309,0.00,0.00,0.00,-5.90,0.50,-114.30,0,1,0,24,100,-6995,822,14609,3106.50,9,P-GPS,1,0,0,0,0,0,0,1664706942751,3672,3671,3668,3649,0,0,27,,,,,,,0,0,0,59.00,5.00,-1143.00,-565.00,0.00,-1184.00,6,58.00,0.00,12.61,0.00,0.00,0.00,0,,,100,100,0,2,0,0,0,2,0,,,,,0.0,0.0,0.0,0.0,0.0,0.0,0
55.952634,-4.403289,5.80,5.60,0.00,1.26,6.20,6.20,4.10,1.28,11204,2022-10-02 10:35:42.856,2022-10-02 11:35:42.856,18,0,0,14.609,55.952636,-4.403309,0.00,0.00,0.00,-4.30,1.60,-114.10,0,1,0,24,100,-6995,822,14609,3106.50,9,P-GPS,1,0,0,0,0,0,0,1664706942855,3672,3671,3668,3649,0,0,27,,,,,,,0,0,0,43.00,16.00,-1141.00,-565.00,0.00,-1184.00,6,58.00,0.00,12.62,0.00,0.00,0.00,0,,,100,100,0,2,0,0,0,2,0,,,,,0.0,0.0,0.0,0.0,0.0,0.0,0
55.952634,-4.403289,5.80,5.60,0.00,1.26,6.20,6.20,4.10,1.28,11302,2022-10-02 10:35:42.954,2022-10-02 11:35:42.953,18,0,0,14.609,55.952636,-4.403309,0.00,0.00,0.00,-3.20,2.00,-114.10,0,1,0,24,100,-6995,822,14609,3106.50,9,P-GPS,1,0,0,0,0,0,0,1664706942953,3672,3671,3668,3649,0,0,27,,,,,,,0,0,0,32.00,20.00,-1141.00,-565.00,0.00,-1184.00,6,58.00,0.00,12.63,0.00,0.00,0.00,0,,,100,100,0,2,0,0,0,2,0,,,,,0.0,0.0,0.0,0.0,0.0,0.0,0
55.952634,-4.403289,5.80,5.60,0.10,1.27,6.20,6.20,4.10,1.28,11404,2022-10-02 10:35:43.055,2022-10-02 11:35:43.055,18,0,0,14.609,55.952636,-4.403309,0.00,0.00,-0.10,-3.20,2.10,-114.10,0,1,0,24,100,-6995,822,14609,3106.50,9,P-GPS,1,0,0,0,0,0,0,1664706943055,3672,3671,3668,3649,0,0,27,,,,,,,0,0,0,32.00,21.00,-1141.00,-565.00,0.00,-1184.00,6,58.00,1.00,12.74,0.00,0.00,-1.00,0,,,100,100,0,2,0,0,0,2,0,,,,,0.0,0.0,0.0,0.0,0.0,0.0,0
55.952634,-4.403289,5.80,5.60,0.00,1.28,6.20,6.20,4.10,1.28,11506,2022-10-02 10:35:43.158,2022-10-02 11:35:43.158,18,0,0,14.609,55.952636,-4.403309,0.00,0.00,0.00,-4.70,1.20,-114.30,0,1,0,24,100,-6995,822,14609,3106.50,9,P-GPS,1,0,0,0,0,0,0,1664706943157,3672,3671,3668,3649,0,0,27,,,,,,,0,0,0,47.00,12.00,-1143.00,-565.00,0.00,-1184.00,6,58.00,0.00,12.77,0.00,0.00,0.00,0,,,100,100,0,2,0,0,0,2,0,,,,,0.0,0.0,0.0,0.0,0.0,0.0,0
55.952634,-4.403289,5.80,5.60,0.00,1.27,6.20,6.20,4.10,1.28,11611,2022-10-02 10:35:43.263,2022-10-02 11:35:43.262,18,0,0,14.609,55.952636,-4.403309,0.00,0.00,0.00,-5.50,0.60,-114.40,0,1,0,24,100,-6995,822,14609,3106.50,9,P-GPS,1,0,0,0,0,0,0,1664706943262,3672,3671,3668,3649,0,0,27,,,,,,,0,0,0,55.00,6.00,-1144.00,-565.00,0.00,-1184.00,6,58.00,0.00,12.74,0.00,0.00,0.00,0,,,100,100,0,2,0,0,0,2,0,,,,,0.0,0.0,0.0,0.0,0.0,0.0,0
55.952634,-4.403289,5.80,5.60,0.10,1.28,6.20,6.20,4.10,1.28,11707,2022-10-02 10:35:43.359,2022-10-02 11:35:43.358,18,0,0,14.609,55.952636,-4.403309,-0.10,0.00,0.00,-5.40,1.30,-114.50,0,1,0,24,100,-6995,822,14609,3106.50,9,P-GPS,1,0,0,0,0,0,0,1664706943358,3672,3671,3668,3649,0,0,27,,,,,,,0,0,0,54.00,13.00,-1145.00,-565.00,0.00,-1184.00,6,58.00,1.00,12.78,-1.00,0.00,0.00,0,,,100,100,0,2,0,0,0,2,0,,,,,0.0,0.0,0.0,0.0,0.0,0.0,0
55.952634,-4.403289,5.80,5.60,0.10,1.29,6.20,6.20,4.10,1.29,11806,2022-10-02 10:35:43.458,2022-10-02 11:35:43.457,18,0,0,14.609,55.952636,-4.403309,-0.10,0.00,0.00,-4.40,2.10,-114.50,0,1,0,24,100,-6995,822,14609,3106.50,9,P-GPS,1,0,0,0,0,0,0,1664706943457,3672,3671,3668,3649,0,0,27,,,,,,,0,0,0,44.00,21.00,-1145.00,-565.00,0.00,-1184.00,6,58.00,1.00,12.90,-1.00,0.00,0.00,0,,,100,100,0,2,0,0,0,2,0,,,,,0.0,0.0,0.0,0.0,0.0,0.0,0
55.952634,-4.403289,5.80,5.60,0.14,1.30,6.20,6.20,4.10,1.30,11904,2022-10-02 10:35:43.555,2022-10-02 11:35:43.555,18,0,0,14.616,55.952636,-4.403309,-0.10,0.00,-0.10,-2.90,3.30,-114.40,0,1,0,24,100,-6893,820,14616,3106.50,9,P-GPS,1,0,0,0,0,0,0,1664706943555,3672,3671,3668,3649,0,0,27,,,,,,,0,0,0,29.00,33.00,-1144.00,-565.00,0.00,-1184.00,6,58.00,1.41,12.97,-1.00,0.00,-1.00,0,,,100,100,0,2,0,0,0,2,0,,,,,0.0,0.0,0.0,0.0,0.0,0.0,0
55.952634,-4.403289,5.80,5.60,0.00,1.30,6.20,6.20,4.10,1.30,12001,2022-10-02 10:35:43.654,2022-10-02 11:35:43.653,18,0,0,14.616,55.952636,-4.403309,0.00,0.00,0.00,-3.20,3.20,-114.30,0,1,0,24,100,-6893,820,14616,3106.50,9,P-GPS,1,0,0,0,0,0,0,1664706943652,3672,3671,3668,3649,0,0,27,,,,,,,0,0,0,32.00,32.00,-1143.00,-565.00,0.00,-1184.00,6,58.00,0.00,13.04,0.00,0.00,0.00,0,,,100,100,0,2,0,0,0,2,0,,,,,0.0,0.0,0.0,0.0,0.0,0.0,0
55.952634,-4.403289,5.80,5.60,0.00,1.31,6.20,6.20,4.10,1.31,12104,2022-10-02 10:35:43.755,2022-10-02 11:35:43.755,18,0,0,14.616,55.952636,-4.403309,0.00,0.00,0.00,-3.30,2.60,-114.40,0,1,0,24,100,-6893,820,14616,3106.50,9,P-GPS,1,0,0,0,0,0,0,1664706943755,3672,3671,3668,3649,0,0,27,,,,,,,0,0,0,33.00,26.00,-1144.00,-565.00,0.00,-1184.00,6,58.00,0.00,13.13,0.00,0.00,0.00,0,,,100,100,0,2,0,0,0,2,0,,,,,0.0,0.0,0.0,0.0,0.0,0.0,0
55.952634,-4.403288,5.80,5.60,0.00,1.32,6.20,6.20,4.10,1.32,12201,2022-10-02 10:35:43.853,2022-10-02 11:35:43.853,18,0,0,14.616,55.952636,-4.403309,0.00,0.00,0.00,-3.40,2.30,-114.40,0,1,0,24,100,-6893,820,14616,3106.50,9,P-GPS,1,0,0,0,0,0,0,1664706943852,3672,3671,3668,3649,0,0,27,,,,,,,0,0,0,34.00,23.00,-1144.00,-565.00,0.00,-1184.00,6,58.00,0.00,13.19,0.00,0.00,0.00,0,,,100,100,0,2,0,0,0,2,0,,,,,0.0,0.0,0.0,0.0,0.0,0.0,0
55.952634,-4.403288,5.80,5.60,0.00,1.33,6.20,6.20,4.10,1.33,12302,2022-10-02 10:35:43.953,2022-10-02 11:35:43.953,18,0,0,14.616,55.952636,-4.403309,0.00,0.00,0.00,-4.10,2.00,-114.50,0,1,1,24,100,-6893,820,14616,3106.50,9,P-GPS,1,0,0,0,0,0,0,1664706943953,3672,3671,3668,3649,0,0,27,,,,,,,0,0,0,41.00,20.00,-1145.00,-565.00,0.00,-1184.00,6,58.00,0.00,13.28,0.00,0.00,0.00,0,,,100,100,0,2,0,0,0,2,0,,,,,0.0,0.0,0.0,0.0,0.0,0.0,0
55.952634,-4.403288,5.80,5.60,0.00,1.34,6.20,6.20,4.10,1.34,12404,2022-10-02 10:35:44.055,2022-10-02 11:35:44.055,18,0,0,14.616,55.952636,-4.403309,0.00,0.00,0.00,-5.50,1.10,-114.50,0,1,1,24,100,-6893,820,14616,3106.50,9,P-GPS,1,0,0,0,0,0,0,1664706944055,3672,3671,3668,3649,0,0,27,,,,,,,0,0,0,55.00,11.00,-1145.00,-565.00,0.00,-1184.00,6,58.00,0.00,13.40,0.00,0.00,0.00,0,,,100,100,0,2,0,0,0,2,0,,,,,0.0,0.0,0.0,0.0,0.0,0.0,0
55.952634,-4.403288,5.80,5.60,0.00,1.35,6.20,6.20,4.10,1.35,12501,2022-10-02 10:35:44.153,2022-10-02 11:35:44.152,18,0,0,14.616,55.952636,-4.403309,0.00,0.00,0.00,-6.40,0.50,-114.50,0,1,1,24,100,-6893,820,14616,3106.50,9,P-GPS,1,0,0,0,0,0,0,1664706944152,3672,3671,3668,3649,0,0,27,,,,,,,0,0,0,64.00,5.00,-1145.00,-565.00,0.00,-1184.00,6,58.00,0.00,13.50,0.00,0.00,0.00,0,,,100,100,0,2,0,0,0,2,0,,,,,0.0,0.0,0.0,0.0,0.0,0.0,0
55.952634,-4.403288,5.80,5.50,0.00,1.36,6.20,6.20,4.10,1.36,12601,2022-10-02 10:35:44.253,2022-10-02 11:35:44.252,18,0,0,14.616,55.952636,-4.403309,0.00,0.00,0.00,-6.90,0.10,-114.60,0,1,1,24,100,-6893,820,14616,3106.50,9,P-GPS,1,0,0,0,0,0,0,1664706944252,3672,3671,3668,3649,0,0,27,,,,,,,0,0,0,69.00,1.00,-1146.00,-565.00,0.00,-1184.00,6,58.00,0.00,13.58,0.00,0.00,0.00,0,,,100,100,0,2,0,0,0,2,0,,,,,0.0,0.0,0.0,0.0,0.0,0.0,0
55.952634,-4.403288,5.80,5.50,0.10,1.37,6.20,6.20,4.10,1.37,12702,2022-10-02 10:35:44.354,2022-10-02 11:35:44.353,18,0,0,14.616,55.952636,-4.403309,0.00,0.00,-0.10,-6.20,0.70,-114.50,0,1,1,24,100,-6893,820,14616,3106.50,9,P-GPS,1,0,0,0,0,0,0,1664706944353,3672,3671,3668,3649,0,0,27,,,,,,,0,0,0,62.00,7.00,-1145.00,-565.00,0.00,-1184.00,6,58.00,1.00,13.68,0.00,0.00,-1.00,0,,,100,100,0,2,0,0,0,2,0,,,,,0.0,0.0,0.0,0.0,0.0,0.0,0
55.952634,-4.403287,5.80,5.60,0.10,1.38,6.20,6.20,4.10,1.38,12803,2022-10-02 10:35:44.454,2022-10-02 11:35:44.454,18,0,0,14.616,55.952636,-4.403309,0.00,0.00,-0.10,-6.60,1.10,-114.40,0,1,1,24,100,-6893,820,14616,3106.50,9,P-GPS,1,0,0,0,0,0,0,1664706944454,3672,3671,3668,3649,0,0,27,,,,,,,0,0,0,66.00,11.00,-1144.00,-565.00,0.00,-1184.00,6,58.00,1.00,13.83,0.00,0.00,-1.00,0,,,100,100,0,2,0,0,0,2,0,,,,,0.0,0.0,0.0,0.0,0.0,0.0,0
55.952634,-4.403287,5.80,5.60,0.10,1.39,6.20,6.20,4.10,1.39,12901,2022-10-02 10:35:44.552,2022-10-02 11:35:44.552,18,0,0,14.609,55.952636,-4.403309,0.00,0.00,-0.10,-6.50,1.20,-114.50,0,1,1,24,100,-6843,818,14609,3107.50,9,P-GPS,1,0,0,0,0,0,0,1664706944552,3672,3671,3668,3649,0,0,27,,,,,,,0,0,0,65.00,12.00,-1145.00,-565.00,0.00,-1184.00,6,58.00,1.00,13.92,0.00,0.00,-1.00,0,,,100,100,0,2,0,0,0,2,0,,,,,0.0,0.0,0.0,0.0,0.0,0.0,0
55.952634,-4.403287,5.80,5.60,0.10,1.41,6.20,6.20,4.10,1.41,13003,2022-10-02 10:35:44.654,2022-10-02 11:35:44.654,18,0,0,14.609,55.952636,-4.403309,0.00,0.00,-0.10,-6.30,1.90,-114.50,0,1,1,24,100,-6843,818,14609,3107.50,9,P-GPS,1,0,0,0,0,0,0,1664706944654,3661,3658,3653,3632,0,0,27,,,,,,,0,0,0,63.00,19.00,-1145.00,-565.00,0.00,-1184.00,6,58.00,1.00,14.05,0.00,0.00,-1.00,0,,,100,100,0,2,0,0,0,2,0,,,,,0.0,0.0,0.0,0.0,0.0,0.0,0
55.952634,-4.403287,5.80,5.60,0.10,1.41,6.20,6.20,4.10,1.41,13101,2022-10-02 10:35:44.753,2022-10-02 11:35:44.752,18,0,0,14.609,55.952636,-4.403309,0.00,0.00,-0.10,-6.00,2.10,-114.50,0,1,1,24,100,-6843,818,14609,3107.50,9,P-GPS,1,0,0,0,0,0,0,1664706944752,3661,3658,3653,3632,0,0,27,,,,,,,0,0,0,60.00,21.00,-1145.00,-565.00,0.00,-1184.00,6,58.00,1.00,14.15,0.00,0.00,-1.00,0,,,100,100,0,2,0,0,0,2,0,,,,,0.0,0.0,0.0,0.0,0.0,0.0,0
55.952634,-4.403287,5.80,5.60,0.10,1.43,6.20,6.20,4.10,1.43,13204,2022-10-02 10:35:44.855,2022-10-02 11:35:44.855,18,0,0,14.609,55.952636,-4.403309,0.00,0.00,-0.10,-5.80,2.30,-114.50,0,1,1,24,100,-6843,818,14609,3107.50,9,P-GPS,1,0,0,0,0,0,0,1664706944855,3661,3658,3653,3632,0,0,27,,,,,,,0,0,0,58.00,23.00,-1145.00,-565.00,0.00,-1184.00,6,58.00,1.00,14.29,0.00,0.00,-1.00,0,,,100,100,0,2,0,0,0,2,0,,,,,0.0,0.0,0.0,0.0,0.0,0.0,0
55.952634,-4.403286,5.80,5.60,0.00,1.44,6.20,6.20,4.10,1.44,13302,2022-10-02 10:35:44.953,2022-10-02 11:35:44.953,18,0,0,14.609,55.952636,-4.403309,0.00,0.00,0.00,-5.80,2.20,-114.50,0,1,1,24,100,-6843,818,14609,3107.50,9,P-GPS,1,0,0,0,0,0,0,1664706944953,3661,3658,3653,3632,0,0,27,,,,,,,0,0,0,58.00,22.00,-1145.00,-565.00,0.00,-1184.00,6,58.00,0.00,14.38,0.00,0.00,0.00,0,,,100,100,0,2,0,0,0,2,0,,,,,0.0,0.0,0.0,0.0,0.0,0.0,0
55.952634,-4.403286,5.80,5.60,0.00,1.45,6.20,6.20,4.10,1.45,13407,2022-10-02 10:35:45.059,2022-10-02 11:35:45.058,18,0,0,14.609,55.952636,-4.403309,0.00,0.00,0.00,-5.20,2.20,-114.50,0,1,1,24,100,-6843,818,14609,3107.50,9,P-GPS,1,0,0,0,0,0,0,1664706945058,3661,3658,3653,3632,0,0,27,,,,,,,0,0,0,52.00,22.00,-1145.00,-565.00,0.00,-1184.00,6,58.00,0.00,14.46,0.00,0.00,0.00,0,,,100,100,0,2,0,0,0,2,0,,,,,0.0,0.0,0.0,0.0,0.0,0.0,0
55.952634,-4.403286,5.80,5.60,0.00,1.45,6.20,6.20,4.10,1.45,13505,2022-10-02 10:35:45.157,2022-10-02 11:35:45.156,18,0,0,14.609,55.952636,-4.403309,0.00,0.00,0.00,-5.60,2.40,-114.50,0,1,1,24,100,-6843,818,14609,3107.50,9,P-GPS,1,0,0,0,0,0,0,1664706945156,3661,3658,3653,3632,0,0,27,,,,,,,0,0,0,56.00,24.00,-1145.00,-565.00,0.00,-1184.00,6,58.00,0.00,14.55,0.00,0.00,0.00,0,,,100,100,0,2,0,0,0,2,0,,,,,0.0,0.0,0.0,0.0,0.0,0.0,0
55.952634,-4.403286,5.80,5.60,0.00,1.47,6.20,6.20,4.10,1.47,13603,2022-10-02 10:35:45.254,2022-10-02 11:35:45.254,18,0,0,14.609,55.952636,-4.403309,0.00,0.00,0.00,-6.10,1.80,-114.60,0,1,1,24,100,-6843,818,14609,3107.50,9,P-GPS,1,0,0,0,0,0,0,1664706945254,3661,3658,3653,3632,0,0,27,,,,,,,0,0,0,61.00,18.00,-1146.00,-565.00,0.00,-1184.00,6,58.00,0.00,14.65,0.00,0.00,0.00,0,,,100,100,0,2,0,0,0,2,0,,,,,0.0,0.0,0.0,0.0,0.0,0.0,0
55.952634,-4.403286,5.80,5.60,0.10,1.47,6.20,6.20,4.10,1.47,13706,2022-10-02 10:35:45.357,2022-10-02 11:35:45.357,18,0,0,14.609,55.952636,-4.403309,0.00,0.00,-0.10,-6.30,1.50,-114.60,0,1,1,24,100,-6843,818,14609,3107.50,9,P-GPS,1,0,0,0,0,0,0,1664706945357,3661,3658,3653,3632,0,0,27,,,,,,,0,0,0,63.00,15.00,-1146.00,-565.00,0.00,-1184.00,6,58.00,1.00,14.75,0.00,0.00,-1.00,0,,,100,100,0,2,0,0,0,2,0,,,,,0.0,0.0,0.0,0.0,0.0,0.0,0
