latitude,longitude,altitude(m),ultrasonicHeight(m),speed(mps),distance(m),max_altitude(m),max_ascent(m),max_speed(mps),max_distance(m),time(millisecond),datetime(utc),datetime(local),satellites,pressure(Pa),temperature(F),voltage(v),home_latitude,home_longitude,velocityX(mps),velocityY(mps),velocityZ(mps),pitch(deg),roll(deg),yaw(deg),powerlevel,isflying,istakingphoto,remainPowerPercent,remainLifePercent,currentCurrent,currentElectricity,currentVoltage,batteryTemperature,dischargeCount,flightmode,isMotorsOn,isTakingVideo,Rc_elevator,Rc_aileron,Rc_throttle,Rc_rudder,Rc_gyro,timestamp,Battery_Cell1,Battery_Cell2,Battery_Cell3,Battery_Cell4,Battery_Cell5,Battery_Cell6,Dronetype,AppVersion,Planename,FlyControllerSerialNumber,RemoteSerialNumber,BatterySerialNumber,CENTER_BATTERY.productDate,CENTER_BATTERY.serialNo,CENTER_BATTERY.fullCapacity,CENTER_BATTERY.productDateRaw,pitchRaw,rollRaw,yawRaw,gimbalPitchRaw,gimbalRollRaw,gimbalYawRaw,flyState,altitudeRaw,speedRaw,distanceRaw,velocityXRaw,velocityYRaw,velocityZRaw,data_reuse,App_Tip,App_Warning,downlinkSignalQuality,uplinkSignalQuality,transmissionChannel,rcModeSwitch,rcHome,rcPause,rcTransform,rcJoystickMode,appMode,FlyControllerSerialNumber_legacy,RemoteSerialNumber_legacy,BatterySerialNumber_legacy,Battery2SerialNumber,frontAvoidDist,backAvoidDist,rightAvoidDist,leftAvoidDist,upAvoidDist,downAvoidDist,isBrakingToAvoid
55.937921,-4.406450,0.10,0.20,0.10,1.62,0.10,0.10,0.10,1.62,0,2022-06-25 08:20:43.631,2022-06-25 09:20:43.630,10,0,0,16.993,NaN,NaN,0.00,0.00,-0.10,1.10,0.00,166.20,0,1,0,100,100,-2655,3373,16993,2920.50,8,P-GPS,1,0,0,0,135,0,0,1656145243630,4264,4270,4287,4286,0,0,27,Litchi_4.24.1-g,CJTMAVIC,163DFAS001K45C,0VECFAK0072T52,0P2AFAL5340E87,,0,0,0,-11.00,0.00,1662.00,0.00,0.00,1693.00,6,1.00,1.00,16.22,0.00,0.00,-1.00,0,,,100,100,0,2,0,0,0,2,2,,,,null,0.0,5.2,0.0,0.0,0.0,0.0,0
55.937921,-4.406450,0.10,0.20,0.10,1.64,0.10,0.10,0.10,1.64,116,2022-06-25 08:20:43.747,2022-06-25 09:20:43.746,10,0,0,16.993,NaN,NaN,0.00,0.00,-0.10,0.50,0.00,166.30,0,1,0,100,100,-2655,3373,16993,2920.50,8,P-GPS,1,0,0,0,137,0,0,1656145243746,4264,4270,4287,4286,0,0,27,,,,,,,0,0,0,-5.00,0.00,1663.00,0.00,0.00,1693.00,6,1.00,1.00,16.40,0.00,0.00,-1.00,0,,,100,100,0,2,0,0,0,2,2,,,,,0.0,5.2,0.0,0.0,0.0,0.0,0
55.937921,-4.406450,0.20,0.30,0.20,1.65,0.20,0.20,0.20,1.65,205,2022-06-25 08:20:43.836,2022-06-25 09:20:43.835,10,0,0,16.993,NaN,NaN,0.00,0.00,-0.20,0.40,0.30,166.30,0,1,0,100,100,-2655,3373,16993,2920.50,8,P-GPS,1,0,0,0,155,0,0,1656145243835,4264,4270,4287,4286,0,0,27,,,,,,,0,0,0,-4.00,3.00,1663.00,0.00,0.00,1693.00,6,2.00,2.00,16.52,0.00,0.00,-2.00,0,,,100,100,0,2,0,0,0,2,2,,,,,0.0,5.2,0.0,0.0,0.0,0.0,0
55.937921,-4.406450,0.20,0.30,0.20,1.66,0.20,0.20,0.20,1.66,306,2022-06-25 08:20:43.937,2022-06-25 09:20:43.936,10,0,0,16.993,NaN,NaN,0.00,0.00,-0.20,0.20,0.50,166.20,0,1,0,100,100,-2655,3373,16993,2920.50,8,P-GPS,1,0,0,0,166,0,0,1656145243936,4264,4270,4287,4286,0,0,27,,,,,,,0,0,0,-2.00,5.00,1662.00,0.00,0.00,1693.00,6,2.00,2.00,16.61,0.00,0.00,-2.00,0,,,100,100,0,2,0,0,0,2,2,,,,,0.0,5.2,0.0,0.0,0.0,0.0,0
55.937921,-4.406450,0.20,0.30,0.20,1.67,0.20,0.20,0.20,1.67,408,2022-06-25 08:20:44.039,2022-06-25 09:20:44.038,10,0,0,16.993,NaN,NaN,0.00,0.00,-0.20,0.00,0.30,166.10,0,1,0,100,100,-2655,3373,16993,2920.50,8,P-GPS,1,0,0,0,189,0,0,1656145244038,4264,4270,4287,4286,0,0,27,,,,,,,0,0,0,-0.00,3.00,1661.00,0.00,0.00,1693.00,6,2.00,2.00,16.70,0.00,0.00,-2.00,0,,,100,100,0,2,0,0,0,2,2,,,,,0.0,5.3,0.0,0.0,0.0,0.0,0
55.937921,-4.406450,0.20,0.30,0.20,1.65,0.20,0.20,0.20,1.67,501,2022-06-25 08:20:44.132,2022-06-25 09:20:44.132,10,0,0,16.458,NaN,NaN,0.00,0.00,-0.20,-0.30,0.40,166.20,0,1,0,100,100,-5037,3372,16458,2921.50,8,P-GPS,1,0,0,0,205,0,0,1656145244131,4264,4270,4287,4286,0,0,27,,,,,,,0,0,0,3.00,4.00,1662.00,0.00,0.00,1693.00,6,2.00,2.00,16.54,0.00,0.00,-2.00,0,,,100,100,0,2,0,0,0,2,2,,,,,0.0,5.3,0.0,0.0,0.0,0.0,0
55.937921,-4.406450,0.30,0.30,0.20,1.66,0.30,0.30,0.20,1.67,615,2022-06-25 08:20:44.247,2022-06-25 09:20:44.245,10,0,0,16.458,NaN,NaN,0.00,0.00,-0.20,-0.40,0.90,166.10,0,1,0,100,100,-5037,3372,16458,2921.50,8,P-GPS,1,0,0,0,218,0,0,1656145244245,4264,4270,4287,4286,0,0,27,,,,,,,0,0,0,4.00,9.00,1661.00,0.00,0.00,1693.00,6,3.00,2.00,16.60,0.00,0.00,-2.00,0,,,100,100,0,2,0,0,0,2,2,,,,,0.0,5.3,0.0,0.0,0.0,0.0,0
55.937921,-4.406450,0.30,0.40,0.20,1.66,0.30,0.30,0.20,1.67,701,2022-06-25 08:20:44.332,2022-06-25 09:20:44.331,10,0,0,16.458,NaN,NaN,0.00,0.00,-0.20,-0.50,0.40,166.00,0,1,0,100,100,-5037,3372,16458,2921.50,8,P-GPS,1,0,0,0,233,0,0,1656145244331,4264,4270,4287,4286,0,0,27,,,,,,,0,0,0,5.00,4.00,1660.00,0.00,0.00,1693.00,6,3.00,2.00,16.56,0.00,0.00,-2.00,0,,,100,100,0,2,0,0,0,2,2,,,,,0.0,5.3,0.0,0.0,0.0,0.0,0
55.937921,-4.406450,0.30,0.40,0.30,1.66,0.30,0.30,0.30,1.67,809,2022-06-25 08:20:44.439,2022-06-25 09:20:44.439,10,0,0,16.458,NaN,NaN,0.00,0.00,-0.30,-0.60,-0.10,166.10,0,1,0,100,100,-5037,3372,16458,2921.50,8,P-GPS,1,0,0,0,246,0,0,1656145244439,4264,4270,4287,4286,0,0,27,,,,,,,0,0,0,6.00,-1.00,1661.00,0.00,0.00,1693.00,6,3.00,3.00,16.60,0.00,0.00,-3.00,0,,,100,100,0,2,0,0,0,2,2,,,,,0.0,5.3,0.0,0.0,0.0,0.0,0
55.937921,-4.406450,0.30,0.40,0.30,1.68,0.30,0.30,0.30,1.68,901,2022-06-25 08:20:44.532,2022-06-25 09:20:44.531,10,0,0,16.458,NaN,NaN,0.00,0.00,-0.30,-0.60,-0.30,166.10,0,1,0,100,100,-5037,3372,16458,2921.50,8,P-GPS,1,0,0,0,259,0,0,1656145244531,4264,4270,4287,4286,0,0,27,,,,,,,0,0,0,6.00,-3.00,1661.00,0.00,0.00,1693.00,6,3.00,3.00,16.77,0.00,0.00,-3.00,0,,,100,100,0,2,0,0,0,2,2,,,,,0.0,5.3,0.0,0.0,0.0,0.0,0
55.937921,-4.406450,0.40,0.50,0.40,1.68,0.40,0.40,0.40,1.68,1003,2022-06-25 08:20:44.633,2022-06-25 09:20:44.633,10,0,0,16.458,NaN,NaN,0.00,0.00,-0.40,-0.70,-0.10,166.10,0,1,0,100,100,-5037,3372,16458,2921.50,8,P-GPS,1,0,0,0,263,0,0,1656145244633,4264,4270,4287,4286,0,0,27,,,,,,,0,0,0,7.00,-1.00,1661.00,0.00,0.00,1693.00,6,4.00,4.00,16.84,0.00,0.00,-4.00,0,,,100,100,0,2,0,0,0,2,2,,,,,0.0,5.3,0.0,0.0,0.0,0.0,0
55.937921,-4.406450,0.40,0.50,0.40,1.68,0.40,0.40,0.40,1.68,1103,2022-06-25 08:20:44.734,2022-06-25 09:20:44.734,10,0,0,16.458,NaN,NaN,0.00,0.00,-0.40,-1.00,0.10,166.00,0,1,0,100,100,-5037,3372,16458,2921.50,8,P-GPS,1,0,0,0,271,0,0,1656145244733,4264,4270,4287,4286,0,0,27,,,,,,,0,0,0,10.00,1.00,1660.00,0.00,0.00,1693.00,6,4.00,4.00,16.79,0.00,0.00,-4.00,0,,,100,100,0,2,0,0,0,2,2,,,,,0.0,5.3,0.0,0.0,0.0,0.0,0
55.937921,-4.406450,0.50,0.60,0.50,1.69,0.50,0.50,0.50,1.69,1203,2022-06-25 08:20:44.834,2022-06-25 09:20:44.833,10,0,0,16.458,NaN,NaN,0.00,0.00,-0.50,-0.80,0.50,165.90,0,1,0,100,100,-5037,3372,16458,2921.50,8,P-GPS,1,0,0,0,273,0,0,1656145244833,4264,4270,4287,4286,0,0,27,,,,,,,0,0,0,8.00,5.00,1659.00,0.00,0.00,1693.00,6,5.00,5.00,16.86,0.00,0.00,-5.00,0,,,100,100,0,2,0,0,0,2,2,,,,,0.0,5.3,0.0,0.0,0.0,0.0,0
55.937920,-4.406449,0.50,0.60,0.50,1.73,0.50,0.50,0.50,1.73,1305,2022-06-25 08:20:44.937,2022-06-25 09:20:44.935,10,0,0,16.458,NaN,NaN,0.00,0.00,-0.50,-0.70,0.80,165.80,0,1,0,100,100,-5037,3372,16458,2921.50,8,P-GPS,1,0,0,0,273,0,0,1656145244935,4264,4270,4287,4286,0,0,27,,,,,,,0,0,0,7.00,8.00,1658.00,0.00,0.00,1693.00,6,5.00,5.00,17.30,0.00,0.00,-5.00,0,,,100,100,0,2,0,0,0,2,2,,,,,0.0,5.3,0.0,0.0,0.0,0.0,0
55.937920,-4.406449,0.60,0.70,0.60,1.74,0.60,0.60,0.60,1.74,1410,2022-06-25 08:20:45.040,2022-06-25 09:20:45.040,10,0,0,16.458,NaN,NaN,0.00,0.00,-0.60,-0.90,0.60,165.80,0,1,0,100,100,-5037,3372,16458,2921.50,8,P-GPS,1,0,0,0,273,0,0,1656145245040,4264,4270,4287,4286,0,0,27,,,,,,,0,0,0,9.00,6.00,1658.00,0.00,0.00,1693.00,6,6.00,6.00,17.40,0.00,0.00,-6.00,0,,,100,100,0,2,0,0,0,2,2,,,,,0.0,5.3,0.0,0.0,0.0,0.0,0
55.937921,-4.406450,0.70,0.70,0.60,1.70,0.70,0.70,0.60,1.74,1504,2022-06-25 08:20:45.135,2022-06-25 09:20:45.134,10,0,0,16.316,NaN,NaN,0.00,0.00,-0.60,-1.10,0.50,165.90,0,1,0,100,100,-7279,3370,16316,2921.50,8,P-GPS,1,0,0,0,273,0,0,1656145245134,4264,4270,4287,4286,0,0,27,,,,,,,0,0,0,11.00,5.00,1659.00,0.00,0.00,1693.00,6,7.00,6.00,16.97,0.00,0.00,-6.00,0,,,100,100,0,2,0,0,0,2,2,,,,,0.0,5.3,0.0,0.0,0.0,0.0,0
55.937920,-4.406450,0.70,0.80,0.50,1.70,0.70,0.70,0.60,1.74,1614,2022-06-25 08:20:45.245,2022-06-25 09:20:45.244,10,0,0,16.316,NaN,NaN,0.00,0.00,-0.50,-1.10,0.20,166.10,0,1,0,100,100,-7279,3370,16316,2921.50,8,P-GPS,1,0,0,0,272,0,0,1656145245244,4264,4270,4287,4286,0,0,27,,,,,,,0,0,0,11.00,2.00,1661.00,0.00,0.00,1693.00,6,7.00,5.00,17.02,0.00,0.00,-5.00,0,,,100,100,0,2,0,0,0,2,2,,,,,0.0,5.4,0.0,0.0,0.0,0.0,0
55.937920,-4.406450,0.80,0.80,0.50,1.72,0.80,0.80,0.60,1.74,1703,2022-06-25 08:20:45.333,2022-06-25 09:20:45.333,10,0,0,16.316,NaN,NaN,0.00,0.00,-0.50,-1.00,0.00,166.10,0,1,0,100,100,-7279,3370,16316,2921.50,8,P-GPS,1,0,0,0,262,0,0,1656145245333,4264,4270,4287,4286,0,0,27,,,,,,,0,0,0,10.00,0.00,1661.00,0.00,0.00,1693.00,6,8.00,5.00,17.21,0.00,0.00,-5.00,0,,,100,100,0,2,0,0,0,2,2,,,,,0.0,5.4,0.0,0.0,0.0,0.0,0
55.937920,-4.406450,0.80,0.90,0.50,1.73,0.80,0.80,0.60,1.74,1807,2022-06-25 08:20:45.438,2022-06-25 09:20:45.437,10,0,0,16.316,NaN,NaN,0.00,0.00,-0.50,-0.70,-0.20,166.20,0,1,0,100,100,-7279,3370,16316,2921.50,8,P-GPS,1,0,0,0,254,0,0,1656145245437,4264,4270,4287,4286,0,0,27,,,,,,,0,0,0,7.00,-2.00,1662.00,0.00,0.00,1693.00,6,8.00,5.00,17.29,0.00,0.00,-5.00,0,,,100,100,0,2,0,0,0,2,2,,,,,0.0,5.4,0.0,0.0,0.0,0.0,0
55.937920,-4.406450,0.90,1.00,0.50,1.72,0.90,0.90,0.60,1.74,1908,2022-06-25 08:20:45.538,2022-06-25 09:20:45.538,10,0,0,16.316,NaN,NaN,0.00,0.00,-0.50,-0.70,-0.30,166.10,0,1,0,100,100,-7279,3370,16316,2921.50,8,P-GPS,1,0,0,0,252,0,0,1656145245538,4264,4270,4287,4286,0,0,27,,,,,,,0,0,0,7.00,-3.00,1661.00,0.00,0.00,1693.00,6,9.00,5.00,17.22,0.00,0.00,-5.00,0,,,100,100,0,2,0,0,0,2,2,,,,,0.0,5.4,0.0,0.0,0.0,0.0,0
55.937920,-4.406450,0.90,1.00,0.50,1.73,0.90,0.90,0.60,1.74,2025,2022-06-25 08:20:45.655,2022-06-25 09:20:45.655,10,0,0,16.316,55.937920,-4.406450,0.00,0.00,-0.50,-0.70,-0.40,166.10,0,1,0,100,100,-7279,3370,16316,2921.50,8,P-GPS,1,0,0,0,251,0,0,1656145245655,4264,4270,4287,4286,0,0,27,,,,,,,0,0,0,7.00,-4.00,1661.00,0.00,0.00,1693.00,6,9.00,5.00,17.29,0.00,0.00,-5.00,0,,,100,100,0,2,0,0,0,2,2,,,,,0.0,5.5,0.0,0.0,0.0,0.0,0
55.937920,-4.406450,1.00,1.10,0.50,1.72,1.00,1.00,0.60,1.74,2104,2022-06-25 08:20:45.735,2022-06-25 09:20:45.734,10,0,0,16.316,55.937920,-4.406450,0.00,0.00,-0.50,-0.70,-0.40,166.10,0,1,0,100,100,-7279,3370,16316,2921.50,8,P-GPS,1,0,0,0,252,0,0,1656145245734,4264,4270,4287,4286,0,0,27,,,,,,,0,0,0,7.00,-4.00,1661.00,0.00,0.00,1693.00,6,10.00,5.00,17.18,0.00,0.00,-5.00,0,,,100,100,0,2,0,0,0,2,2,,,,,0.0,5.5,0.0,0.0,0.0,0.0,0
55.937920,-4.406450,1.00,1.10,0.40,1.72,1.00,1.00,0.60,1.74,2208,2022-06-25 08:20:45.839,2022-06-25 09:20:45.838,10,0,0,16.316,55.937920,-4.406450,0.00,0.00,-0.40,-0.70,-0.20,166.00,0,1,0,100,100,-7279,3370,16316,2921.50,8,P-GPS,1,0,0,0,252,0,0,1656145245838,4264,4270,4287,4286,0,0,27,,,,,,,0,0,0,7.00,-2.00,1660.00,0.00,0.00,1693.00,6,10.00,4.00,17.24,0.00,0.00,-4.00,0,,,100,100,0,2,0,0,0,2,2,,,,,0.0,5.5,0.0,0.0,0.0,0.0,0
55.937920,-4.406450,1.10,1.20,0.40,1.77,1.10,1.10,0.60,1.77,2305,2022-06-25 08:20:45.936,2022-06-25 09:20:45.935,10,0,0,16.316,55.937920,-4.406450,0.00,0.00,-0.40,-0.50,0.00,166.10,0,1,0,100,100,-7279,3370,16316,2921.50,8,P-GPS,1,0,0,0,252,0,0,1656145245935,4264,4270,4287,4286,0,0,27,,,,,,,0,0,0,5.00,0.00,1661.00,0.00,0.00,1693.00,6,11.00,4.00,17.73,0.00,0.00,-4.00,0,,,100,100,0,2,0,0,0,2,2,,,,,0.0,5.5,0.0,0.0,0.0,0.0,0
55.937920,-4.406450,1.10,1.20,0.40,1.78,1.10,1.10,0.60,1.78,2405,2022-06-25 08:20:46.036,2022-06-25 09:20:46.035,10,0,0,16.316,55.937920,-4.406450,0.00,0.00,-0.40,-0.30,0.00,166.10,0,1,0,100,100,-7279,3370,16316,2921.50,8,P-GPS,1,0,0,0,252,0,0,1656145246035,4264,4270,4287,4286,0,0,27,,,,,,,0,0,0,3.00,0.00,1661.00,0.00,0.00,1693.00,6,11.00,4.00,17.85,0.00,0.00,-4.00,0,,,100,100,0,2,0,0,0,2,2,,,,,0.0,5.6,0.0,0.0,0.0,0.0,0
55.937920,-4.406450,1.20,1.30,0.40,1.76,1.20,1.20,0.60,1.78,2501,2022-06-25 08:20:46.131,2022-06-25 09:20:46.131,10,0,0,16.269,55.937920,-4.406450,0.00,0.00,-0.40,-0.20,0.10,166.10,0,1,0,100,100,-7488,3366,16269,2921.50,8,P-GPS,1,0,0,0,252,0,0,1656145246131,4264,4270,4287,4286,0,0,27,,,,,,,0,0,0,2.00,1.00,1661.00,0.00,0.00,1693.00,6,12.00,4.00,17.61,0.00,0.00,-4.00,0,,,100,100,0,2,0,0,0,2,2,,,,,0.0,5.6,0.0,0.0,0.0,0.0,0
55.937920,-4.406450,1.20,1.30,0.40,1.77,1.20,1.20,0.60,1.78,2610,2022-06-25 08:20:46.241,2022-06-25 09:20:46.241,10,0,0,16.269,55.937920,-4.406450,0.00,0.00,-0.40,-0.30,0.30,166.20,0,1,0,100,100,-7488,3366,16269,2921.50,8,P-GPS,1,0,0,0,252,0,0,1656145246240,4264,4270,4287,4286,0,0,27,,,,,,,0,0,0,3.00,3.00,1662.00,0.00,0.00,1693.00,6,12.00,4.00,17.69,0.00,0.00,-4.00,0,,,100,100,0,2,0,0,0,2,2,,,,,0.0,5.8,0.0,0.0,0.0,0.0,0
55.937920,-4.406450,1.30,1.30,0.40,1.78,1.30,1.30,0.60,1.78,2705,2022-06-25 08:20:46.335,2022-06-25 09:20:46.335,10,0,0,16.269,55.937920,-4.406450,0.00,0.00,-0.40,-0.60,0.50,166.20,0,1,0,100,100,-7488,3366,16269,2921.50,8,P-GPS,1,0,0,0,260,0,0,1656145246335,4264,4270,4287,4286,0,0,27,,,,,,,0,0,0,6.00,5.00,1662.00,0.00,0.00,1693.00,6,13.00,4.00,17.85,0.00,0.00,-4.00,0,,,100,100,0,2,0,0,0,2,2,,,,,0.0,5.8,0.0,0.0,0.0,0.0,0
55.937920,-4.406450,1.30,1.40,0.40,1.79,1.30,1.30,0.60,1.79,2796,2022-06-25 08:20:46.426,2022-06-25 09:20:46.426,10,0,0,16.269,55.937920,-4.406450,0.00,0.00,-0.40,-0.60,0.60,166.20,0,1,0,100,100,-7488,3366,16269,2921.50,8,P-GPS,1,0,0,0,261,0,0,1656145246426,4264,4270,4287,4286,0,0,27,,,,,,,0,0,0,6.00,6.00,1662.00,0.00,0.00,1693.00,6,13.00,4.00,17.93,0.00,0.00,-4.00,0,,,100,100,0,2,0,0,0,2,2,,,,,0.0,5.8,0.0,0.0,0.0,0.0,0
55.937919,-4.406449,1.40,1.40,0.50,1.81,1.40,1.40,0.60,1.81,2907,2022-06-25 08:20:46.537,2022-06-25 09:20:46.537,10,0,0,16.269,55.937920,-4.406450,0.00,0.00,-0.50,-0.70,0.60,166.30,0,1,0,100,100,-7488,3366,16269,2921.50,8,P-GPS,1,0,0,0,252,0,0,1656145246537,4264,4270,4287,4286,0,0,27,,,,,,,0,0,0,7.00,6.00,1663.00,0.00,0.00,1693.00,6,14.00,5.00,18.06,0.00,0.00,-5.00,0,,,100,100,0,2,0,0,0,2,2,,,,,0.0,5.8,0.0,0.0,0.0,0.0,0
55.937919,-4.406449,1.40,1.50,0.50,1.81,1.40,1.40,0.60,1.81,2997,2022-06-25 08:20:46.627,2022-06-25 09:20:46.627,10,0,0,16.269,55.937920,-4.406450,0.00,0.00,-0.50,-0.80,0.60,166.30,0,1,0,100,100,-7488,3366,16269,2921.50,8,P-GPS,1,0,0,0,249,0,0,1656145246627,4264,4270,4287,4286,0,0,27,,,,,,,0,0,0,8.00,6.00,1663.00,0.00,0.00,1693.00,6,14.00,5.00,18.15,0.00,0.00,-5.00,0,,,100,100,0,2,0,0,0,2,2,,,,,0.0,5.8,0.0,0.0,0.0,0.0,0
55.937919,-4.406449,1.50,1.50,0.40,1.81,1.50,1.50,0.60,1.81,3095,2022-06-25 08:20:46.725,2022-06-25 09:20:46.725,10,0,0,16.269,55.937920,-4.406450,0.00,0.00,-0.40,-0.80,0.80,166.30,0,1,0,100,100,-7488,3366,16269,2921.50,8,P-GPS,1,0,0,0,250,0,0,1656145246725,4074,4058,4067,4073,0,0,27,,,,,,,0,0,0,8.00,8.00,1663.00,0.00,0.00,1693.00,6,15.00,4.00,18.08,0.00,0.00,-4.00,0,,,100,100,0,2,0,0,0,2,2,,,,,0.0,5.9,0.0,0.0,0.0,0.0,0
55.937919,-4.406449,1.50,1.60,0.40,1.81,1.50,1.50,0.60,1.81,3206,2022-06-25 08:20:46.837,2022-06-25 09:20:46.836,10,0,0,16.269,55.937920,-4.406450,0.00,0.00,-0.40,-0.80,1.00,166.30,0,1,0,100,100,-7488,3366,16269,2921.50,8,P-GPS,1,0,0,0,250,0,0,1656145246836,4074,4058,4067,4073,0,0,27,,,,,,,0,0,0,8.00,10.00,1663.00,0.00,0.00,1693.00,6,15.00,4.00,18.14,0.00,0.00,-4.00,0,,,100,100,0,2,0,0,0,2,2,,,,,0.0,5.9,0.0,0.0,0.0,0.0,0
55.937919,-4.406449,1.60,1.60,0.40,1.82,1.60,1.60,0.60,1.82,3309,2022-06-25 08:20:46.940,2022-06-25 09:20:46.939,10,0,0,16.269,55.937920,-4.406450,0.00,0.00,-0.40,-0.90,0.90,166.30,0,1,0,100,100,-7488,3366,16269,2921.50,8,P-GPS,1,0,0,0,252,0,0,1656145246939,4074,4058,4067,4073,0,0,27,,,,,,,0,0,0,9.00,9.00,1663.00,0.00,0.00,1693.00,6,16.00,4.00,18.16,0.00,0.00,-4.00,0,,,100,100,0,2,0,0,0,2,2,,,,,0.0,5.9,0.0,0.0,0.0,0.0,0
55.937919,-4.406449,1.60,1.70,0.40,1.82,1.60,1.60,0.60,1.82,3409,2022-06-25 08:20:47.040,2022-06-25 09:20:47.040,10,0,0,16.269,55.937920,-4.406450,0.00,0.00,-0.40,-0.80,0.50,166.30,0,1,0,100,100,-7488,3366,16269,2921.50,8,P-GPS,1,0,0,0,252,0,0,1656145247039,4074,4058,4067,4073,0,0,27,,,,,,,0,0,0,8.00,5.00,1663.00,0.00,0.00,1693.00,6,16.00,4.00,18.21,0.00,0.00,-4.00,0,,,100,100,0,2,0,0,0,2,2,,,,,0.0,5.9,0.0,0.0,0.0,0.0,0
55.937919,-4.406449,1.70,1.70,0.40,1.84,1.70,1.70,0.60,1.84,3507,2022-06-25 08:20:47.137,2022-06-25 09:20:47.137,10,0,0,16.272,55.937920,-4.406450,0.00,0.00,-0.40,-0.90,0.30,166.30,0,1,0,100,100,-7012,3364,16272,2921.50,8,P-GPS,1,0,0,0,256,0,0,1656145247137,4074,4058,4067,4073,0,0,27,,,,,,,0,0,0,9.00,3.00,1663.00,0.00,0.00,1693.00,6,17.00,4.00,18.37,0.00,0.00,-4.00,0,,,100,100,0,2,0,0,0,2,2,,,,,0.0,6.0,0.0,0.0,0.0,0.0,0
55.937919,-4.406449,1.70,1.80,0.40,1.84,1.70,1.70,0.60,1.84,3598,2022-06-25 08:20:47.229,2022-06-25 09:20:47.228,10,0,0,16.272,55.937920,-4.406450,0.00,0.00,-0.40,-1.10,0.30,166.30,0,1,0,100,100,-7012,3364,16272,2921.50,8,P-GPS,1,0,0,0,257,0,0,1656145247228,4074,4058,4067,4073,0,0,27,,,,,,,0,0,0,11.00,3.00,1663.00,0.00,0.00,1693.00,6,17.00,4.00,18.42,0.00,0.00,-4.00,0,,,100,100,0,2,0,0,0,2,2,,,,,0.0,6.0,0.0,0.0,0.0,0.0,0
55.937919,-4.406449,1.80,1.80,0.40,1.85,1.80,1.80,0.60,1.85,3697,2022-06-25 08:20:47.327,2022-06-25 09:20:47.327,10,0,0,16.272,55.937920,-4.406450,0.00,0.00,-0.40,-1.10,0.30,166.30,0,1,0,100,100,-7012,3364,16272,2921.50,8,P-GPS,1,0,0,0,257,0,0,1656145247327,4074,4058,4067,4073,0,0,27,,,,,,,0,0,0,11.00,3.00,1663.00,0.00,0.00,1693.00,6,18.00,4.00,18.47,0.00,0.00,-4.00,0,,,100,100,0,2,0,0,0,2,2,,,,,0.0,6.2,0.0,0.0,0.0,0.0,0
55.937919,-4.406449,1.80,1.90,0.40,1.85,1.80,1.80,0.60,1.85,3804,2022-06-25 08:20:47.435,2022-06-25 09:20:47.435,10,0,0,16.272,55.937920,-4.406450,0.00,0.00,-0.40,-1.10,0.30,166.30,0,1,0,100,100,-7012,3364,16272,2921.50,8,P-GPS,1,0,0,0,258,0,0,1656145247434,4074,4058,4067,4073,0,0,27,,,,,,,0,0,0,11.00,3.00,1663.00,0.00,0.00,1693.00,6,18.00,4.00,18.52,0.00,0.00,-4.00,0,,,100,100,0,2,0,0,0,2,2,,,,,0.0,6.2,0.0,0.0,0.0,0.0,0
55.937919,-4.406450,1.90,1.90,0.50,1.80,1.90,1.90,0.60,1.85,3896,2022-06-25 08:20:47.526,2022-06-25 09:20:47.526,10,0,0,16.272,55.937920,-4.406450,0.00,0.00,-0.50,-1.00,0.10,166.20,0,1,0,100,100,-7012,3364,16272,2921.50,8,P-GPS,1,0,0,0,258,0,0,1656145247526,4074,4058,4067,4073,0,0,27,,,,,,,0,0,0,10.00,1.00,1662.00,0.00,0.00,1693.00,6,19.00,5.00,17.97,0.00,0.00,-5.00,0,,,100,100,0,2,0,0,0,2,2,,,,,0.0,7.7,0.0,0.0,0.0,0.0,0
55.937919,-4.406450,1.90,2.00,0.50,1.80,1.90,1.90,0.60,1.85,3995,2022-06-25 08:20:47.626,2022-06-25 09:20:47.625,10,0,0,16.272,55.937920,-4.406450,0.00,0.00,-0.50,-1.10,-0.20,166.20,0,1,0,100,100,-7012,3364,16272,2921.50,8,P-GPS,1,0,0,0,257,0,0,1656145247625,4074,4058,4067,4073,0,0,27,,,,,,,0,0,0,11.00,-2.00,1662.00,0.00,0.00,1693.00,6,19.00,5.00,17.96,0.00,0.00,-5.00,0,,,100,100,0,2,0,0,0,2,2,,,,,0.0,7.7,0.0,0.0,0.0,0.0,0
55.937919,-4.406449,2.00,2.00,0.50,1.85,2.00,2.00,0.60,1.85,4097,2022-06-25 08:20:47.728,2022-06-25 09:20:47.727,10,0,0,16.272,55.937920,-4.406450,0.00,0.00,-0.50,-1.30,-0.30,166.20,0,1,0,100,100,-7012,3364,16272,2921.50,8,P-GPS,1,0,0,0,257,0,0,1656145247727,4074,4058,4067,4073,0,0,27,,,,,,,0,0,0,13.00,-3.00,1662.00,0.00,0.00,1693.00,6,20.00,5.00,18.47,0.00,0.00,-5.00,0,,,100,100,0,2,0,0,0,2,2,,,,,0.0,9.1,0.0,0.0,0.0,0.0,0
55.937919,-4.406449,2.00,2.10,0.50,1.85,2.00,2.00,0.60,1.85,4206,2022-06-25 08:20:47.836,2022-06-25 09:20:47.836,10,0,0,16.272,55.937920,-4.406450,0.00,0.00,-0.50,-1.50,-0.40,166.10,0,1,0,100,100,-7012,3364,16272,2921.50,8,P-GPS,1,0,0,0,261,0,0,1656145247836,4074,4058,4067,4073,0,0,27,,,,,,,0,0,0,15.00,-4.00,1661.00,0.00,0.00,1693.00,6,20.00,5.00,18.51,0.00,0.00,-5.00,0,,,100,100,0,2,0,0,0,2,2,,,,,0.0,9.1,0.0,0.0,0.0,0.0,0
55.937919,-4.406449,2.10,2.10,0.50,1.84,2.10,2.10,0.60,1.85,4305,2022-06-25 08:20:47.935,2022-06-25 09:20:47.935,10,0,0,16.272,55.937920,-4.406450,0.00,0.00,-0.50,-1.40,-0.30,166.10,0,1,0,100,100,-7012,3364,16272,2921.50,8,P-GPS,1,0,0,0,265,0,0,1656145247935,4074,4058,4067,4073,0,0,27,,,,,,,0,0,0,14.00,-3.00,1661.00,0.00,0.00,1693.00,6,21.00,5.00,18.45,0.00,0.00,-5.00,0,,,100,100,0,2,0,0,0,2,2,,,,,0.0,9.1,0.0,0.0,0.0,0.0,0
55.937919,-4.406449,2.10,2.20,0.50,1.85,2.10,2.10,0.60,1.85,4396,2022-06-25 08:20:48.026,2022-06-25 09:20:48.026,10,0,0,16.272,55.937920,-4.406450,0.00,0.00,-0.50,-1.10,0.00,166.20,0,1,0,100,100,-7012,3364,16272,2921.50,8,P-GPS,1,0,0,0,265,0,0,1656145248026,4074,4058,4067,4073,0,0,27,,,,,,,0,0,0,11.00,0.00,1662.00,0.00,0.00,1693.00,6,21.00,5.00,18.51,0.00,0.00,-5.00,0,,,100,100,0,2,0,0,0,2,2,,,,,0.0,9.1,0.0,0.0,0.0,0.0,0
55.937918,-4.406449,2.20,2.20,0.50,1.89,2.20,2.20,0.60,1.89,4511,2022-06-25 08:20:48.141,2022-06-25 09:20:48.141,10,0,0,16.266,55.937920,-4.406450,0.00,0.00,-0.50,-1.10,0.20,166.30,0,1,0,100,100,-6914,3363,16266,2921.50,8,P-GPS,1,0,0,0,265,0,0,1656145248141,4074,4058,4067,4073,0,0,27,,,,,,,0,0,0,11.00,2.00,1663.00,0.00,0.00,1693.00,6,22.00,5.00,18.95,0.00,0.00,-5.00,0,,,100,100,0,2,0,0,0,2,2,,,,,0.0,9.2,0.0,0.0,0.0,0.0,0
55.937918,-4.406449,2.20,2.30,0.50,1.91,2.20,2.20,0.60,1.91,4597,2022-06-25 08:20:48.227,2022-06-25 09:20:48.227,10,0,0,16.266,55.937920,-4.406450,0.00,0.00,-0.50,-0.90,0.50,166.30,0,1,0,100,100,-6914,3363,16266,2921.50,8,P-GPS,1,0,0,0,265,0,0,1656145248227,4074,4058,4067,4073,0,0,27,,,,,,,0,0,0,9.00,5.00,1663.00,0.00,0.00,1693.00,6,22.00,5.00,19.06,0.00,0.00,-5.00,0,,,100,100,0,2,0,0,0,2,2,,,,,0.0,9.2,0.0,0.0,0.0,0.0,0
55.937918,-4.406449,2.30,2.30,0.50,1.92,2.30,2.30,0.60,1.92,4707,2022-06-25 08:20:48.338,2022-06-25 09:20:48.337,10,0,0,16.266,55.937920,-4.406450,0.00,0.00,-0.50,-0.60,0.60,166.20,0,1,0,100,100,-6914,3363,16266,2921.50,8,P-GPS,1,0,0,0,265,0,0,1656145248337,4074,4058,4067,4073,0,0,27,,,,,,,0,0,0,6.00,6.00,1662.00,0.00,0.00,1693.00,6,23.00,5.00,19.20,0.00,0.00,-5.00,0,,,100,100,0,2,0,0,0,2,2,,,,,0.0,9.8,0.0,0.0,0.0,0.0,0
55.937918,-4.406449,2.30,2.40,0.50,1.93,2.30,2.30,0.60,1.93,4796,2022-06-25 08:20:48.427,2022-06-25 09:20:48.426,10,0,0,16.266,55.937920,-4.406450,0.00,0.00,-0.50,-0.40,0.60,166.20,0,1,0,100,100,-6914,3363,16266,2921.50,8,P-GPS,1,0,0,0,263,0,0,1656145248426,4074,4058,4067,4073,0,0,27,,,,,,,0,0,0,4.00,6.00,1662.00,0.00,0.00,1693.00,6,23.00,5.00,19.31,0.00,0.00,-5.00,0,,,100,100,0,2,0,0,0,2,2,,,,,0.0,9.8,0.0,0.0,0.0,0.0,0
55.937918,-4.406449,2.40,2.40,0.50,1.92,2.40,2.40,0.60,1.93,4896,2022-06-25 08:20:48.526,2022-06-25 09:20:48.526,10,0,0,16.266,55.937920,-4.406450,0.00,0.00,-0.50,-0.40,0.10,166.20,0,1,0,100,100,-6914,3363,16266,2921.50,8,P-GPS,1,0,0,0,261,0,0,1656145248526,4074,4058,4067,4073,0,0,27,,,,,,,0,0,0,4.00,1.00,1662.00,0.00,0.00,1693.00,6,24.00,5.00,19.24,0.00,0.00,-5.00,0,,,100,100,0,2,0,0,0,2,2,,,,,0.0,14.9,0.0,0.0,0.0,0.0,0
55.937918,-4.406449,2.40,2.50,0.50,1.93,2.40,2.40,0.60,1.93,4997,2022-06-25 08:20:48.628,2022-06-25 09:20:48.627,10,0,0,16.266,55.937920,-4.406450,0.00,0.00,-0.50,-0.60,0.00,166.10,0,1,0,100,100,-6914,3363,16266,2921.50,8,P-GPS,1,0,0,0,260,0,0,1656145248627,4074,4058,4067,4073,0,0,27,,,,,,,0,0,0,6.00,0.00,1661.00,0.00,0.00,1693.00,6,24.00,5.00,19.32,0.00,0.00,-5.00,0,,,100,100,0,2,0,0,0,2,2,,,,,0.0,14.9,0.0,0.0,0.0,0.0,0
55.937918,-4.406449,2.50,2.50,0.50,1.95,2.50,2.50,0.60,1.95,5115,2022-06-25 08:20:48.745,2022-06-25 09:20:48.745,10,0,0,16.266,55.937920,-4.406450,0.00,0.00,-0.50,-0.70,0.10,166.00,0,1,0,100,100,-6914,3363,16266,2921.50,8,P-GPS,1,0,0,0,258,0,0,1656145248745,4074,4058,4067,4073,0,0,27,,,,,,,0,0,0,7.00,1.00,1660.00,0.00,0.00,1693.00,6,25.00,5.00,19.48,0.00,0.00,-5.00,0,,,100,100,0,2,0,0,0,2,2,,,,,0.0,0.0,0.0,0.0,0.0,0.0,0
55.937918,-4.406449,2.50,2.60,0.50,1.96,2.50,2.50,0.60,1.96,5208,2022-06-25 08:20:48.838,2022-06-25 09:20:48.838,10,0,0,16.266,55.937920,-4.406450,0.00,0.00,-0.50,-1.00,0.70,166.00,0,1,0,100,100,-6914,3363,16266,2921.50,8,P-GPS,1,0,0,0,255,0,0,1656145248838,4074,4058,4067,4073,0,0,27,,,,,,,0,0,0,10.00,7.00,1660.00,0.00,0.00,1693.00,6,25.00,5.00,19.58,0.00,0.00,-5.00,0,,,100,100,0,2,0,0,0,2,2,,,,,0.0,0.0,0.0,0.0,0.0,0.0,0
55.937918,-4.406448,2.60,2.60,0.50,1.98,2.60,2.60,0.60,1.98,5296,2022-06-25 08:20:48.926,2022-06-25 09:20:48.926,10,0,0,16.266,55.937920,-4.406450,0.00,0.00,-0.50,-1.00,1.40,166.10,0,1,0,100,100,-6914,3363,16266,2921.50,8,P-GPS,1,0,0,0,252,0,0,1656145248926,4074,4058,4067,4073,0,0,27,,,,,,,0,0,0,10.00,14.00,1661.00,0.00,0.00,1693.00,6,26.00,5.00,19.77,0.00,0.00,-5.00,0,,,100,100,0,2,0,0,0,2,2,,,,,0.0,0.0,0.0,0.0,0.0,0.0,0
55.937918,-4.406448,2.60,2.70,0.40,1.99,2.60,2.60,0.60,1.99,5396,2022-06-25 08:20:49.026,2022-06-25 09:20:49.026,10,0,0,16.266,55.937920,-4.406450,0.00,0.00,-0.40,-1.00,1.80,166.20,0,1,0,100,100,-6914,3363,16266,2921.50,8,P-GPS,1,0,0,0,251,0,0,1656145249026,4074,4058,4067,4073,0,0,27,,,,,,,0,0,0,10.00,18.00,1662.00,0.00,0.00,1693.00,6,26.00,4.00,19.88,0.00,0.00,-4.00,0,,,100,100,0,2,0,0,0,2,2,,,,,0.0,0.0,0.0,0.0,0.0,0.0,0
55.937918,-4.406448,2.70,2.70,0.40,2.00,2.70,2.70,0.60,2.00,5496,2022-06-25 08:20:49.126,2022-06-25 09:20:49.126,10,0,0,16.266,55.937920,-4.406450,0.00,0.00,-0.40,-1.00,2.20,166.30,0,1,0,100,100,-6914,3363,16266,2921.50,8,P-GPS,1,0,0,0,244,0,0,1656145249126,4074,4058,4067,4073,0,0,27,,,,,,,0,0,0,10.00,22.00,1663.00,0.00,0.00,1693.00,6,27.00,4.00,20.01,0.00,0.00,-4.00,0,,,100,100,0,2,0,0,0,2,2,,,,,0.0,0.0,0.0,0.0,0.0,0.0,0
55.937918,-4.406448,2.70,2.70,0.40,2.01,2.70,2.70,0.60,2.01,5598,2022-06-25 08:20:49.228,2022-06-25 09:20:49.228,10,0,0,16.247,55.937920,-4.406450,0.00,0.00,-0.40,-0.80,2.00,166.20,0,1,0,100,100,-6901,3361,16247,2922.50,8,P-GPS,1,0,0,0,189,0,0,1656145249228,4074,4058,4067,4073,0,0,27,,,,,,,0,0,0,8.00,20.00,1662.00,0.00,0.00,1693.00,6,27.00,4.00,20.11,0.00,0.00,-4.00,0,,,100,100,0,2,0,0,0,2,2,,,,,0.0,0.0,0.0,0.0,0.0,0.0,0
55.937918,-4.406448,2.80,2.80,0.30,1.99,2.80,2.80,0.60,2.01,5706,2022-06-25 08:20:49.337,2022-06-25 09:20:49.336,10,0,0,16.247,55.937920,-4.406450,0.00,0.00,-0.30,-0.90,1.80,166.20,0,1,0,100,100,-6901,3361,16247,2922.50,8,P-GPS,1,0,0,0,129,0,0,1656145249336,4074,4058,4067,4073,0,0,27,,,,,,,0,0,0,9.00,18.00,1662.00,0.00,0.00,1693.00,6,28.00,3.00,19.92,0.00,0.00,-3.00,0,,,100,100,0,2,0,0,0,2,2,,,,,0.0,0.0,0.0,0.0,0.0,0.0,0
55.937918,-4.406448,2.80,2.80,0.20,2.00,2.80,2.80,0.60,2.01,5797,2022-06-25 08:20:49.428,2022-06-25 09:20:49.427,10,0,0,16.247,55.937920,-4.406450,0.00,0.00,-0.20,-1.10,1.90,166.10,0,1,0,100,100,-6901,3361,16247,2922.50,8,P-GPS,1,0,0,0,0,0,0,1656145249427,4074,4058,4067,4073,0,0,27,,,,,,,0,0,0,11.00,19.00,1661.00,0.00,0.00,1693.00,6,28.00,2.00,19.98,0.00,0.00,-2.00,0,,,100,100,0,2,0,0,0,2,2,,,,,0.0,0.0,0.0,0.0,0.0,0.0,0
55.937918,-4.406448,2.80,2.80,0.10,2.03,2.80,2.80,0.60,2.03,5919,2022-06-25 08:20:49.549,2022-06-25 09:20:49.549,10,0,0,16.247,55.937920,-4.406450,0.00,0.00,-0.10,-1.10,2.00,166.20,0,1,0,100,100,-6901,3361,16247,2922.50,8,P-GPS,1,0,0,0,0,0,0,1656145249549,4074,4058,4067,4073,0,0,27,,,,,,,0,0,0,11.00,20.00,1662.00,0.00,0.00,1693.00,6,28.00,1.00,20.28,0.00,0.00,-1.00,0,,,100,100,0,2,0,0,0,2,2,,,,,0.0,0.0,0.0,0.0,0.0,0.0,0
55.937917,-4.406448,2.80,2.80,0.00,2.05,2.80,2.80,0.60,2.05,6116,2022-06-25 08:20:49.747,2022-06-25 09:20:49.746,10,0,0,16.247,55.937920,-4.406450,0.00,0.00,0.00,-1.00,1.80,166.20,0,1,0,100,100,-6901,3361,16247,2922.50,8,P-GPS,1,0,0,0,0,0,0,1656145249746,4074,4058,4067,4073,0,0,27,,,,,,,0,0,0,10.00,18.00,1662.00,0.00,0.00,1693.00,6,28.00,0.00,20.47,0.00,0.00,0.00,0,,,100,100,0,2,0,0,0,2,2,,,,,0.0,0.0,0.0,0.0,0.0,0.0,0
55.937917,-4.406447,2.80,2.80,0.00,2.05,2.80,2.80,0.60,2.05,6209,2022-06-25 08:20:49.840,2022-06-25 09:20:49.839,10,0,0,16.247,55.937920,-4.406450,0.00,0.00,0.00,-1.30,1.70,166.20,0,1,0,100,100,-6901,3361,16247,2922.50,8,P-GPS,1,0,0,0,0,0,0,1656145249839,4074,4058,4067,4073,0,0,27,,,,,,,0,0,0,13.00,17.00,1662.00,0.00,0.00,1693.00,6,28.00,0.00,20.53,0.00,0.00,0.00,0,,,100,100,0,2,0,0,0,2,2,,,,,0.0,0.0,0.0,0.0,0.0,0.0,0
55.937917,-4.406447,2.80,2.80,0.00,2.06,2.80,2.80,0.60,2.06,6309,2022-06-25 08:20:49.940,2022-06-25 09:20:49.939,10,0,0,16.247,55.937920,-4.406450,0.00,0.00,0.00,-1.60,1.70,166.30,0,1,0,100,100,-6901,3361,16247,2922.50,8,P-GPS,1,0,0,0,0,0,0,1656145249939,4074,4058,4067,4073,0,0,27,,,,,,,0,0,0,16.00,17.00,1663.00,0.00,0.00,1693.00,6,28.00,0.00,20.59,0.00,0.00,0.00,0,,,100,100,0,2,0,0,0,2,2,,,,,0.0,0.0,0.0,0.0,0.0,0.0,0
55.937917,-4.406447,2.80,2.80,0.00,2.07,2.80,2.80,0.60,2.07,6405,2022-06-25 08:20:50.035,2022-06-25 09:20:50.035,10,0,0,16.247,55.937920,-4.406450,0.00,0.00,0.00,-1.30,1.90,166.30,0,1,0,100,100,-6901,3361,16247,2922.50,8,P-GPS,1,0,0,0,0,0,0,1656145250035,4074,4058,4067,4073,0,0,27,,,,,,,0,0,0,13.00,19.00,1663.00,0.00,0.00,1693.00,6,28.00,0.00,20.65,0.00,0.00,0.00,0,,,100,100,0,2,0,0,0,2,2,,,,,0.0,0.0,0.0,0.0,0.0,0.0,0
55.937917,-4.406447,2.80,2.80,0.00,2.07,2.80,2.80,0.60,2.07,6498,2022-06-25 08:20:50.128,2022-06-25 09:20:50.128,10,0,0,16.247,55.937920,-4.406450,0.00,0.00,0.00,-1.30,2.00,166.30,0,1,0,100,100,-6901,3361,16247,2922.50,8,P-GPS,1,0,0,0,0,0,0,1656145250128,4074,4058,4067,4073,0,0,27,,,,,,,0,0,0,13.00,20.00,1663.00,0.00,0.00,1693.00,6,28.00,0.00,20.69,0.00,0.00,0.00,0,,,100,100,0,2,0,0,0,2,2,,,,,0.0,0.0,0.0,0.0,0.0,0.0,0
55.937917,-4.406447,2.80,2.80,0.00,2.08,2.80,2.80,0.60,2.08,6608,2022-06-25 08:20:50.238,2022-06-25 09:20:50.238,10,0,0,16.273,55.937920,-4.406450,0.00,0.00,0.00,-1.30,1.90,166.30,0,1,0,100,100,-6646,3359,16273,2922.50,8,P-GPS,1,0,0,0,0,0,0,1656145250238,4074,4058,4067,4073,0,0,27,,,,,,,0,0,0,13.00,19.00,1663.00,0.00,0.00,1693.00,6,28.00,0.00,20.76,0.00,0.00,0.00,0,,,100,100,0,2,0,0,0,2,2,,,,,0.0,0.0,0.0,0.0,0.0,0.0,0
55.937917,-4.406447,2.80,2.80,0.00,2.08,2.80,2.80,0.60,2.08,6703,2022-06-25 08:20:50.334,2022-06-25 09:20:50.333,10,0,0,16.273,55.937920,-4.406450,0.00,0.00,0.00,-1.30,2.00,166.40,0,1,0,100,100,-6646,3359,16273,2922.50,8,P-GPS,1,0,0,0,0,0,0,1656145250333,4074,4058,4067,4073,0,0,27,,,,,,,0,0,0,13.00,20.00,1664.00,0.00,0.00,1693.00,6,28.00,0.00,20.83,0.00,0.00,0.00,0,,,100,100,0,2,0,0,0,2,2,,,,,0.0,0.0,0.0,0.0,0.0,0.0,0
55.937917,-4.406447,2.80,2.80,0.00,2.09,2.80,2.80,0.60,2.09,6806,2022-06-25 08:20:50.437,2022-06-25 09:20:50.436,10,0,0,16.273,55.937920,-4.406450,0.00,0.00,0.00,-1.50,2.20,166.40,0,1,0,100,100,-6646,3359,16273,2922.50,8,P-GPS,1,0,0,0,0,-105,0,1656145250436,4074,4058,4067,4073,0,0,27,,,,,,,0,0,0,15.00,22.00,1664.00,0.00,0.00,1693.00,6,28.00,0.00,20.89,0.00,0.00,0.00,0,,,100,100,0,2,0,0,0,2,2,,,,,0.0,0.0,0.0,0.0,0.0,0.0,0
55.937917,-4.406447,2.80,2.80,0.00,2.09,2.80,2.80,0.60,2.09,6894,2022-06-25 08:20:50.524,2022-06-25 09:20:50.524,10,0,0,16.273,55.937920,-4.406450,0.00,0.00,0.00,-1.40,2.00,166.30,0,1,0,100,100,-6646,3359,16273,2922.50,8,P-GPS,1,0,0,0,0,-242,0,1656145250524,4074,4058,4067,4073,0,0,27,,,,,,,0,0,0,14.00,20.00,1663.00,0.00,0.00,1693.00,6,28.00,0.00,20.95,0.00,0.00,0.00,0,,,100,100,0,2,0,0,0,2,2,,,,,0.0,0.0,0.0,0.0,0.0,0.0,0
55.937917,-4.406447,2.80,2.80,0.00,2.09,2.80,2.80,0.60,2.09,6984,2022-06-25 08:20:50.614,2022-06-25 09:20:50.614,10,0,0,16.273,55.937920,-4.406450,0.00,0.00,0.00,-1.40,2.00,166.30,0,1,0,100,100,-6646,3359,16273,2922.50,8,P-GPS,1,0,0,0,0,-339,0,1656145250614,4074,4058,4067,4073,0,0,27,,,,,,,0,0,0,14.00,20.00,1663.00,0.00,0.00,1691.00,6,28.00,0.00,20.95,0.00,0.00,0.00,0,,,100,100,0,2,0,0,0,2,2,,,,,0.0,0.0,0.0,0.0,0.0,0.0,0
55.937917,-4.406447,2.80,2.80,0.00,2.10,2.80,2.80,0.60,2.10,7103,2022-06-25 08:20:50.733,2022-06-25 09:20:50.733,10,0,0,16.273,55.937920,-4.406450,0.00,0.00,0.00,-1.50,1.70,164.70,0,1,0,100,100,-6646,3359,16273,2922.50,8,P-GPS,1,0,0,0,0,-396,0,1656145250733,4074,4058,4067,4073,0,0,27,,,,,,,0,0,0,15.00,17.00,1647.00,0.00,0.00,1684.00,6,28.00,0.00,21.05,0.00,0.00,0.00,0,,,100,100,0,2,0,0,0,2,2,,,,,0.0,0.0,0.0,0.0,0.0,0.0,0
55.937917,-4.406447,2.80,2.80,0.00,2.11,2.80,2.80,0.60,2.11,7207,2022-06-25 08:20:50.837,2022-06-25 09:20:50.837,10,0,0,16.273,55.937920,-4.406450,0.00,0.00,0.00,-1.50,1.60,163.20,0,1,0,100,100,-6646,3359,16273,2922.50,8,P-GPS,1,0,0,0,0,-437,0,1656145250837,4074,4058,4067,4073,0,0,27,,,,,,,0,0,0,15.00,16.00,1632.00,0.00,0.00,1669.00,6,28.00,0.00,21.09,0.00,0.00,0.00,0,,,100,100,0,2,0,0,0,2,2,,,,,0.0,0.0,0.0,0.0,0.0,0.0,0
55.937917,-4.406447,2.80,2.80,0.00,2.11,2.80,2.80,0.60,2.11,7309,2022-06-25 08:20:50.940,2022-06-25 09:20:50.939,10,0,0,16.273,55.937920,-4.406450,0.00,0.00,0.00,-1.70,1.70,161.30,0,1,0,100,100,-6646,3359,16273,2922.50,8,P-GPS,1,0,0,0,0,-444,0,1656145250939,4074,4058,4067,4073,0,0,27,,,,,,,0,0,0,17.00,17.00,1613.00,0.00,0.00,1649.00,6,28.00,0.00,21.14,0.00,0.00,0.00,0,,,100,100,0,2,0,0,0,2,2,,,,,0.0,0.0,0.0,0.0,0.0,0.0,0
55.937917,-4.406447,2.80,2.80,0.00,2.12,2.80,2.80,0.60,2.12,7407,2022-06-25 08:20:51.038,2022-06-25 09:20:51.037,10,0,0,16.273,55.937920,-4.406450,0.00,0.00,0.00,-1.60,2.10,159.10,0,1,0,100,100,-6646,3359,16273,2922.50,8,P-GPS,1,0,0,0,0,-470,0,1656145251037,4074,4058,4067,4073,0,0,27,,,,,,,0,0,0,16.00,21.00,1591.00,0.00,0.00,1627.00,6,28.00,0.00,21.19,0.00,0.00,0.00,0,,,100,100,0,2,0,0,0,2,2,,,,,0.0,0.0,0.0,0.0,0.0,0.0,0
55.937917,-4.406447,2.80,2.80,0.00,2.14,2.80,2.80,0.60,2.14,7496,2022-06-25 08:20:51.126,2022-06-25 09:20:51.126,10,0,0,16.273,55.937920,-4.406450,0.00,0.00,0.00,-1.60,2.30,156.50,0,1,0,100,100,-6646,3359,16273,2922.50,8,P-GPS,1,0,0,0,0,-515,0,1656145251126,4074,4058,4067,4073,0,0,27,,,,,,,0,0,0,16.00,23.00,1565.00,0.00,0.00,1602.00,6,28.00,0.00,21.39,0.00,0.00,0.00,0,,,100,100,0,2,0,0,0,2,2,,,,,0.0,0.0,0.0,0.0,0.0,0.0,0
55.937917,-4.406447,2.80,2.80,0.00,2.14,2.80,2.80,0.60,2.14,7611,2022-06-25 08:20:51.241,2022-06-25 09:20:51.241,10,0,0,16.267,55.937920,-4.406450,0.00,0.00,0.00,-1.80,2.10,153.30,0,1,0,100,100,-6570,3357,16267,2922.50,8,P-GPS,1,0,0,0,0,-560,0,1656145251241,4074,4058,4067,4073,0,0,27,,,,,,,0,0,0,18.00,21.00,1533.00,0.00,0.00,1572.00,6,28.00,0.00,21.44,0.00,0.00,0.00,0,,,100,100,0,2,0,0,0,2,2,,,,,0.0,0.0,0.0,0.0,0.0,0.0,0
55.937916,-4.406447,2.80,2.80,0.00,2.15,2.80,2.80,0.60,2.15,7701,2022-06-25 08:20:51.331,2022-06-25 09:20:51.331,10,0,0,16.267,55.937920,-4.406450,0.00,0.00,0.00,-2.10,1.80,149.50,0,1,0,100,100,-6570,3357,16267,2922.50,8,P-GPS,1,0,0,0,0,-569,0,1656145251331,4074,4058,4067,4073,0,0,27,,,,,,,0,0,0,21.00,18.00,1495.00,0.00,0.00,1535.00,6,28.00,0.00,21.49,0.00,0.00,0.00,0,,,100,100,0,2,0,0,0,2,2,,,,,0.0,0.0,0.0,0.0,0.0,0.0,0
55.937916,-4.406447,2.80,2.80,0.00,2.16,2.80,2.80,0.60,2.16,7808,2022-06-25 08:20:51.438,2022-06-25 09:20:51.438,10,0,0,16.267,55.937920,-4.406450,0.00,0.00,0.00,-2.10,1.40,145.50,0,1,0,100,100,-6570,3357,16267,2922.50,8,P-GPS,1,0,0,0,0,-570,0,1656145251438,4074,4058,4067,4073,0,0,27,,,,,,,0,0,0,21.00,14.00,1455.00,0.00,0.00,1494.00,6,28.00,0.00,21.56,0.00,0.00,0.00,0,,,100,100,0,2,0,0,0,2,2,,,,,0.0,0.0,0.0,0.0,0.0,0.0,0
55.937916,-4.406447,2.80,2.80,0.00,2.15,2.80,2.80,0.60,2.16,7907,2022-06-25 08:20:51.537,2022-06-25 09:20:51.537,10,0,0,16.267,55.937920,-4.406450,0.00,0.00,0.00,-1.80,1.50,141.30,0,1,0,100,100,-6570,3357,16267,2922.50,8,P-GPS,1,0,0,0,0,-548,0,1656145251537,4074,4058,4067,4073,0,0,27,,,,,,,0,0,0,18.00,15.00,1413.00,0.00,0.00,1452.00,6,28.00,0.00,21.46,0.00,0.00,0.00,0,,,100,100,0,2,0,0,0,2,2,,,,,0.0,0.0,0.0,0.0,0.0,0.0,0
55.937916,-4.406447,2.80,2.80,0.00,2.15,2.80,2.80,0.60,2.16,7996,2022-06-25 08:20:51.626,2022-06-25 09:20:51.626,10,0,0,16.267,55.937920,-4.406450,0.00,0.00,0.00,-1.40,1.60,137.50,0,1,0,100,100,-6570,3357,16267,2922.50,8,P-GPS,1,0,0,0,0,-265,0,1656145251626,4074,4058,4067,4073,0,0,27,,,,,,,0,0,0,14.00,16.00,1375.00,0.00,0.00,1410.00,6,28.00,0.00,21.54,0.00,0.00,0.00,0,,,100,100,0,2,0,0,0,2,2,,,,,0.0,0.0,0.0,0.0,0.0,0.0,0
55.937916,-4.406447,2.80,2.80,0.00,2.15,2.80,2.80,0.60,2.16,8103,2022-06-25 08:20:51.734,2022-06-25 09:20:51.733,10,0,0,16.267,55.937920,-4.406450,0.00,0.00,0.00,-0.90,1.60,135.70,0,1,0,100,100,-6570,3357,16267,2922.50,8,P-GPS,1,0,0,0,0,0,0,1656145251733,4074,4058,4067,4073,0,0,27,,,,,,,0,0,0,9.00,16.00,1357.00,0.00,0.00,1382.00,6,28.00,0.00,21.50,0.00,0.00,0.00,0,,,100,100,0,2,0,0,0,2,2,,,,,0.0,0.0,0.0,0.0,0.0,0.0,0
55.937916,-4.406447,2.80,2.80,0.00,2.16,2.80,2.80,0.60,2.16,8200,2022-06-25 08:20:51.830,2022-06-25 09:20:51.830,10,0,0,16.267,55.937920,-4.406450,0.00,0.00,0.00,-0.30,1.90,135.30,0,1,0,100,100,-6570,3357,16267,2922.50,8,P-GPS,1,0,0,0,0,0,0,1656145251830,4074,4058,4067,4073,0,0,27,,,,,,,0,0,0,3.00,19.00,1353.00,0.00,0.00,1379.00,6,28.00,0.00,21.57,0.00,0.00,0.00,0,,,100,100,0,2,0,0,0,2,2,,,,,0.0,0.0,0.0,0.0,0.0,0.0,0
55.937916,-4.406447,2.80,2.80,0.00,2.17,2.80,2.80,0.60,2.17,8307,2022-06-25 08:20:51.938,2022-06-25 09:20:51.937,10,0,0,16.267,55.937920,-4.406450,0.00,0.00,0.00,-0.20,2.10,135.00,0,1,0,100,100,-6570,3357,16267,2922.50,8,P-GPS,1,0,0,0,0,0,0,1656145251937,4074,4058,4067,4073,0,0,27,,,,,,,0,0,0,2.00,21.00,1350.00,0.00,0.00,1379.00,6,28.00,0.00,21.66,0.00,0.00,0.00,0,,,100,100,0,2,0,0,0,2,2,,,,,0.0,0.0,0.0,0.0,0.0,0.0,0
55.937916,-4.406447,2.80,2.80,0.00,2.17,2.80,2.80,0.60,2.17,8399,2022-06-25 08:20:52.029,2022-06-25 09:20:52.029,10,0,0,16.267,55.937920,-4.406450,0.00,0.00,0.00,-0.60,1.90,134.90,0,1,0,100,100,-6570,3357,16267,2922.50,8,P-GPS,1,0,0,0,0,0,0,1656145252029,4074,4058,4067,4073,0,0,27,,,,,,,0,0,0,6.00,19.00,1349.00,0.00,0.00,1379.00,6,28.00,0.00,21.69,0.00,0.00,0.00,0,,,100,100,0,2,0,0,0,2,2,,,,,0.0,0.0,0.0,0.0,0.0,0.0,0
55.937916,-4.406447,2.80,2.80,0.00,2.17,2.80,2.80,0.60,2.17,8499,2022-06-25 08:20:52.130,2022-06-25 09:20:52.129,10,0,0,16.267,55.937920,-4.406450,0.00,0.00,0.00,-1.00,2.30,134.80,0,1,0,100,100,-6570,3357,16267,2922.50,8,P-GPS,1,0,0,-14,0,0,0,1656145252129,4074,4058,4067,4073,0,0,27,,,,,,,0,0,0,10.00,23.00,1348.00,0.00,0.00,1379.00,6,28.00,0.00,21.74,0.00,0.00,0.00,0,,,100,100,0,2,0,0,0,2,2,,,,,0.0,0.0,0.0,0.0,0.0,0.0,0
55.937916,-4.406447,2.80,2.80,0.00,2.18,2.80,2.80,0.60,2.18,8599,2022-06-25 08:20:52.230,2022-06-25 09:20:52.229,10,0,0,16.205,55.937920,-4.406450,0.00,0.00,0.00,-1.10,3.00,134.80,0,1,0,99,100,-6914,3355,16205,2923.50,8,P-GPS,1,0,0,-141,0,0,0,1656145252229,4074,4058,4067,4073,0,0,27,,,,,,,0,0,0,11.00,30.00,1348.00,0.00,0.00,1379.00,6,28.00,0.00,21.75,0.00,0.00,0.00,0,,,100,100,0,2,0,0,0,2,2,,,,,0.0,0.0,0.0,0.0,0.0,0.0,0
55.937916,-4.406447,2.80,2.80,0.00,2.17,2.80,2.80,0.60,2.18,8698,2022-06-25 08:20:52.328,2022-06-25 09:20:52.328,10,0,0,16.205,55.937920,-4.406450,0.00,0.00,0.00,-1.10,2.90,134.70,0,1,0,99,100,-6914,3355,16205,2923.50,8,P-GPS,1,0,0,-202,0,0,0,1656145252328,4074,4058,4067,4073,0,0,27,,,,,,,0,0,0,11.00,29.00,1347.00,0.00,0.00,1379.00,6,28.00,0.00,21.74,0.00,0.00,0.00,0,,,100,100,0,2,0,0,0,2,2,,,,,0.0,0.0,0.0,0.0,0.0,0.0,0
55.937916,-4.406447,2.80,2.80,0.00,2.17,2.80,2.80,0.60,2.18,8800,2022-06-25 08:20:52.431,2022-06-25 09:20:52.430,10,0,0,16.205,55.937920,-4.406450,0.00,0.00,0.00,-1.30,1.30,134.70,0,1,0,99,100,-6914,3355,16205,2923.50,8,P-GPS,1,0,0,-231,0,0,0,1656145252430,4074,4058,4067,4073,0,0,27,,,,,,,0,0,0,13.00,13.00,1347.00,0.00,0.00,1379.00,6,28.00,0.00,21.73,0.00,0.00,0.00,0,,,100,100,0,2,0,0,0,2,2,,,,,0.0,0.0,0.0,0.0,0.0,0.0,0
55.937916,-4.406447,2.80,2.80,0.00,2.18,2.80,2.80,0.60,2.18,8902,2022-06-25 08:20:52.532,2022-06-25 09:20:52.532,10,0,0,16.205,55.937920,-4.406450,0.00,0.00,0.00,-1.50,-0.30,134.70,0,1,0,99,100,-6914,3355,16205,2923.50,8,P-GPS,1,0,0,-269,0,0,0,1656145252532,4074,4058,4067,4073,0,0,27,,,,,,,0,0,0,15.00,-3.00,1347.00,0.00,0.00,1379.00,6,28.00,0.00,21.82,0.00,0.00,0.00,0,,,100,100,0,2,0,0,0,2,2,,,,,0.0,0.0,0.0,0.0,0.0,0.0,0
55.937916,-4.406447,2.80,2.80,0.10,2.18,2.80,2.80,0.60,2.18,9000,2022-06-25 08:20:52.631,2022-06-25 09:20:52.630,10,0,0,16.205,55.937920,-4.406450,0.10,0.00,0.00,-1.50,-1.80,134.70,0,1,0,99,100,-6914,3355,16205,2923.50,8,P-GPS,1,0,0,-285,0,0,0,1656145252630,4074,4058,4067,4073,0,0,27,,,,,,,0,0,0,15.00,-18.00,1347.00,0.00,0.00,1379.00,6,28.00,1.00,21.81,1.00,0.00,0.00,0,,,100,100,0,2,0,0,0,2,2,,,,,0.0,0.0,0.0,0.0,0.0,0.0,0
55.937916,-4.406447,2.80,2.80,0.10,2.17,2.80,2.80,0.60,2.18,9102,2022-06-25 08:20:52.733,2022-06-25 09:20:52.732,10,0,0,16.205,55.937920,-4.406450,0.10,0.00,0.00,-1.70,-2.90,134.80,0,1,0,99,100,-6914,3355,16205,2923.50,8,P-GPS,1,0,0,-287,0,0,0,1656145252732,4074,4058,4067,4073,0,0,27,,,,,,,0,0,0,17.00,-29.00,1348.00,0.00,0.00,1379.00,6,28.00,1.00,21.74,1.00,0.00,0.00,0,,,100,100,0,2,0,0,0,2,2,,,,,0.0,0.0,0.0,0.0,0.0,0.0,0
55.937916,-4.406447,2.80,2.80,0.22,2.17,2.80,2.80,0.60,2.18,9200,2022-06-25 08:20:52.830,2022-06-25 09:20:52.830,10,0,0,16.205,55.937920,-4.406450,0.20,0.10,0.00,-2.60,-3.40,134.90,0,1,0,99,100,-6914,3355,16205,2923.50,8,P-GPS,1,0,0,-301,0,0,0,1656145252830,4074,4058,4067,4073,0,0,27,,,,,,,0,0,0,26.00,-34.00,1349.00,0.00,0.00,1379.00,6,28.00,2.24,21.70,2.00,1.00,0.00,0,,,100,100,0,2,0,0,0,2,2,,,,,0.0,0.0,0.0,0.0,0.0,0.0,0
55.937917,-4.406446,2.80,2.80,0.22,2.16,2.80,2.80,0.60,2.18,9299,2022-06-25 08:20:52.929,2022-06-25 09:20:52.929,10,0,0,16.205,55.937920,-4.406450,0.20,0.10,0.00,-2.60,-3.00,135.10,0,1,0,99,100,-6914,3355,16205,2923.50,8,P-GPS,1,0,0,-306,0,0,0,1656145252929,4074,4058,4067,4073,0,0,27,,,,,,,0,0,0,26.00,-30.00,1351.00,0.00,0.00,1379.00,6,28.00,2.24,21.63,2.00,1.00,0.00,0,,,100,100,0,2,0,0,0,2,2,,,,,0.0,0.0,0.0,0.0,0.0,0.0,0
55.937917,-4.406446,2.80,2.80,0.36,2.16,2.80,2.80,0.60,2.18,9403,2022-06-25 08:20:53.034,2022-06-25 09:20:53.033,10,0,0,16.205,55.937920,-4.406450,0.30,0.20,0.00,-2.10,-2.90,135.30,0,1,0,99,100,-6914,3355,16205,2923.50,8,P-GPS,1,0,0,-306,0,0,0,1656145253033,4074,4058,4067,4073,0,0,27,,,,,,,0,0,0,21.00,-29.00,1353.00,0.00,0.00,1379.00,6,28.00,3.61,21.60,3.00,2.00,0.00,0,,,100,100,0,2,0,0,0,2,2,,,,,0.0,0.0,0.0,0.0,0.0,0.0,0
55.937917,-4.406446,2.80,2.80,0.36,2.16,2.80,2.80,0.60,2.18,9495,2022-06-25 08:20:53.125,2022-06-25 09:20:53.125,10,0,0,16.205,55.937920,-4.406450,0.30,0.20,0.00,-1.70,-3.30,135.20,0,1,0,99,100,-6914,3355,16205,2923.50,8,P-GPS,1,0,0,-304,0,0,0,1656145253125,4074,4058,4067,4073,0,0,27,,,,,,,0,0,0,17.00,-33.00,1352.00,0.00,0.00,1379.00,6,28.00,3.61,21.59,3.00,2.00,0.00,0,,,100,100,0,2,0,0,0,2,2,,,,,0.0,0.0,0.0,0.0,0.0,0.0,0
55.937917,-4.406445,2.80,2.80,0.50,2.16,2.80,2.80,0.60,2.18,9604,2022-06-25 08:20:53.234,2022-06-25 09:20:53.234,10,0,0,16.195,55.937920,-4.406450,0.40,0.30,0.00,-1.50,-4.10,135.10,0,1,0,99,100,-7003,3353,16195,2923.50,8,P-GPS,1,0,0,-284,0,0,0,1656145253234,4074,4058,4067,4073,0,0,27,,,,,,,0,0,0,15.00,-41.00,1351.00,0.00,0.00,1379.00,6,28.00,5.00,21.59,4.00,3.00,0.00,0,,,100,100,0,2,0,0,0,2,2,,,,,0.0,0.0,0.0,0.0,0.0,0.0,0
55.937918,-4.406444,2.80,2.80,0.57,2.16,2.80,2.80,0.60,2.18,9704,2022-06-25 08:20:53.335,2022-06-25 09:20:53.334,10,0,0,16.195,55.937920,-4.406450,0.40,0.40,0.00,-1.50,-4.10,134.90,0,1,0,99,100,-7003,3353,16195,2923.50,8,P-GPS,1,0,0,-282,0,0,0,1656145253334,4074,4058,4067,4073,0,0,27,,,,,,,0,0,0,15.00,-41.00,1349.00,0.00,0.00,1379.00,6,28.00,5.66,21.57,4.00,4.00,0.00,0,,,100,100,0,2,0,0,0,2,2,,,,,0.0,0.0,0.0,0.0,0.0,0.0,0
55.937918,-4.406444,2.80,2.80,0.71,2.16,2.80,2.80,0.71,2.18,9799,2022-06-25 08:20:53.430,2022-06-25 09:20:53.429,10,0,0,16.195,55.937920,-4.406450,0.50,0.50,0.00,-1.30,-3.50,134.80,0,1,0,99,100,-7003,3353,16195,2923.50,8,P-GPS,1,0,0,-277,0,0,0,1656145253429,4074,4058,4067,4073,0,0,27,,,,,,,0,0,0,13.00,-35.00,1348.00,0.00,0.00,1379.00,6,28.00,7.07,21.61,5.00,5.00,0.00,0,,,100,100,0,2,0,0,0,2,2,,,,,0.0,0.0,0.0,0.0,0.0,0.0,0
55.937919,-4.406443,2.80,2.80,0.71,2.16,2.80,2.80,0.71,2.18,9900,2022-06-25 08:20:53.530,2022-06-25 09:20:53.530,10,0,0,16.195,55.937920,-4.406450,0.50,0.50,0.00,-1.10,-3.10,134.70,0,1,0,99,100,-7003,3353,16195,2923.50,8,P-GPS,1,0,0,-270,0,0,0,1656145253530,4074,4058,4067,4073,0,0,27,,,,,,,0,0,0,11.00,-31.00,1347.00,0.00,0.00,1379.00,6,28.00,7.07,21.60,5.00,5.00,0.00,0,,,100,100,0,2,0,0,0,2,2,,,,,0.0,0.0,0.0,0.0,0.0,0.0,0
55.937919,-4.406442,2.80,2.80,0.85,2.17,2.80,2.80,0.85,2.18,10000,2022-06-25 08:20:53.630,2022-06-25 09:20:53.630,10,0,0,16.195,55.937920,-4.406450,0.60,0.60,0.00,-0.90,-2.70,134.70,0,1,0,99,100,-7003,3353,16195,2923.50,8,P-GPS,1,0,0,-267,0,0,0,1656145253630,4074,4058,4067,4073,0,0,27,,,,,,,0,0,0,9.00,-27.00,1347.00,0.00,0.00,1379.00,6,28.00,8.49,21.71,6.00,6.00,0.00,0,,,100,100,0,2,0,0,0,2,2,,,,,0.0,0.0,0.0,0.0,0.0,0.0,0
55.937920,-4.406441,2.80,2.80,0.85,2.15,2.80,2.80,0.85,2.18,10095,2022-06-25 08:20:53.725,2022-06-25 09:20:53.725,10,0,0,16.195,55.937920,-4.406450,0.60,0.60,0.00,-1.00,-2.40,134.80,0,1,0,99,100,-7003,3353,16195,2923.50,8,P-GPS,1,0,0,-265,0,0,0,1656145253725,4074,4058,4067,4073,0,0,27,,,,,,,0,0,0,10.00,-24.00,1348.00,0.00,0.00,1379.00,6,28.00,8.49,21.54,6.00,6.00,0.00,0,,,100,100,0,2,0,0,0,2,2,,,,,0.0,0.0,0.0,0.0,0.0,0.0,0
55.937921,-4.406440,2.80,2.80,0.85,2.17,2.80,2.80,0.85,2.18,10201,2022-06-25 08:20:53.831,2022-06-25 09:20:53.831,10,0,0,16.195,55.937920,-4.406450,0.60,0.60,0.00,-1.00,-1.70,134.70,0,1,0,99,100,-7003,3353,16195,2923.50,8,P-GPS,1,0,0,-262,0,0,0,1656145253831,4074,4058,4067,4073,0,0,27,,,,,,,0,0,0,10.00,-17.00,1347.00,0.00,0.00,1379.00,6,28.00,8.49,21.72,6.00,6.00,0.00,0,,,100,100,0,2,0,0,0,2,2,,,,,0.0,0.0,0.0,0.0,0.0,0.0,0
55.937921,-4.406439,2.80,2.80,0.92,2.21,2.80,2.80,0.92,2.21,10299,2022-06-25 08:20:53.930,2022-06-25 09:20:53.929,10,0,0,16.195,55.937920,-4.406450,0.60,0.70,0.00,-0.70,-1.50,134.70,0,1,0,99,100,-7003,3353,16195,2923.50,8,P-GPS,1,0,0,-260,0,0,0,1656145253929,4074,4058,4067,4073,0,0,27,,,,,,,0,0,0,7.00,-15.00,1347.00,0.00,0.00,1379.00,6,28.00,9.22,22.05,6.00,7.00,0.00,0,,,100,100,0,2,0,0,0,2,2,,,,,0.0,0.0,0.0,0.0,0.0,0.0,0
55.937922,-4.406437,2.80,2.80,0.99,2.23,2.80,2.80,0.99,2.23,10399,2022-06-25 08:20:54.029,2022-06-25 09:20:54.029,10,0,0,16.195,55.937920,-4.406450,0.70,0.70,0.00,-0.80,-1.70,134.70,0,1,0,99,100,-7003,3353,16195,2923.50,8,P-GPS,1,0,0,-260,0,0,0,1656145254029,4074,4058,4067,4073,0,0,27,,,,,,,0,0,0,8.00,-17.00,1347.00,0.00,0.00,1379.00,6,28.00,9.90,22.34,7.00,7.00,0.00,0,,,100,100,0,2,0,0,0,2,2,,,,,0.0,0.0,0.0,0.0,0.0,0.0,0
55.937923,-4.406437,2.80,2.80,0.99,2.21,2.80,2.80,0.99,2.23,10494,2022-06-25 08:20:54.124,2022-06-25 09:20:54.124,10,0,0,16.195,55.937920,-4.406450,0.70,0.70,0.00,-0.40,-1.90,134.60,0,1,0,99,100,-7003,3353,16195,2923.50,8,P-GPS,1,0,0,-260,0,0,0,1656145254124,4074,4058,4067,4073,0,0,27,,,,,,,0,0,0,4.00,-19.00,1346.00,0.00,0.00,1379.00,6,28.00,9.90,22.11,7.00,7.00,0.00,0,,,100,100,0,2,0,0,0,2,2,,,,,0.0,0.0,0.0,0.0,0.0,0.0,0
55.937923,-4.406436,2.80,2.80,0.99,2.25,2.80,2.80,0.99,2.25,10602,2022-06-25 08:20:54.232,2022-06-25 09:20:54.232,10,0,0,16.195,55.937920,-4.406450,0.70,0.70,0.00,-0.10,-1.70,134.60,0,1,0,99,100,-7003,3353,16195,2923.50,8,P-GPS,1,0,0,-261,0,0,0,1656145254232,4074,4058,4067,4073,0,0,27,,,,,,,0,0,0,1.00,-17.00,1346.00,0.00,0.00,1379.00,6,28.00,9.90,22.46,7.00,7.00,0.00,0,,,100,100,0,2,0,0,0,2,2,,,,,0.0,0.0,0.0,0.0,0.0,0.0,0
55.937924,-4.406435,2.80,2.80,1.06,2.28,2.80,2.80,1.06,2.28,10700,2022-06-25 08:20:54.331,2022-06-25 09:20:54.330,10,0,0,16.195,55.937920,-4.406450,0.70,0.80,0.00,0.00,-1.50,134.50,0,1,0,99,100,-7003,3353,16195,2923.50,8,P-GPS,1,0,0,-261,0,0,0,1656145254330,4074,4058,4067,4073,0,0,27,,,,,,,0,0,0,-0.00,-15.00,1345.00,0.00,0.00,1379.00,6,28.00,10.63,22.80,7.00,8.00,0.00,0,,,100,100,0,2,0,0,0,2,2,,,,,0.0,0.0,0.0,0.0,0.0,0.0,0
55.937925,-4.406433,2.80,2.80,1.06,2.32,2.80,2.80,1.06,2.32,10801,2022-06-25 08:20:54.432,2022-06-25 09:20:54.431,10,0,0,16.195,55.937920,-4.406450,0.70,0.80,0.00,0.10,-1.50,134.50,0,1,0,99,100,-7003,3353,16195,2923.50,8,P-GPS,1,0,0,-261,0,-53,0,1656145254431,4074,4058,4067,4073,0,0,27,,,,,,,0,0,0,-1.00,-15.00,1345.00,0.00,0.00,1379.00,6,28.00,10.63,23.24,7.00,8.00,0.00,0,,,100,100,0,2,0,0,0,2,2,,,,,0.0,0.0,0.0,0.0,0.0,0.0,0
55.937926,-4.406432,2.80,2.80,1.13,2.35,2.80,2.80,1.13,2.35,10899,2022-06-25 08:20:54.530,2022-06-25 09:20:54.529,10,0,0,16.195,55.937920,-4.406450,0.80,0.80,0.00,0.00,-1.60,134.50,0,1,0,99,100,-7003,3353,16195,2923.50,8,P-GPS,1,0,0,-261,0,-101,0,1656145254529,4074,4058,4067,4073,0,0,27,,,,,,,0,0,0,-0.00,-16.00,1345.00,0.00,0.00,1379.00,6,28.00,11.31,23.46,8.00,8.00,0.00,0,,,100,100,0,2,0,0,0,2,2,,,,,0.0,0.0,0.0,0.0,0.0,0.0,0
55.937926,-4.406432,2.80,2.80,1.13,2.35,2.80,2.80,1.13,2.35,10986,2022-06-25 08:20:54.616,2022-06-25 09:20:54.616,10,0,0,16.195,55.937920,-4.406450,0.80,0.80,0.00,0.00,-1.60,134.50,0,1,0,99,100,-7003,3353,16195,2923.50,8,P-GPS,1,0,0,-262,0,-118,0,1656145254616,4074,4058,4067,4073,0,0,27,,,,,,,0,0,0,-0.00,-16.00,1345.00,0.00,0.00,1378.00,6,28.00,11.31,23.46,8.00,8.00,0.00,0,,,100,100,0,2,0,0,0,2,2,,,,,0.0,0.0,0.0,0.0,0.0,0.0,0
55.937927,-4.406430,2.80,2.80,1.13,2.44,2.80,2.80,1.13,2.44,11098,2022-06-25 08:20:54.728,2022-06-25 09:20:54.728,10,0,0,16.195,55.937920,-4.406450,0.80,0.80,0.00,-0.20,-2.40,134.30,0,1,0,99,100,-7003,3353,16195,2923.50,8,P-GPS,1,0,0,-263,0,-122,0,1656145254728,4074,4058,4067,4073,0,0,27,,,,,,,0,0,0,2.00,-24.00,1343.00,0.00,0.00,1377.00,6,28.00,11.31,24.36,8.00,8.00,0.00,0,,,100,100,0,2,0,0,0,2,2,,,,,0.0,0.0,0.0,0.0,0.0,0.0,0
55.937928,-4.406429,2.80,2.80,1.13,2.49,2.80,2.80,1.13,2.49,11202,2022-06-25 08:20:54.833,2022-06-25 09:20:54.832,10,0,0,16.195,55.937920,-4.406450,0.80,0.80,0.00,-0.50,-2.70,134.20,0,1,0,99,100,-7003,3353,16195,2923.50,8,P-GPS,1,0,0,-263,0,-124,0,1656145254832,4074,4058,4067,4073,0,0,27,,,,,,,0,0,0,5.00,-27.00,1342.00,0.00,0.00,1376.00,6,28.00,11.31,24.94,8.00,8.00,0.00,0,,,100,100,0,2,0,0,0,2,2,,,,,0.0,0.0,0.0,0.0,0.0,0.0,0
55.937929,-4.406428,2.80,2.80,1.13,2.55,2.80,2.80,1.13,2.55,11299,2022-06-25 08:20:54.930,2022-06-25 09:20:54.929,10,0,0,16.195,55.937920,-4.406450,0.80,0.80,0.00,-0.60,-2.90,134.00,0,1,0,99,100,-7003,3353,16195,2923.50,8,P-GPS,1,0,0,-263,0,-162,0,1656145254929,4074,4058,4067,4073,0,0,27,,,,,,,0,0,0,6.00,-29.00,1340.00,0.00,0.00,1376.00,6,28.00,11.31,25.53,8.00,8.00,0.00,0,,,100,100,0,2,0,0,0,2,2,,,,,0.0,0.0,0.0,0.0,0.0,0.0,0
55.937930,-4.406426,2.80,2.80,1.27,2.62,2.80,2.80,1.27,2.62,11395,2022-06-25 08:20:55.025,2022-06-25 09:20:55.025,10,0,0,16.195,55.937920,-4.406450,0.90,0.90,0.00,-0.60,-2.90,133.90,0,1,0,99,100,-7003,3353,16195,2923.50,8,P-GPS,1,0,0,-265,0,-272,0,1656145255025,4074,4058,4067,4073,0,0,27,,,,,,,0,0,0,6.00,-29.00,1339.00,0.00,0.00,1374.00,6,28.00,12.73,26.23,9.00,9.00,0.00,0,,,100,100,0,2,0,0,0,2,2,,,,,0.0,0.0,0.0,0.0,0.0,0.0,0
55.937931,-4.406425,2.80,2.80,1.27,2.69,2.80,2.80,1.27,2.69,11497,2022-06-25 08:20:55.127,2022-06-25 09:20:55.127,10,0,0,16.195,55.937920,-4.406450,0.90,0.90,0.00,-0.80,-2.70,132.10,0,1,0,99,100,-7003,3353,16195,2923.50,8,P-GPS,1,0,0,-265,0,-286,0,1656145255127,4074,4058,4067,4073,0,0,27,,,,,,,0,0,0,8.00,-27.00,1321.00,0.00,0.00,1370.00,6,28.00,12.73,26.89,9.00,9.00,0.00,0,,,100,100,0,2,0,0,0,2,2,,,,,0.0,0.0,0.0,0.0,0.0,0.0,0
55.937932,-4.406424,2.80,2.80,1.35,2.77,2.80,2.80,1.35,2.77,11603,2022-06-25 08:20:55.233,2022-06-25 09:20:55.233,10,0,0,16.133,55.937920,-4.406450,1.00,0.90,0.00,-0.60,-2.80,129.20,0,1,0,99,100,-7038,3351,16133,2924.50,8,P-GPS,1,0,0,-265,0,-283,0,1656145255233,4074,4058,4067,4073,0,0,27,,,,,,,0,0,0,6.00,-28.00,1292.00,0.00,0.00,1362.00,6,28.00,13.45,27.70,10.00,9.00,0.00,0,,,100,100,0,2,0,0,0,2,2,,,,,0.0,0.0,0.0,0.0,0.0,0.0,0
55.937933,-4.406423,2.80,2.80,1.35,2.86,2.80,2.80,1.35,2.86,11704,2022-06-25 08:20:55.334,2022-06-25 09:20:55.334,10,0,0,16.133,55.937920,-4.406450,1.00,0.90,0.00,-0.20,-2.50,127.10,0,1,0,99,100,-7038,3351,16133,2924.50,8,P-GPS,1,0,0,-263,0,-275,0,1656145255334,4074,4058,4067,4073,0,0,27,,,,,,,0,0,0,2.00,-25.00,1271.00,0.00,0.00,1354.00,6,28.00,13.45,28.62,10.00,9.00,0.00,0,,,100,100,0,2,0,0,0,2,2,,,,,0.0,0.0,0.0,0.0,0.0,0.0,0
55.937934,-4.406421,2.80,2.80,1.36,2.96,2.80,2.80,1.36,2.96,11814,2022-06-25 08:20:55.444,2022-06-25 09:20:55.444,10,0,0,16.133,55.937920,-4.406450,1.10,0.80,0.00,-0.10,-2.30,125.30,0,1,0,99,100,-7038,3351,16133,2924.50,8,P-GPS,1,0,0,-262,0,-206,0,1656145255444,4074,4058,4067,4073,0,0,27,,,,,,,0,0,0,1.00,-23.00,1253.00,0.00,0.00,1346.00,6,28.00,13.60,29.55,11.00,8.00,0.00,0,,,100,100,0,2,0,0,0,2,2,,,,,0.0,0.0,0.0,0.0,0.0,0.0,0
55.937935,-4.406420,2.80,2.80,1.36,3.05,2.80,2.80,1.36,3.05,11897,2022-06-25 08:20:55.527,2022-06-25 09:20:55.527,10,0,0,16.133,55.937920,-4.406450,1.10,0.80,0.00,-0.10,-2.40,124.30,0,1,0,99,100,-7038,3351,16133,2924.50,8,P-GPS,1,0,0,-255,16,-78,0,1656145255527,4074,4058,4067,4073,0,0,27,,,,,,,0,0,0,1.00,-24.00,1243.00,0.00,0.00,1340.00,6,28.00,13.60,30.53,11.00,8.00,0.00,0,,,100,100,0,2,0,0,0,2,2,,,,,0.0,0.0,0.0,0.0,0.0,0.0,0
55.937936,-4.406418,2.80,2.80,1.44,3.16,2.80,2.80,1.44,3.16,12003,2022-06-25 08:20:55.635,2022-06-25 09:20:55.634,10,0,0,16.133,55.937920,-4.406450,1.20,0.80,0.00,-0.20,-2.00,123.50,0,1,0,99,100,-7038,3351,16133,2924.50,8,P-GPS,1,0,0,-255,112,-71,0,1656145255633,4074,4058,4067,4073,0,0,27,,,,,,,0,0,0,2.00,-20.00,1235.00,0.00,0.00,1338.00,6,28.00,14.42,31.55,12.00,8.00,0.00,0,,,100,100,0,2,0,0,0,2,2,,,,,0.0,0.0,0.0,0.0,0.0,0.0,0
55.937937,-4.406417,2.80,2.80,1.44,3.27,2.80,2.80,1.44,3.27,12101,2022-06-25 08:20:55.731,2022-06-25 09:20:55.731,10,0,0,16.133,55.937920,-4.406450,1.20,0.80,0.00,-0.60,-1.90,123.50,0,1,0,99,100,-7038,3351,16133,2924.50,8,P-GPS,1,0,0,-255,125,-70,0,1656145255731,4074,4058,4067,4073,0,0,27,,,,,,,0,0,0,6.00,-19.00,1235.00,0.00,0.00,1337.00,6,28.00,14.42,32.66,12.00,8.00,0.00,0,,,100,100,0,2,0,0,0,2,2,,,,,0.0,0.0,0.0,0.0,0.0,0.0,0
55.937938,-4.406416,2.80,2.80,1.44,3.38,2.80,2.80,1.44,3.38,12200,2022-06-25 08:20:55.830,2022-06-25 09:20:55.830,10,0,0,16.133,55.937920,-4.406450,1.20,0.80,0.00,-0.80,-1.40,123.20,0,1,0,99,100,-7038,3351,16133,2924.50,8,P-GPS,1,0,0,-256,166,-71,0,1656145255830,4074,4058,4067,4073,0,0,27,,,,,,,0,0,0,8.00,-14.00,1232.00,0.00,0.00,1337.00,6,28.00,14.42,33.79,12.00,8.00,0.00,0,,,100,100,0,2,0,0,0,2,2,,,,,0.0,0.0,0.0,0.0,0.0,0.0,0
55.937940,-4.406414,2.80,2.80,1.50,3.51,2.80,2.80,1.50,3.51,12300,2022-06-25 08:20:55.931,2022-06-25 09:20:55.930,10,0,0,16.133,55.937920,-4.406450,1.20,0.90,0.00,-0.60,-0.70,123.50,0,1,0,99,100,-7038,3351,16133,2924.50,8,P-GPS,1,0,0,-256,211,-59,0,1656145255930,4074,4058,4067,4073,0,0,27,,,,,,,0,0,0,6.00,-7.00,1235.00,0.00,0.00,1336.00,6,28.00,15.00,35.08,12.00,9.00,0.00,0,,,100,100,0,2,0,0,0,2,2,,,,,0.0,0.0,0.0,0.0,0.0,0.0,0
55.937941,-4.406413,2.80,2.80,1.50,3.63,2.80,2.80,1.50,3.63,12399,2022-06-25 08:20:56.030,2022-06-25 09:20:56.029,10,0,0,16.133,55.937920,-4.406450,1.20,0.90,-0.10,-0.40,-0.60,123.40,0,1,0,99,100,-7038,3351,16133,2924.50,8,P-GPS,1,0,0,-256,205,-42,0,1656145256029,4074,4058,4067,4073,0,0,27,,,,,,,0,0,0,4.00,-6.00,1234.00,0.00,0.00,1336.00,6,28.00,15.03,36.29,12.00,9.00,-1.00,0,,,100,100,0,2,0,0,0,2,2,,,,,0.0,0.0,0.0,0.0,0.0,0.0,0
55.937942,-4.406411,2.90,2.80,1.46,3.75,2.90,2.90,1.50,3.75,12499,2022-06-25 08:20:56.129,2022-06-25 09:20:56.129,10,0,0,16.133,55.937920,-4.406450,1.20,0.80,-0.20,-0.30,-0.70,123.60,0,1,0,99,100,-7038,3351,16133,2924.50,8,P-GPS,1,0,0,-255,208,-42,0,1656145256129,4074,4058,4067,4073,0,0,27,,,,,,,0,0,0,3.00,-7.00,1236.00,0.00,0.00,1336.00,6,29.00,14.56,37.48,12.00,8.00,-2.00,0,,,100,100,0,2,0,0,0,2,2,,,,,0.0,0.0,0.0,0.0,0.0,0.0,0
55.937943,-4.406410,2.90,2.90,1.46,3.87,2.90,2.90,1.50,3.87,12601,2022-06-25 08:20:56.231,2022-06-25 09:20:56.231,10,0,0,16.107,55.937920,-4.406450,1.20,0.80,-0.20,-0.40,-1.10,123.40,0,1,0,99,100,-7315,3349,16107,2924.50,8,P-GPS,1,0,0,-256,209,-30,0,1656145256231,4074,4058,4067,4073,0,0,27,,,,,,,0,0,0,4.00,-11.00,1234.00,0.00,0.00,1336.00,6,29.00,14.56,38.73,12.00,8.00,-2.00,0,,,100,100,0,2,0,0,0,2,2,,,,,0.0,0.0,0.0,0.0,0.0,0.0,0
55.937944,-4.406408,2.90,2.90,1.47,4.02,2.90,2.90,1.50,4.02,12701,2022-06-25 08:20:56.332,2022-06-25 09:20:56.331,10,0,0,16.107,55.937920,-4.406450,1.20,0.80,-0.30,-0.60,-1.60,123.50,0,1,0,99,100,-7315,3349,16107,2924.50,8,P-GPS,1,0,0,-256,208,-17,0,1656145256331,4074,4058,4067,4073,0,0,27,,,,,,,0,0,0,6.00,-16.00,1235.00,0.00,0.00,1335.00,6,29.00,14.73,40.16,12.00,8.00,-3.00,0,,,100,100,0,2,0,0,0,2,2,,,,,0.0,0.0,0.0,0.0,0.0,0.0,0
55.937946,-4.406407,3.00,2.90,1.53,4.15,3.00,3.00,1.53,4.15,12809,2022-06-25 08:20:56.441,2022-06-25 09:20:56.439,10,0,0,16.107,55.937920,-4.406450,1.20,0.90,-0.30,-0.50,-1.50,123.50,0,1,0,99,100,-7315,3349,16107,2924.50,8,P-GPS,1,0,0,-256,226,0,0,1656145256439,4074,4058,4067,4073,0,0,27,,,,,,,0,0,0,5.00,-15.00,1235.00,0.00,0.00,1335.00,6,30.00,15.30,41.48,12.00,9.00,-3.00,0,,,100,100,0,2,0,0,0,2,2,,,,,0.0,0.0,0.0,0.0,0.0,0.0,0
55.937947,-4.406405,3.00,2.90,1.61,4.29,3.00,3.00,1.61,4.29,12897,2022-06-25 08:20:56.527,2022-06-25 09:20:56.527,10,0,0,16.107,55.937920,-4.406450,1.30,0.90,-0.30,-0.50,-1.20,123.50,0,1,0,99,100,-7315,3349,16107,2924.50,8,P-GPS,1,0,0,-258,267,0,0,1656145256527,4074,4058,4067,4073,0,0,27,,,,,,,0,0,0,5.00,-12.00,1235.00,0.00,0.00,1335.00,6,30.00,16.09,42.94,13.00,9.00,-3.00,0,,,100,100,0,2,0,0,0,2,2,,,,,0.0,0.0,0.0,0.0,0.0,0.0,0
55.937948,-4.406404,3.00,3.00,1.63,4.43,3.00,3.00,1.63,4.43,12999,2022-06-25 08:20:56.629,2022-06-25 09:20:56.629,10,0,0,16.107,55.937920,-4.406450,1.30,0.90,-0.40,-0.60,-1.30,123.30,0,1,0,99,100,-7315,3349,16107,2924.50,8,P-GPS,1,0,0,-282,276,0,0,1656145256629,4074,4058,4067,4073,0,0,27,,,,,,,0,0,0,6.00,-13.00,1233.00,0.00,0.00,1335.00,6,30.00,16.31,44.32,13.00,9.00,-4.00,0,,,100,100,0,2,0,0,0,2,2,,,,,0.0,0.0,0.0,0.0,0.0,0.0,0
55.937949,-4.406402,3.10,3.00,1.66,4.57,3.10,3.10,1.66,4.57,13100,2022-06-25 08:20:56.731,2022-06-25 09:20:56.730,10,0,0,16.107,55.937920,-4.406450,1.30,0.90,-0.50,-0.80,-2.10,123.40,0,1,0,99,100,-7315,3349,16107,2924.50,8,P-GPS,1,0,0,-307,277,0,0,1656145256730,4038,4019,4019,4019,0,0,27,,,,,,,0,0,0,8.00,-21.00,1234.00,0.00,0.00,1335.00,6,31.00,16.58,45.66,13.00,9.00,-5.00,0,,,100,100,0,2,0,0,0,2,2,,,,,0.0,0.0,0.0,0.0,0.0,0.0,0
55.937951,-4.406401,3.10,3.10,1.66,4.71,3.10,3.10,1.66,4.71,13200,2022-06-25 08:20:56.831,2022-06-25 09:20:56.831,10,0,0,16.107,55.937920,-4.406450,1.30,0.90,-0.50,-0.80,-2.90,123.30,0,1,0,99,100,-7315,3349,16107,2924.50,8,P-GPS,1,0,0,-328,270,0,0,1656145256830,4038,4019,4019,4019,0,0,27,,,,,,,0,0,0,8.00,-29.00,1233.00,0.00,0.00,1335.00,6,31.00,16.58,47.09,13.00,9.00,-5.00,0,,,100,100,0,2,0,0,0,2,2,,,,,0.0,0.0,0.0,0.0,0.0,0.0,0
55.937952,-4.406399,3.20,3.10,1.66,4.87,3.20,3.20,1.66,4.87,13299,2022-06-25 08:20:56.930,2022-06-25 09:20:56.929,10,0,0,16.107,55.937920,-4.406450,1.30,0.90,-0.50,-0.70,-3.50,123.40,0,1,0,99,100,-7315,3349,16107,2924.50,8,P-GPS,1,0,0,-335,263,0,0,1656145256929,4038,4019,4019,4019,0,0,27,,,,,,,0,0,0,7.00,-35.00,1234.00,0.00,0.00,1335.00,6,32.00,16.58,48.66,13.00,9.00,-5.00,0,,,100,100,0,2,0,0,0,2,2,,,,,0.0,0.0,0.0,0.0,0.0,0.0,0
55.937953,-4.406398,3.20,3.20,1.74,5.02,3.20,3.20,1.74,5.02,13400,2022-06-25 08:20:57.030,2022-06-25 09:20:57.030,10,0,0,16.107,55.937920,-4.406450,1.40,0.90,-0.50,-0.70,-4.00,123.40,0,1,0,99,100,-7315,3349,16107,2924.50,8,P-GPS,1,0,0,-343,260,0,0,1656145257030,4038,4019,4019,4019,0,0,27,,,,,,,0,0,0,7.00,-40.00,1234.00,0.00,0.00,1335.00,6,32.00,17.38,50.19,14.00,9.00,-5.00,0,,,100,100,0,2,0,0,0,2,2,,,,,0.0,0.0,0.0,0.0,0.0,0.0,0
55.937954,-4.406396,3.30,3.20,1.79,5.16,3.30,3.30,1.79,5.16,13496,2022-06-25 08:20:57.127,2022-06-25 09:20:57.126,10,0,0,16.107,55.937920,-4.406450,1.40,1.00,-0.50,-0.60,-4.40,123.50,0,1,0,99,100,-7315,3349,16107,2924.50,8,P-GPS,1,0,0,-365,259,0,0,1656145257126,4038,4019,4019,4019,0,0,27,,,,,,,0,0,0,6.00,-44.00,1235.00,0.00,0.00,1335.00,6,33.00,17.92,51.63,14.00,10.00,-5.00,0,,,100,100,0,2,0,0,0,2,2,,,,,0.0,0.0,0.0,0.0,0.0,0.0,0
55.937956,-4.406395,3.30,3.30,1.87,5.33,3.30,3.30,1.87,5.33,13600,2022-06-25 08:20:57.231,2022-06-25 09:20:57.230,10,0,0,16.155,55.937920,-4.406450,1.50,1.00,-0.50,-0.40,-5.20,123.40,0,1,0,99,100,-6941,3347,16155,2924.50,8,P-GPS,1,0,0,-376,260,0,0,1656145257230,4038,4019,4019,4019,0,0,27,,,,,,,0,0,0,4.00,-52.00,1234.00,0.00,0.00,1335.00,6,33.00,18.71,53.26,15.00,10.00,-5.00,0,,,100,100,0,2,0,0,0,2,2,,,,,0.0,0.0,0.0,0.0,0.0,0.0,0
55.937957,-4.406393,3.40,3.30,1.87,5.51,3.40,3.40,1.87,5.51,13701,2022-06-25 08:20:57.331,2022-06-25 09:20:57.331,10,0,0,16.155,55.937920,-4.406450,1.50,1.00,-0.50,-0.40,-6.20,123.50,0,1,0,99,100,-6941,3347,16155,2924.50,8,P-GPS,1,0,0,-374,259,0,0,1656145257331,4038,4019,4019,4019,0,0,27,,,,,,,0,0,0,4.00,-62.00,1235.00,0.00,0.00,1335.00,6,34.00,18.71,55.15,15.00,10.00,-5.00,0,,,100,100,0,2,0,0,0,2,2,,,,,0.0,0.0,0.0,0.0,0.0,0.0,0
