latitude,longitude,altitude(m),ultrasonicHeight(m),speed(mps),distance(m),max_altitude(m),max_ascent(m),max_speed(mps),max_distance(m),time(millisecond),datetime(utc),datetime(local),satellites,pressure(Pa),temperature(F),voltage(v),home_latitude,home_longitude,velocityX(mps),velocityY(mps),velocityZ(mps),pitch(deg),roll(deg),yaw(deg),powerlevel,isflying,istakingphoto,remainPowerPercent,remainLifePercent,currentCurrent,currentElectricity,currentVoltage,batteryTemperature,dischargeCount,flightmode,isMotorsOn,isTakingVideo,Rc_elevator,Rc_aileron,Rc_throttle,Rc_rudder,Rc_gyro,timestamp,Battery_Cell1,Battery_Cell2,Battery_Cell3,Battery_Cell4,Battery_Cell5,Battery_Cell6,Dronetype,AppVersion,Planename,FlyControllerSerialNumber,RemoteSerialNumber,BatterySerialNumber,CENTER_BATTERY.productDate,CENTER_BATTERY.serialNo,CENTER_BATTERY.fullCapacity,CENTER_BATTERY.productDateRaw,pitchRaw,rollRaw,yawRaw,gimbalPitchRaw,gimbalRollRaw,gimbalYawRaw,flyState,altitudeRaw,speedRaw,distanceRaw,velocityXRaw,velocityYRaw,velocityZRaw,data_reuse,App_Tip,App_Warning,downlinkSignalQuality,uplinkSignalQuality,transmissionChannel,rcModeSwitch,rcHome,rcPause,rcTransform,rcJoystickMode,appMode,FlyControllerSerialNumber_legacy,RemoteSerialNumber_legacy,BatterySerialNumber_legacy,Battery2SerialNumber,frontAvoidDist,backAvoidDist,rightAvoidDist,leftAvoidDist,upAvoidDist,downAvoidDist,isBrakingToAvoid
55.953343,-4.403010,0.10,0.20,0.22,0.34,0.10,0.10,0.22,0.34,0,2022-09-09 10:44:01.471,2022-09-09 11:44:01.471,16,0,0,17.046,55.953344,-4.403005,0.00,-0.10,-0.20,2.90,-1.80,-105.80,0,1,0,99,100,-2128,3258,17046,2972.50,11,P-GPS,1,0,0,0,154,0,0,1662720241471,4329,4320,4333,4332,0,0,27,Litchi_4.24.1-g,CJTMAVIC,163DFAS001K45C,0VECFAK0072T52,0P2AFAL5340E87,,0,0,0,-29.00,-18.00,-1058.00,0.00,0.00,-1112.00,6,1.00,2.24,3.36,0.00,-1.00,-2.00,0,,,100,100,0,1,0,0,0,2,0,,,,null,0.0,4.1,0.0,0.0,0.0,0.0,0
55.953343,-4.403010,0.20,0.30,0.24,0.35,0.20,0.20,0.24,0.35,101,2022-09-09 10:44:01.573,2022-09-09 11:44:01.572,16,0,0,17.046,55.953344,-4.403005,0.10,-0.10,-0.20,2.30,-2.80,-105.70,0,1,0,99,100,-2128,3258,17046,2972.50,11,P-GPS,1,0,0,0,156,0,0,1662720241572,4329,4320,4333,4332,0,0,27,,,,,,,0,0,0,-23.00,-28.00,-1057.00,0.00,0.00,-1112.00,6,2.00,2.45,3.49,1.00,-1.00,-2.00,0,,,100,100,0,1,0,0,0,2,0,,,,,0.0,4.1,0.0,0.0,0.0,0.0,0
55.953343,-4.403011,0.20,0.30,0.22,0.38,0.20,0.20,0.24,0.38,206,2022-09-09 10:44:01.678,2022-09-09 11:44:01.677,16,0,0,17.046,55.953344,-4.403005,0.00,-0.10,-0.20,2.20,-3.00,-105.70,0,1,0,99,100,-2128,3258,17046,2972.50,11,P-GPS,1,0,0,0,161,0,0,1662720241677,4329,4320,4333,4332,0,0,27,,,,,,,0,0,0,-22.00,-30.00,-1057.00,0.00,0.00,-1112.00,6,2.00,2.24,3.83,0.00,-1.00,-2.00,0,,,100,100,0,1,0,0,0,2,0,,,,,0.0,4.1,0.0,0.0,0.0,0.0,0
55.953343,-4.403011,0.20,0.30,0.22,0.40,0.20,0.20,0.24,0.40,313,2022-09-09 10:44:01.785,2022-09-09 11:44:01.785,16,0,0,17.046,55.953344,-4.403005,0.00,-0.10,-0.20,2.20,-2.80,-105.60,0,1,0,99,100,-2128,3258,17046,2972.50,11,P-GPS,1,0,0,0,170,0,0,1662720241784,4329,4320,4333,4332,0,0,27,,,,,,,0,0,0,-22.00,-28.00,-1056.00,0.00,0.00,-1112.00,6,2.00,2.24,3.97,0.00,-1.00,-2.00,0,,,100,100,0,1,0,0,0,2,0,,,,,0.0,4.4,0.0,0.0,0.0,0.0,0
55.953343,-4.403011,0.20,0.30,0.22,0.40,0.20,0.20,0.24,0.40,408,2022-09-09 10:44:01.880,2022-09-09 11:44:01.880,16,0,0,17.046,55.953344,-4.403005,0.00,-0.10,-0.20,2.50,-2.20,-105.50,0,1,0,99,100,-2128,3258,17046,2972.50,11,P-GPS,1,0,0,0,199,0,0,1662720241879,4329,4320,4333,4332,0,0,27,,,,,,,0,0,0,-25.00,-22.00,-1055.00,0.00,0.00,-1112.00,6,2.00,2.24,4.04,0.00,-1.00,-2.00,0,,,100,100,0,1,0,0,0,2,0,,,,,0.0,4.4,0.0,0.0,0.0,0.0,0
55.953343,-4.403011,0.20,0.30,0.22,0.42,0.20,0.20,0.24,0.42,509,2022-09-09 10:44:01.980,2022-09-09 11:44:01.980,16,0,0,17.046,55.953344,-4.403005,0.00,-0.10,-0.20,2.50,-1.80,-105.50,0,1,0,99,100,-2128,3258,17046,2972.50,11,P-GPS,1,0,0,0,222,0,0,1662720241980,4329,4320,4333,4332,0,0,27,,,,,,,0,0,0,-25.00,-18.00,-1055.00,0.00,0.00,-1112.00,6,2.00,2.24,4.18,0.00,-1.00,-2.00,0,,,100,100,0,1,0,0,0,2,0,,,,,0.0,4.4,0.0,0.0,0.0,0.0,0
55.953343,-4.403011,0.20,0.30,0.22,0.42,0.20,0.20,0.24,0.42,597,2022-09-09 10:44:02.068,2022-09-09 11:44:02.068,16,0,0,17.046,55.953344,-4.403005,0.00,-0.10,-0.20,2.50,-1.80,-105.50,0,1,0,99,100,-2128,3258,17046,2972.50,11,P-GPS,1,0,0,0,250,0,0,1662720242068,4329,4320,4333,4332,0,0,27,,,,,,,0,0,0,-25.00,-18.00,-1055.00,0.00,0.00,-1112.00,6,2.00,2.24,4.18,0.00,-1.00,-2.00,0,,,100,100,0,1,0,0,0,2,0,,,,,0.0,4.4,0.0,0.0,0.0,0.0,0
55.953343,-4.403012,0.30,0.40,0.32,0.45,0.30,0.30,0.32,0.45,720,2022-09-09 10:44:02.191,2022-09-09 11:44:02.191,16,0,0,17.046,55.953344,-4.403005,0.00,-0.10,-0.30,2.10,-2.10,-105.60,0,1,0,99,100,-2128,3258,17046,2972.50,11,P-GPS,1,0,0,0,285,0,0,1662720242191,4329,4320,4333,4332,0,0,27,,,,,,,0,0,0,-21.00,-21.00,-1056.00,0.00,0.00,-1112.00,6,3.00,3.16,4.54,0.00,-1.00,-3.00,0,,,100,100,0,1,0,0,0,2,0,,,,,0.0,4.4,0.0,0.0,0.0,0.0,0
55.953343,-4.403012,0.40,0.50,0.41,0.50,0.40,0.40,0.41,0.50,899,2022-09-09 10:44:02.370,2022-09-09 11:44:02.370,16,0,0,17.046,55.953344,-4.403005,0.00,-0.10,-0.40,2.70,-1.80,-105.80,0,1,0,99,100,-2128,3258,17046,2972.50,11,P-GPS,1,0,0,0,333,0,0,1662720242370,4329,4320,4333,4332,0,0,27,,,,,,,0,0,0,-27.00,-18.00,-1058.00,0.00,0.00,-1112.00,6,4.00,4.12,4.97,0.00,-1.00,-4.00,0,,,100,100,0,1,0,0,0,2,0,,,,,0.0,4.4,0.0,0.0,0.0,0.0,0
55.953343,-4.403013,0.40,0.50,0.61,0.52,0.40,0.40,0.61,0.52,1006,2022-09-09 10:44:02.477,2022-09-09 11:44:02.477,16,0,0,17.046,55.953344,-4.403005,0.00,-0.10,-0.60,3.70,-2.40,-106.00,0,1,0,99,100,-2128,3258,17046,2972.50,11,P-GPS,1,0,0,0,334,0,0,1662720242477,4329,4320,4333,4332,0,0,27,,,,,,,0,0,0,-37.00,-24.00,-1060.00,0.00,0.00,-1112.00,6,4.00,6.08,5.17,0.00,-1.00,-6.00,0,,,100,100,0,1,0,0,0,2,0,,,,,0.0,4.9,0.0,0.0,0.0,0.0,0
55.953343,-4.403013,0.50,0.60,0.71,0.54,0.50,0.50,0.71,0.54,1104,2022-09-09 10:44:02.576,2022-09-09 11:44:02.575,16,0,0,17.046,55.953344,-4.403005,0.10,-0.10,-0.70,4.10,-3.20,-106.20,0,1,0,99,100,-2128,3258,17046,2972.50,11,P-GPS,1,0,0,0,334,0,0,1662720242575,4329,4320,4333,4332,0,0,27,,,,,,,0,0,0,-41.00,-32.00,-1062.00,0.00,0.00,-1112.00,6,5.00,7.14,5.38,1.00,-1.00,-7.00,0,,,100,100,0,1,0,0,0,2,0,,,,,0.0,4.9,0.0,0.0,0.0,0.0,0
55.953343,-4.403013,0.60,0.60,0.81,0.55,0.60,0.60,0.81,0.55,1210,2022-09-09 10:44:02.681,2022-09-09 11:44:02.681,16,0,0,17.046,55.953344,-4.403005,0.00,-0.10,-0.80,4.10,-4.10,-106.20,0,1,0,99,100,-2128,3258,17046,2972.50,11,P-GPS,1,0,0,0,334,0,0,1662720242681,4329,4320,4333,4332,0,0,27,,,,,,,0,0,0,-41.00,-41.00,-1062.00,0.00,0.00,-1112.00,6,6.00,8.06,5.49,0.00,-1.00,-8.00,0,,,100,100,0,1,0,0,0,2,0,,,,,0.0,4.9,0.0,0.0,0.0,0.0,0
55.953343,-4.403014,0.60,0.70,0.91,0.57,0.60,0.60,0.91,0.57,1305,2022-09-09 10:44:02.777,2022-09-09 11:44:02.776,16,0,0,17.046,55.953344,-4.403005,0.00,-0.10,-0.90,4.30,-4.10,-106.10,0,1,0,99,100,-2128,3258,17046,2972.50,11,P-GPS,1,0,0,0,334,0,0,1662720242776,4329,4320,4333,4332,0,0,27,,,,,,,0,0,0,-43.00,-41.00,-1061.00,0.00,0.00,-1112.00,6,6.00,9.06,5.67,0.00,-1.00,-9.00,0,,,100,100,0,1,0,0,0,2,0,,,,,0.0,4.9,0.0,0.0,0.0,0.0,0
55.953343,-4.403014,0.70,0.80,0.91,0.59,0.70,0.70,0.91,0.59,1398,2022-09-09 10:44:02.870,2022-09-09 11:44:02.869,16,0,0,16.571,55.953344,-4.403005,0.00,-0.10,-0.90,4.60,-4.40,-106.00,0,1,0,99,100,-5493,3256,16571,2972.50,11,P-GPS,1,0,0,0,334,0,0,1662720242869,4329,4320,4333,4332,0,0,27,,,,,,,0,0,0,-46.00,-44.00,-1060.00,0.00,0.00,-1112.00,6,7.00,9.06,5.90,0.00,-1.00,-9.00,0,,,100,100,0,1,0,0,0,2,0,,,,,0.0,5.2,0.0,0.0,0.0,0.0,0
55.953343,-4.403014,0.80,0.90,0.91,0.61,0.80,0.80,0.91,0.61,1498,2022-09-09 10:44:02.969,2022-09-09 11:44:02.969,16,0,0,16.571,55.953344,-4.403005,0.00,-0.10,-0.90,4.80,-3.90,-105.90,0,1,0,99,100,-5493,3256,16571,2972.50,11,P-GPS,1,0,0,0,334,0,0,1662720242969,4329,4320,4333,4332,0,0,27,,,,,,,0,0,0,-48.00,-39.00,-1059.00,0.00,0.00,-1112.00,6,8.00,9.06,6.06,0.00,-1.00,-9.00,0,,,100,100,0,1,0,0,0,2,0,,,,,0.0,5.2,0.0,0.0,0.0,0.0,0
55.953343,-4.403014,0.90,1.00,0.90,0.60,0.90,0.90,0.91,0.61,1602,2022-09-09 10:44:03.074,2022-09-09 11:44:03.074,16,0,0,16.571,55.953344,-4.403005,0.00,0.00,-0.90,4.90,-3.30,-105.80,0,1,0,99,100,-5493,3256,16571,2972.50,11,P-GPS,1,0,0,0,334,0,0,1662720243073,4329,4320,4333,4332,0,0,27,,,,,,,0,0,0,-49.00,-33.00,-1058.00,0.00,0.00,-1112.00,6,9.00,9.00,6.05,0.00,0.00,-9.00,0,,,100,100,0,1,0,0,0,2,0,,,,,0.0,5.3,0.0,0.0,0.0,0.0,0
55.953343,-4.403014,1.00,1.10,0.90,0.61,1.00,1.00,0.91,0.61,1716,2022-09-09 10:44:03.188,2022-09-09 11:44:03.187,16,0,0,16.571,55.953344,-4.403005,0.00,0.00,-0.90,4.30,-3.50,-105.90,0,1,0,99,100,-5493,3256,16571,2972.50,11,P-GPS,1,0,0,0,334,0,0,1662720243187,4329,4320,4333,4332,0,0,27,,,,,,,0,0,0,-43.00,-35.00,-1059.00,0.00,0.00,-1112.00,6,10.00,9.00,6.15,0.00,0.00,-9.00,0,,,100,100,0,1,0,0,0,2,0,,,,,0.0,5.3,0.0,0.0,0.0,0.0,0
55.953343,-4.403015,1.10,1.20,0.90,0.63,1.10,1.10,0.91,0.63,1808,2022-09-09 10:44:03.280,2022-09-09 11:44:03.280,16,0,0,16.571,55.953344,-4.403005,0.00,0.00,-0.90,4.10,-3.30,-105.90,0,1,0,99,100,-5493,3256,16571,2972.50,11,P-GPS,1,0,0,0,334,0,0,1662720243279,4329,4320,4333,4332,0,0,27,,,,,,,0,0,0,-41.00,-33.00,-1059.00,0.00,0.00,-1112.00,6,11.00,9.00,6.34,0.00,0.00,-9.00,0,,,100,100,0,1,0,0,0,2,0,,,,,0.0,5.4,0.0,0.0,0.0,0.0,0
55.953343,-4.403015,1.20,1.30,0.80,0.64,1.20,1.20,0.91,0.64,1914,2022-09-09 10:44:03.386,2022-09-09 11:44:03.385,16,0,0,16.571,55.953344,-4.403005,0.00,0.00,-0.80,3.60,-2.70,-105.90,0,1,0,99,100,-5493,3256,16571,2972.50,11,P-GPS,1,0,0,0,334,0,0,1662720243385,4329,4320,4333,4332,0,0,27,,,,,,,0,0,0,-36.00,-27.00,-1059.00,0.00,0.00,-1112.00,6,12.00,8.00,6.40,0.00,0.00,-8.00,0,,,100,100,0,1,0,0,0,2,0,,,,,0.0,5.4,0.0,0.0,0.0,0.0,0
55.953343,-4.403014,1.30,1.40,0.80,0.62,1.30,1.30,0.91,0.64,2001,2022-09-09 10:44:03.472,2022-09-09 11:44:03.472,16,0,0,16.571,55.953344,-4.403005,0.00,0.00,-0.80,3.40,-2.30,-105.90,0,1,0,99,100,-5493,3256,16571,2972.50,11,P-GPS,1,0,0,0,334,0,0,1662720243472,4329,4320,4333,4332,0,0,27,,,,,,,0,0,0,-34.00,-23.00,-1059.00,0.00,0.00,-1112.00,6,13.00,8.00,6.21,0.00,0.00,-8.00,0,,,100,100,0,1,0,0,0,2,0,,,,,0.0,5.3,0.0,0.0,0.0,0.0,0
55.953343,-4.403014,1.40,1.50,0.80,0.62,1.40,1.40,0.91,0.64,2105,2022-09-09 10:44:03.577,2022-09-09 11:44:03.576,16,0,0,16.571,55.953344,-4.403005,0.00,0.00,-0.80,3.20,-1.90,-105.90,0,1,0,99,100,-5493,3256,16571,2972.50,11,P-GPS,1,0,0,0,334,0,0,1662720243576,4329,4320,4333,4332,0,0,27,,,,,,,0,0,0,-32.00,-19.00,-1059.00,0.00,0.00,-1112.00,6,14.00,8.00,6.24,0.00,0.00,-8.00,0,,,100,100,0,1,0,0,0,2,0,,,,,0.0,5.3,0.0,0.0,0.0,0.0,0
55.953343,-4.403014,1.50,1.50,0.80,0.62,1.50,1.50,0.91,0.64,2197,2022-09-09 10:44:03.669,2022-09-09 11:44:03.668,16,0,0,16.571,55.953344,-4.403005,0.00,0.00,-0.80,3.20,-2.30,-105.90,0,1,0,99,100,-5493,3256,16571,2972.50,11,P-GPS,1,0,0,0,334,0,0,1662720243668,4329,4320,4333,4332,0,0,27,,,,,,,0,0,0,-32.00,-23.00,-1059.00,0.00,0.00,-1112.00,6,15.00,8.00,6.24,0.00,0.00,-8.00,0,,,100,100,0,1,0,0,0,2,0,,,,,0.0,5.3,0.0,0.0,0.0,0.0,0
55.953343,-4.403015,1.50,1.60,0.80,0.63,1.50,1.50,0.91,0.64,2302,2022-09-09 10:44:03.774,2022-09-09 11:44:03.773,16,0,0,16.571,55.953344,-4.403005,0.00,0.00,-0.80,3.60,-2.40,-105.80,0,1,0,99,100,-5493,3256,16571,2972.50,11,P-GPS,1,0,0,0,334,0,0,1662720243773,4329,4320,4333,4332,0,0,27,,,,,,,0,0,0,-36.00,-24.00,-1058.00,0.00,0.00,-1112.00,6,15.00,8.00,6.27,0.00,0.00,-8.00,0,,,100,100,0,1,0,0,0,2,0,,,,,0.0,5.3,0.0,0.0,0.0,0.0,0
55.953343,-4.403014,1.60,1.70,0.80,0.62,1.60,1.60,0.91,0.64,2468,2022-09-09 10:44:03.940,2022-09-09 11:44:03.939,16,0,0,16.417,55.953344,-4.403005,0.00,0.00,-0.80,3.70,-2.70,-105.70,0,1,0,99,100,-7108,3254,16417,2972.50,11,P-GPS,1,0,0,0,334,0,0,1662720243939,4329,4320,4333,4332,0,0,27,,,,,,,0,0,0,-37.00,-27.00,-1057.00,0.00,0.00,-1112.00,6,16.00,8.00,6.19,0.00,0.00,-8.00,0,,,100,100,0,1,0,0,0,2,0,,,,,0.0,5.1,0.0,0.0,0.0,0.0,0
55.953343,-4.403014,1.70,1.80,0.80,0.62,1.70,1.70,0.91,0.64,2578,2022-09-09 10:44:04.050,2022-09-09 11:44:04.049,16,0,0,16.417,55.953344,-4.403005,0.00,0.00,-0.80,3.00,-2.30,-105.90,0,1,0,99,100,-7108,3254,16417,2972.50,11,P-GPS,1,0,0,0,334,0,0,1662720244049,4329,4320,4333,4332,0,0,27,,,,,,,0,0,0,-30.00,-23.00,-1059.00,0.00,0.00,-1112.00,6,17.00,8.00,6.19,0.00,0.00,-8.00,0,,,100,100,0,1,0,0,0,2,0,,,,,0.0,5.1,0.0,0.0,0.0,0.0,0
55.953343,-4.403014,1.90,2.00,0.90,0.61,1.90,1.90,0.91,0.64,2700,2022-09-09 10:44:04.172,2022-09-09 11:44:04.171,16,0,0,16.417,55.953344,-4.403005,0.00,0.00,-0.90,3.10,-2.10,-105.90,0,1,0,99,100,-7108,3254,16417,2972.50,11,P-GPS,1,0,0,0,333,0,0,1662720244171,4329,4320,4333,4332,0,0,27,,,,,,,0,0,0,-31.00,-21.00,-1059.00,0.00,0.00,-1112.00,6,19.00,9.00,6.14,0.00,0.00,-9.00,0,,,100,100,0,1,0,0,0,2,0,,,,,0.0,5.1,0.0,0.0,0.0,0.0,0
55.953343,-4.403014,2.00,2.00,0.80,0.62,2.00,2.00,0.91,0.64,2804,2022-09-09 10:44:04.275,2022-09-09 11:44:04.275,16,0,0,16.417,55.953344,-4.403005,0.00,0.00,-0.80,2.80,-2.00,-105.80,0,1,0,99,100,-7108,3254,16417,2972.50,11,P-GPS,1,0,0,0,333,0,0,1662720244275,4329,4320,4333,4332,0,0,27,,,,,,,0,0,0,-28.00,-20.00,-1058.00,0.00,0.00,-1112.00,6,20.00,8.00,6.18,0.00,0.00,-8.00,0,,,100,100,0,1,0,0,0,2,0,,,,,0.0,5.0,0.0,0.0,0.0,0.0,0
55.953343,-4.403014,2.10,2.10,0.80,0.61,2.10,2.10,0.91,0.64,2900,2022-09-09 10:44:04.371,2022-09-09 11:44:04.371,16,0,0,16.417,55.953344,-4.403005,0.00,0.00,-0.80,2.50,-2.00,-105.70,0,1,0,99,100,-7108,3254,16417,2972.50,11,P-GPS,1,0,0,0,335,0,0,1662720244371,4329,4320,4333,4332,0,0,27,,,,,,,0,0,0,-25.00,-20.00,-1057.00,0.00,0.00,-1112.00,6,21.00,8.00,6.14,0.00,0.00,-8.00,0,,,100,100,0,1,0,0,0,2,0,,,,,0.0,5.0,0.0,0.0,0.0,0.0,0
55.953343,-4.403014,2.20,2.20,0.80,0.59,2.20,2.20,0.91,0.64,3004,2022-09-09 10:44:04.475,2022-09-09 11:44:04.475,16,0,0,16.417,55.953344,-4.403005,0.00,0.00,-0.80,2.20,-2.30,-105.60,0,1,0,99,100,-7108,3254,16417,2972.50,11,P-GPS,1,0,0,0,336,0,0,1662720244475,4329,4320,4333,4332,0,0,27,,,,,,,0,0,0,-22.00,-23.00,-1056.00,0.00,0.00,-1112.00,6,22.00,8.00,5.93,0.00,0.00,-8.00,0,,,100,100,0,1,0,0,0,2,0,,,,,0.0,4.9,0.0,0.0,0.0,0.0,0
55.953343,-4.403014,2.20,2.30,0.80,0.59,2.20,2.20,0.91,0.64,3102,2022-09-09 10:44:04.574,2022-09-09 11:44:04.573,16,0,0,16.417,55.953344,-4.403005,0.00,0.00,-0.80,2.10,-1.90,-105.60,0,1,0,99,100,-7108,3254,16417,2972.50,11,P-GPS,1,0,0,0,337,0,0,1662720244573,4329,4320,4333,4332,0,0,27,,,,,,,0,0,0,-21.00,-19.00,-1056.00,0.00,0.00,-1112.00,6,22.00,8.00,5.88,0.00,0.00,-8.00,0,,,100,100,0,1,0,0,0,2,0,,,,,0.0,4.9,0.0,0.0,0.0,0.0,0
55.953343,-4.403014,2.30,2.40,0.80,0.57,2.30,2.30,0.91,0.64,3199,2022-09-09 10:44:04.671,2022-09-09 11:44:04.670,16,0,0,16.417,55.953344,-4.403005,0.00,0.00,-0.80,2.00,-1.50,-105.50,0,1,0,99,100,-7108,3254,16417,2972.50,11,P-GPS,1,0,0,0,341,0,0,1662720244670,4329,4320,4333,4332,0,0,27,,,,,,,0,0,0,-20.00,-15.00,-1055.00,0.00,0.00,-1112.00,6,23.00,8.00,5.73,0.00,0.00,-8.00,0,,,100,100,0,1,0,0,0,2,0,,,,,0.0,4.9,0.0,0.0,0.0,0.0,0
55.953343,-4.403014,2.40,2.40,0.90,0.57,2.40,2.40,0.91,0.64,3299,2022-09-09 10:44:04.771,2022-09-09 11:44:04.771,16,0,0,16.417,55.953344,-4.403005,0.00,0.00,-0.90,1.60,-1.20,-105.60,0,1,0,99,100,-7108,3254,16417,2972.50,11,P-GPS,1,0,0,0,347,0,0,1662720244770,4329,4320,4333,4332,0,0,27,,,,,,,0,0,0,-16.00,-12.00,-1056.00,0.00,0.00,-1112.00,6,24.00,9.00,5.68,0.00,0.00,-9.00,0,,,100,100,0,1,0,0,0,2,0,,,,,0.0,4.9,0.0,0.0,0.0,0.0,0
55.953343,-4.403013,2.50,2.50,0.90,0.56,2.50,2.50,0.91,0.64,3408,2022-09-09 10:44:04.880,2022-09-09 11:44:04.879,16,0,0,16.346,55.953344,-4.403005,0.00,0.00,-0.90,1.60,-1.10,-105.60,0,1,0,99,100,-7909,3252,16346,2973.50,11,P-GPS,1,0,0,0,378,0,0,1662720244879,4329,4320,4333,4332,0,0,27,,,,,,,0,0,0,-16.00,-11.00,-1056.00,0.00,0.00,-1112.00,6,25.00,9.00,5.55,0.00,0.00,-9.00,0,,,100,100,0,1,0,0,0,2,0,,,,,0.0,4.9,0.0,0.0,0.0,0.0,0
55.953343,-4.403013,2.60,2.60,0.90,0.55,2.60,2.60,0.91,0.64,3501,2022-09-09 10:44:04.972,2022-09-09 11:44:04.972,16,0,0,16.346,55.953344,-4.403005,0.00,0.00,-0.90,1.80,-0.70,-105.70,0,1,0,99,100,-7909,3252,16346,2973.50,11,P-GPS,1,0,0,0,396,0,0,1662720244972,4329,4320,4333,4332,0,0,27,,,,,,,0,0,0,-18.00,-7.00,-1057.00,0.00,0.00,-1112.00,6,26.00,9.00,5.52,0.00,0.00,-9.00,0,,,100,100,0,1,0,0,0,2,0,,,,,0.0,4.9,0.0,0.0,0.0,0.0,0
55.953343,-4.403013,2.60,2.60,0.90,0.55,2.60,2.60,0.91,0.64,3590,2022-09-09 10:44:05.062,2022-09-09 11:44:05.062,16,0,0,16.346,55.953344,-4.403005,0.00,0.00,-0.90,1.80,-0.70,-105.70,0,1,0,99,100,-7909,3252,16346,2973.50,11,P-GPS,1,0,0,0,433,0,0,1662720245061,4329,4320,4333,4332,0,0,27,,,,,,,0,0,0,-18.00,-7.00,-1057.00,0.00,0.00,-1112.00,6,26.00,9.00,5.52,0.00,0.00,-9.00,0,,,100,100,0,1,0,0,0,2,0,,,,,0.0,4.9,0.0,0.0,0.0,0.0,0
55.953343,-4.403013,2.80,2.80,1.20,0.55,2.80,2.80,1.20,0.64,3699,2022-09-09 10:44:05.171,2022-09-09 11:44:05.170,16,0,0,16.346,55.953344,-4.403005,0.00,0.00,-1.20,2.20,-0.10,-105.80,0,1,0,99,100,-7909,3252,16346,2973.50,11,P-GPS,1,0,0,0,457,0,0,1662720245170,4329,4320,4333,4332,0,0,27,,,,,,,0,0,0,-22.00,-1.00,-1058.00,0.00,0.00,-1112.00,6,28.00,12.00,5.47,0.00,0.00,-12.00,0,,,100,100,0,1,0,0,0,2,0,,,,,0.0,4.9,0.0,0.0,0.0,0.0,0
55.953342,-4.403013,3.00,3.00,1.40,0.55,3.00,3.00,1.40,0.64,3800,2022-09-09 10:44:05.272,2022-09-09 11:44:05.272,16,0,0,16.346,55.953344,-4.403005,0.00,0.00,-1.40,0.50,-1.00,-105.70,0,1,0,99,100,-7909,3252,16346,2973.50,11,P-GPS,1,0,0,0,465,0,0,1662720245271,4329,4320,4333,4332,0,0,27,,,,,,,0,0,0,-5.00,-10.00,-1057.00,0.00,0.00,-1112.00,6,30.00,14.00,5.51,0.00,0.00,-14.00,0,,,100,100,0,1,0,0,0,2,0,,,,,0.0,4.7,0.0,0.0,0.0,0.0,0
55.953342,-4.403013,3.10,3.10,1.70,0.56,3.10,3.10,1.70,0.64,3909,2022-09-09 10:44:05.380,2022-09-09 11:44:05.380,16,0,0,16.346,55.953344,-4.403005,-0.10,0.00,-1.70,1.70,-0.90,-105.60,0,1,0,99,100,-7909,3252,16346,2973.50,11,P-GPS,1,0,0,0,465,0,0,1662720245380,4329,4320,4333,4332,0,0,27,,,,,,,0,0,0,-17.00,-9.00,-1056.00,0.00,0.00,-1112.00,6,31.00,17.03,5.57,-1.00,0.00,-17.00,0,,,100,100,0,1,0,0,0,2,0,,,,,0.0,4.7,0.0,0.0,0.0,0.0,0
55.953342,-4.403013,3.30,3.30,1.90,0.56,3.30,3.30,1.90,0.64,4000,2022-09-09 10:44:05.472,2022-09-09 11:44:05.471,16,0,0,16.346,55.953344,-4.403005,-0.10,0.00,-1.90,3.20,-0.10,-105.50,0,1,0,99,100,-7909,3252,16346,2973.50,11,P-GPS,1,0,0,0,465,0,0,1662720245471,4329,4320,4333,4332,0,0,27,,,,,,,0,0,0,-32.00,-1.00,-1055.00,0.00,0.00,-1112.00,6,33.00,19.03,5.59,-1.00,0.00,-19.00,0,,,100,100,0,1,0,0,0,2,0,,,,,0.0,4.7,0.0,0.0,0.0,0.0,0
55.953342,-4.403013,3.50,3.50,1.90,0.57,3.50,3.50,1.90,0.64,4098,2022-09-09 10:44:05.570,2022-09-09 11:44:05.569,16,0,0,16.346,55.953344,-4.403005,-0.10,0.00,-1.90,4.10,1.30,-105.70,0,1,0,99,100,-7909,3252,16346,2973.50,11,P-GPS,1,0,0,0,463,0,0,1662720245569,4329,4320,4333,4332,0,0,27,,,,,,,0,0,0,-41.00,13.00,-1057.00,0.00,0.00,-1112.00,6,35.00,19.03,5.72,-1.00,0.00,-19.00,0,,,100,100,0,1,0,0,0,2,0,,,,,0.0,12.1,0.0,0.0,0.0,0.0,0
55.953342,-4.403013,3.70,3.70,1.90,0.59,3.70,3.70,1.90,0.64,4309,2022-09-09 10:44:05.781,2022-09-09 11:44:05.780,16,0,0,16.346,55.953344,-4.403005,0.00,-0.10,-1.90,5.00,1.10,-105.70,0,1,0,99,100,-7909,3252,16346,2973.50,11,P-GPS,1,0,0,0,460,0,0,1662720245780,4329,4320,4333,4332,0,0,27,,,,,,,0,0,0,-50.00,11.00,-1057.00,0.00,0.00,-1112.00,6,37.00,19.03,5.92,0.00,-1.00,-19.00,0,,,100,100,0,1,0,0,0,2,0,,,,,0.0,0.0,0.0,0.0,0.0,0.0,0
55.953342,-4.403014,4.10,4.10,1.80,0.61,4.10,4.10,1.90,0.64,4398,2022-09-09 10:44:05.870,2022-09-09 11:44:05.869,16,0,0,16.250,55.953344,-4.403005,0.00,-0.10,-1.80,5.60,-0.50,-105.70,0,1,0,99,100,-7684,3250,16250,2974.50,11,P-GPS,1,0,0,0,454,0,0,1662720245869,4329,4320,4333,4332,0,0,27,,,,,,,0,0,0,-56.00,-5.00,-1057.00,0.00,0.00,-1112.00,6,41.00,18.03,6.10,0.00,-1.00,-18.00,0,,,100,100,0,1,0,0,0,2,0,,,,,0.0,0.0,0.0,0.0,0.0,0.0,0
55.953342,-4.403014,4.30,4.20,1.80,0.62,4.30,4.30,1.90,0.64,4497,2022-09-09 10:44:05.968,2022-09-09 11:44:05.968,16,0,0,16.250,55.953344,-4.403005,0.00,0.00,-1.80,5.30,-1.60,-105.80,0,1,0,99,100,-7684,3250,16250,2974.50,11,P-GPS,1,0,0,0,422,0,0,1662720245968,4329,4320,4333,4332,0,0,27,,,,,,,0,0,0,-53.00,-16.00,-1058.00,0.00,0.00,-1112.00,6,43.00,18.00,6.18,0.00,0.00,-18.00,0,,,100,100,0,1,0,0,0,2,0,,,,,0.0,0.0,0.0,0.0,0.0,0.0,0
55.953342,-4.403014,4.40,4.40,1.70,0.63,4.40,4.40,1.90,0.64,4601,2022-09-09 10:44:06.072,2022-09-09 11:44:06.072,16,0,0,16.250,55.953344,-4.403005,0.00,0.00,-1.70,5.10,-2.10,-105.80,0,1,0,99,100,-7684,3250,16250,2974.50,11,P-GPS,1,0,0,0,400,0,0,1662720246072,4329,4320,4333,4332,0,0,27,,,,,,,0,0,0,-51.00,-21.00,-1058.00,0.00,0.00,-1112.00,6,44.00,17.00,6.34,0.00,0.00,-17.00,0,,,100,100,0,1,0,0,0,2,0,,,,,0.0,0.0,0.0,0.0,0.0,0.0,0
55.953342,-4.403014,4.60,4.60,1.60,0.64,4.60,4.60,1.90,0.64,4700,2022-09-09 10:44:06.171,2022-09-09 11:44:06.171,16,0,0,16.250,55.953344,-4.403005,0.00,0.00,-1.60,5.10,-2.90,-105.80,0,1,0,99,100,-7684,3250,16250,2974.50,11,P-GPS,1,0,0,0,381,0,0,1662720246171,4329,4320,4333,4332,0,0,27,,,,,,,0,0,0,-51.00,-29.00,-1058.00,0.00,0.00,-1112.00,6,46.00,16.00,6.39,0.00,0.00,-16.00,0,,,100,100,0,1,0,0,0,2,0,,,,,0.0,0.0,0.0,0.0,0.0,0.0,0
55.953342,-4.403014,4.80,4.70,1.40,0.64,4.80,4.80,1.90,0.64,4798,2022-09-09 10:44:06.270,2022-09-09 11:44:06.270,16,0,0,16.250,55.953344,-4.403005,0.00,0.00,-1.40,4.80,-2.90,-105.90,0,1,0,99,100,-7684,3250,16250,2974.50,11,P-GPS,1,0,0,0,369,0,0,1662720246269,4329,4320,4333,4332,0,0,27,,,,,,,0,0,0,-48.00,-29.00,-1059.00,0.00,0.00,-1112.00,6,48.00,14.00,6.37,0.00,0.00,-14.00,0,,,100,100,0,1,0,0,0,2,0,,,,,0.0,0.0,0.0,0.0,0.0,0.0,0
55.953342,-4.403014,4.90,4.90,1.30,0.64,4.90,4.90,1.90,0.64,4899,2022-09-09 10:44:06.371,2022-09-09 11:44:06.370,16,0,0,16.250,55.953344,-4.403005,0.10,0.00,-1.30,4.60,-3.20,-105.90,0,1,0,99,100,-7684,3250,16250,2974.50,11,P-GPS,1,0,0,0,361,0,0,1662720246370,4329,4320,4333,4332,0,0,27,,,,,,,0,0,0,-46.00,-32.00,-1059.00,0.00,0.00,-1112.00,6,49.00,13.04,6.40,1.00,0.00,-13.00,0,,,100,100,0,1,0,0,0,2,0,,,,,0.0,0.0,0.0,0.0,0.0,0.0,0
55.953342,-4.403015,5.00,5.00,1.20,0.66,5.00,5.00,1.90,0.66,5005,2022-09-09 10:44:06.477,2022-09-09 11:44:06.476,16,0,0,16.250,55.953344,-4.403005,0.10,0.00,-1.20,4.40,-3.80,-105.90,0,1,0,99,100,-7684,3250,16250,2974.50,11,P-GPS,1,0,0,0,343,0,0,1662720246476,4329,4320,4333,4332,0,0,27,,,,,,,0,0,0,-44.00,-38.00,-1059.00,0.00,0.00,-1112.00,6,50.00,12.04,6.57,1.00,0.00,-12.00,0,,,100,100,0,1,0,0,0,2,0,,,,,0.0,0.0,0.0,0.0,0.0,0.0,0
55.953342,-4.403015,5.10,5.10,1.10,0.66,5.10,5.10,1.90,0.66,5101,2022-09-09 10:44:06.573,2022-09-09 11:44:06.573,16,0,0,16.250,55.953344,-4.403005,0.00,0.00,-1.10,4.70,-4.20,-106.00,0,1,0,99,100,-7684,3250,16250,2974.50,11,P-GPS,1,0,0,0,331,0,0,1662720246572,4329,4320,4333,4332,0,0,27,,,,,,,0,0,0,-47.00,-42.00,-1060.00,0.00,0.00,-1112.00,6,51.00,11.00,6.61,0.00,0.00,-11.00,0,,,100,100,0,1,0,0,0,2,0,,,,,0.0,0.0,0.0,0.0,0.0,0.0,0
55.953342,-4.403015,5.30,5.20,1.00,0.67,5.30,5.30,1.90,0.67,5204,2022-09-09 10:44:06.676,2022-09-09 11:44:06.675,16,0,0,16.250,55.953344,-4.403005,0.00,0.00,-1.00,4.70,-3.60,-106.00,0,1,0,99,100,-7684,3250,16250,2974.50,11,P-GPS,1,0,0,44,308,0,0,1662720246675,4329,4320,4333,4332,0,0,27,,,,,,,0,0,0,-47.00,-36.00,-1060.00,0.00,0.00,-1112.00,6,53.00,10.00,6.67,0.00,0.00,-10.00,0,,,100,100,0,1,0,0,0,2,0,,,,,0.0,0.0,0.0,0.0,0.0,0.0,0
55.953342,-4.403015,5.30,5.30,0.90,0.67,5.30,5.30,1.90,0.67,5301,2022-09-09 10:44:06.772,2022-09-09 11:44:06.772,16,0,0,16.250,55.953344,-4.403005,0.00,0.00,-0.90,4.70,-3.20,-105.90,0,1,0,99,100,-7684,3250,16250,2974.50,11,P-GPS,1,0,0,158,301,0,0,1662720246772,4329,4320,4333,4332,0,0,27,,,,,,,0,0,0,-47.00,-32.00,-1059.00,0.00,0.00,-1112.00,6,53.00,9.00,6.70,0.00,0.00,-9.00,0,,,100,100,0,1,0,0,0,2,0,,,,,0.0,0.0,0.0,0.0,0.0,0.0,0
55.953342,-4.403015,5.40,5.30,0.80,0.68,5.40,5.40,1.90,0.68,5401,2022-09-09 10:44:06.873,2022-09-09 11:44:06.872,16,0,0,16.128,55.953344,-4.403005,0.00,0.00,-0.80,4.40,-2.60,-105.90,0,1,0,99,100,-8487,3248,16128,2974.50,11,P-GPS,1,0,0,228,298,0,0,1662720246872,4329,4320,4333,4332,0,0,27,,,,,,,0,0,0,-44.00,-26.00,-1059.00,0.00,0.00,-1112.00,6,54.00,8.00,6.77,0.00,0.00,-8.00,0,,,100,100,0,1,0,0,0,2,0,,,,,0.0,0.0,0.0,0.0,0.0,0.0,0
55.953342,-4.403015,5.50,5.40,0.70,0.68,5.50,5.50,1.90,0.68,5506,2022-09-09 10:44:06.978,2022-09-09 11:44:06.977,16,0,0,16.128,55.953344,-4.403005,0.00,0.00,-0.70,4.10,-1.60,-105.80,0,1,0,99,100,-8487,3248,16128,2974.50,11,P-GPS,1,0,0,245,296,0,0,1662720246977,4329,4320,4333,4332,0,0,27,,,,,,,0,0,0,-41.00,-16.00,-1058.00,0.00,0.00,-1112.00,6,55.00,7.00,6.78,0.00,0.00,-7.00,0,,,100,100,0,1,0,0,0,2,0,,,,,0.0,0.0,0.0,0.0,0.0,0.0,0
55.953342,-4.403015,5.60,5.40,0.60,0.69,5.60,5.60,1.90,0.69,5601,2022-09-09 10:44:07.072,2022-09-09 11:44:07.072,16,0,0,16.128,55.953344,-4.403005,0.00,0.00,-0.60,3.70,-0.20,-105.80,0,1,0,99,100,-8487,3248,16128,2974.50,11,P-GPS,1,0,0,255,294,0,0,1662720247072,4329,4320,4333,4332,0,0,27,,,,,,,0,0,0,-37.00,-2.00,-1058.00,0.00,0.00,-1112.00,6,56.00,6.00,6.88,0.00,0.00,-6.00,0,,,100,100,0,1,0,0,0,2,0,,,,,0.0,0.0,0.0,0.0,0.0,0.0,0
55.953343,-4.403015,5.60,5.50,0.61,0.69,5.60,5.60,1.90,0.69,5707,2022-09-09 10:44:07.179,2022-09-09 11:44:07.179,16,0,0,16.128,55.953344,-4.403005,0.10,0.00,-0.60,3.90,0.80,-105.70,0,1,0,99,100,-8487,3248,16128,2974.50,11,P-GPS,1,0,0,293,292,0,0,1662720247178,4329,4320,4333,4332,0,0,27,,,,,,,0,0,0,-39.00,8.00,-1057.00,0.00,0.00,-1112.00,6,56.00,6.08,6.90,1.00,0.00,-6.00,0,,,100,100,0,1,0,0,0,2,0,,,,,0.0,0.0,0.0,0.0,0.0,0.0,0
55.953343,-4.403015,5.70,5.50,0.54,0.68,5.70,5.70,1.90,0.69,5807,2022-09-09 10:44:07.279,2022-09-09 11:44:07.278,16,0,0,16.128,55.953344,-4.403005,0.20,0.00,-0.50,3.80,1.20,-105.80,0,1,0,99,100,-8487,3248,16128,2974.50,11,P-GPS,1,0,0,330,291,0,0,1662720247278,4329,4320,4333,4332,0,0,27,,,,,,,0,0,0,-38.00,12.00,-1058.00,0.00,0.00,-1112.00,6,57.00,5.39,6.77,2.00,0.00,-5.00,0,,,100,100,0,1,0,0,0,2,0,,,,,0.0,0.0,0.0,0.0,0.0,0.0,0
55.953343,-4.403015,5.70,5.60,0.54,0.68,5.70,5.70,1.90,0.69,5895,2022-09-09 10:44:07.366,2022-09-09 11:44:07.366,16,0,0,16.128,55.953344,-4.403005,0.20,0.00,-0.50,3.60,2.60,-105.70,0,1,0,99,100,-8487,3248,16128,2974.50,11,P-GPS,1,0,0,332,291,0,0,1662720247366,4329,4320,4333,4332,0,0,27,,,,,,,0,0,0,-36.00,26.00,-1057.00,0.00,0.00,-1112.00,6,57.00,5.39,6.78,2.00,0.00,-5.00,0,,,100,100,0,1,0,0,0,2,0,,,,,0.0,0.0,0.0,0.0,0.0,0.0,0
55.953343,-4.403016,5.80,5.70,0.58,0.70,5.80,5.80,1.90,0.70,6003,2022-09-09 10:44:07.474,2022-09-09 11:44:07.474,16,0,0,16.128,55.953344,-4.403005,0.30,0.00,-0.50,3.40,3.80,-105.60,0,1,0,99,100,-8487,3248,16128,2974.50,11,P-GPS,1,0,0,332,291,0,0,1662720247474,4329,4320,4333,4332,0,0,27,,,,,,,0,0,0,-34.00,38.00,-1056.00,0.00,0.00,-1112.00,6,58.00,5.83,6.95,3.00,0.00,-5.00,0,,,100,100,0,1,0,0,0,2,0,,,,,0.0,0.0,0.0,0.0,0.0,0.0,0
55.953343,-4.403016,5.80,5.70,0.64,0.70,5.80,5.80,1.90,0.70,6095,2022-09-09 10:44:07.567,2022-09-09 11:44:07.566,16,0,0,16.128,55.953344,-4.403005,0.40,0.00,-0.50,2.90,4.50,-105.60,0,1,0,99,100,-8487,3248,16128,2974.50,11,P-GPS,1,0,0,331,291,0,0,1662720247566,4329,4320,4333,4332,0,0,27,,,,,,,0,0,0,-29.00,45.00,-1056.00,0.00,0.00,-1112.00,6,58.00,6.40,6.98,4.00,0.00,-5.00,0,,,100,100,0,1,0,0,0,2,0,,,,,0.0,0.0,0.0,0.0,0.0,0.0,0
55.953344,-4.403016,5.90,5.80,0.71,0.71,5.90,5.90,1.90,0.71,6204,2022-09-09 10:44:07.676,2022-09-09 11:44:07.675,16,0,0,16.128,55.953344,-4.403005,0.50,0.00,-0.50,2.50,5.10,-105.50,0,1,0,99,100,-8487,3248,16128,2974.50,11,P-GPS,1,0,0,325,291,0,0,1662720247675,4329,4320,4333,4332,0,0,27,,,,,,,0,0,0,-25.00,51.00,-1055.00,0.00,0.00,-1112.00,6,59.00,7.07,7.11,5.00,0.00,-5.00,0,,,100,100,0,1,0,0,0,2,0,,,,,0.0,0.0,0.0,0.0,0.0,0.0,0
55.953344,-4.403016,5.90,5.80,0.85,0.73,5.90,5.90,1.90,0.73,6302,2022-09-09 10:44:07.774,2022-09-09 11:44:07.773,16,0,0,16.128,55.953344,-4.403005,0.60,0.00,-0.60,2.20,4.80,-105.20,0,1,0,99,100,-8487,3248,16128,2974.50,11,P-GPS,1,0,0,322,291,0,0,1662720247773,4329,4320,4333,4332,0,0,27,,,,,,,0,0,0,-22.00,48.00,-1052.00,0.00,0.00,-1112.00,6,59.00,8.49,7.26,6.00,0.00,-6.00,0,,,100,100,0,1,0,0,0,2,0,,,,,0.0,0.0,0.0,0.0,0.0,0.0,0
55.953345,-4.403016,6.00,5.90,0.93,0.73,6.00,6.00,1.90,0.73,6402,2022-09-09 10:44:07.874,2022-09-09 11:44:07.873,16,0,0,16.265,55.953344,-4.403005,0.70,-0.10,-0.60,2.20,4.30,-105.40,0,1,0,99,100,-8084,3245,16265,2974.50,11,P-GPS,1,0,0,319,291,0,0,1662720247873,4329,4320,4333,4332,0,0,27,,,,,,,0,0,0,-22.00,43.00,-1054.00,0.00,0.00,-1112.00,6,60.00,9.27,7.30,7.00,-1.00,-6.00,0,,,100,100,0,1,0,0,0,2,0,,,,,0.0,0.0,0.0,0.0,0.0,0.0,0
55.953345,-4.403016,6.00,5.90,1.00,0.76,6.00,6.00,1.90,0.76,6511,2022-09-09 10:44:07.983,2022-09-09 11:44:07.982,16,0,0,16.265,55.953344,-4.403005,0.80,-0.10,-0.60,2.30,4.50,-105.70,0,1,0,99,100,-8084,3245,16265,2974.50,11,P-GPS,1,0,0,319,300,0,0,1662720247982,4329,4320,4333,4332,0,0,27,,,,,,,0,0,0,-23.00,45.00,-1057.00,0.00,0.00,-1112.00,6,60.00,10.05,7.60,8.00,-1.00,-6.00,0,,,100,100,0,1,0,0,0,2,0,,,,,0.0,0.0,0.0,0.0,0.0,0.0,0
55.953346,-4.403017,6.10,6.00,1.00,0.82,6.10,6.10,1.90,0.82,6596,2022-09-09 10:44:08.068,2022-09-09 11:44:08.067,16,0,0,16.265,55.953344,-4.403005,0.80,-0.10,-0.60,2.00,4.50,-105.80,0,1,0,99,100,-8084,3245,16265,2974.50,11,P-GPS,1,0,0,319,313,0,0,1662720248067,4329,4320,4333,4332,0,0,27,,,,,,,0,0,0,-20.00,45.00,-1058.00,0.00,0.00,-1112.00,6,61.00,10.05,8.24,8.00,-1.00,-6.00,0,,,100,100,0,1,0,0,0,2,0,,,,,0.0,0.0,0.0,0.0,0.0,0.0,0
55.953347,-4.403017,6.20,6.00,1.09,0.88,6.20,6.20,1.90,0.88,6712,2022-09-09 10:44:08.183,2022-09-09 11:44:08.183,16,0,0,16.265,55.953344,-4.403005,0.90,-0.10,-0.60,2.00,4.10,-105.90,0,1,0,99,100,-8084,3245,16265,2974.50,11,P-GPS,1,0,0,319,314,0,0,1662720248183,4329,4320,4333,4332,0,0,27,,,,,,,0,0,0,-20.00,41.00,-1059.00,0.00,0.00,-1112.00,6,62.00,10.86,8.78,9.00,-1.00,-6.00,0,,,100,100,0,1,0,0,0,2,0,,,,,0.0,0.0,0.0,0.0,0.0,0.0,0
55.953348,-4.403018,6.20,6.10,1.24,0.94,6.20,6.20,1.90,0.94,6805,2022-09-09 10:44:08.277,2022-09-09 11:44:08.276,16,0,0,16.265,55.953344,-4.403005,1.00,-0.20,-0.70,1.90,4.40,-105.90,0,1,0,99,100,-8084,3245,16265,2974.50,11,P-GPS,1,0,0,318,318,0,0,1662720248276,4329,4320,4333,4332,0,0,27,,,,,,,0,0,0,-19.00,44.00,-1059.00,0.00,0.00,-1112.00,6,62.00,12.37,9.41,10.00,-2.00,-7.00,0,,,100,100,0,1,0,0,0,2,0,,,,,0.0,0.0,0.0,0.0,0.0,0.0,0
55.953349,-4.403018,6.30,6.10,1.32,1.02,6.30,6.30,1.90,1.02,6894,2022-09-09 10:44:08.366,2022-09-09 11:44:08.366,16,0,0,16.265,55.953344,-4.403005,1.10,-0.20,-0.70,2.00,4.40,-106.10,0,1,0,99,100,-8084,3245,16265,2974.50,11,P-GPS,1,0,0,312,319,0,0,1662720248365,4329,4320,4333,4332,0,0,27,,,,,,,0,0,0,-20.00,44.00,-1061.00,0.00,0.00,-1112.00,6,63.00,13.19,10.19,11.00,-2.00,-7.00,0,,,100,100,0,1,0,0,0,2,0,,,,,0.0,0.0,0.0,0.0,0.0,0.0,0
55.953350,-4.403019,6.40,6.20,1.46,1.11,6.40,6.40,1.90,1.11,7003,2022-09-09 10:44:08.475,2022-09-09 11:44:08.474,16,0,0,16.265,55.953344,-4.403005,1.20,-0.20,-0.80,2.00,4.30,-106.20,0,1,0,99,100,-8084,3245,16265,2974.50,11,P-GPS,1,0,0,310,320,0,0,1662720248474,4329,4320,4333,4332,0,0,27,,,,,,,0,0,0,-20.00,43.00,-1062.00,0.00,0.00,-1112.00,6,64.00,14.56,11.12,12.00,-2.00,-8.00,0,,,100,100,0,1,0,0,0,2,0,,,,,0.0,0.0,0.0,0.0,0.0,0.0,0
55.953351,-4.403020,6.50,6.30,1.46,1.21,6.50,6.50,1.90,1.21,7095,2022-09-09 10:44:08.566,2022-09-09 11:44:08.566,16,0,0,16.265,55.953344,-4.403005,1.20,-0.20,-0.80,1.80,3.40,-106.20,0,1,0,99,100,-8084,3245,16265,2974.50,11,P-GPS,1,0,0,308,321,0,0,1662720248566,4329,4320,4333,4332,0,0,27,,,,,,,0,0,0,-18.00,34.00,-1062.00,0.00,0.00,-1112.00,6,65.00,14.56,12.11,12.00,-2.00,-8.00,0,,,100,100,0,1,0,0,0,2,0,,,,,0.0,0.0,0.0,0.0,0.0,0.0,0
55.953352,-4.403020,6.50,6.30,1.56,1.32,6.50,6.50,1.90,1.32,7204,2022-09-09 10:44:08.676,2022-09-09 11:44:08.675,16,0,0,16.265,55.953344,-4.403005,1.30,-0.30,-0.80,1.80,3.40,-106.30,0,1,0,99,100,-8084,3245,16265,2974.50,11,P-GPS,1,0,0,306,321,0,0,1662720248675,4329,4320,4333,4332,0,0,27,,,,,,,0,0,0,-18.00,34.00,-1063.00,0.00,0.00,-1112.00,6,65.00,15.56,13.22,13.00,-3.00,-8.00,0,,,100,100,0,1,0,0,0,2,0,,,,,0.0,0.0,0.0,0.0,0.0,0.0,0
55.953353,-4.403021,6.60,6.40,1.56,1.44,6.60,6.60,1.90,1.44,7307,2022-09-09 10:44:08.778,2022-09-09 11:44:08.778,16,0,0,16.265,55.953344,-4.403005,1.30,-0.30,-0.80,2.00,3.60,-106.30,0,1,0,99,100,-8084,3245,16265,2974.50,11,P-GPS,1,0,0,301,322,0,0,1662720248778,4329,4320,4333,4332,0,0,27,,,,,,,0,0,0,-20.00,36.00,-1063.00,0.00,0.00,-1112.00,6,66.00,15.56,14.36,13.00,-3.00,-8.00,0,,,100,100,0,1,0,0,0,2,0,,,,,0.0,0.0,0.0,0.0,0.0,0.0,0
55.953354,-4.403022,6.70,6.50,1.64,1.55,6.70,6.70,1.90,1.55,7418,2022-09-09 10:44:08.933,2022-09-09 11:44:08.890,16,0,0,16.338,55.953344,-4.403005,1.40,-0.30,-0.80,1.60,3.50,-106.10,0,1,0,99,100,-6610,3244,16338,2974.50,11,P-GPS,1,0,0,297,322,0,0,1662720248889,4329,4320,4333,4332,0,0,27,,,,,,,0,0,0,-16.00,35.00,-1061.00,0.00,0.00,-1112.00,6,67.00,16.40,15.53,14.00,-3.00,-8.00,0,,,100,100,0,1,0,0,0,2,0,,,,,0.0,0.0,0.0,0.0,0.0,0.0,0
55.953355,-4.403023,6.80,6.60,1.64,1.68,6.80,6.80,1.90,1.68,7538,2022-09-09 10:44:09.010,2022-09-09 11:44:09.009,16,0,0,16.338,55.953344,-4.403005,1.40,-0.30,-0.80,1.50,3.30,-106.20,0,1,0,99,100,-6610,3244,16338,2974.50,11,P-GPS,1,0,0,297,324,0,0,1662720249009,4329,4320,4333,4332,0,0,27,,,,,,,0,0,0,-15.00,33.00,-1062.00,0.00,0.00,-1112.00,6,68.00,16.40,16.79,14.00,-3.00,-8.00,0,,,100,100,0,1,0,0,0,2,0,,,,,0.0,0.0,0.0,0.0,0.0,0.0,0
55.953358,-4.403024,7.00,6.70,1.73,1.96,7.00,7.00,1.90,1.96,7705,2022-09-09 10:44:09.177,2022-09-09 11:44:09.176,16,0,0,16.338,55.953344,-4.403005,1.50,-0.30,-0.80,1.10,3.40,-106.60,0,1,0,99,100,-6610,3244,16338,2974.50,11,P-GPS,1,0,0,296,324,0,0,1662720249176,4329,4320,4333,4332,0,0,27,,,,,,,0,0,0,-11.00,34.00,-1066.00,0.00,0.00,-1112.00,6,70.00,17.26,19.57,15.00,-3.00,-8.00,0,,,100,100,0,1,0,0,0,2,0,,,,,0.0,0.0,0.0,0.0,0.0,0.0,0
55.953359,-4.403025,7.10,6.80,1.73,2.11,7.10,7.10,1.90,2.11,7794,2022-09-09 10:44:09.266,2022-09-09 11:44:09.265,16,0,0,16.338,55.953344,-4.403005,1.50,-0.30,-0.80,1.10,3.40,-107.50,0,1,0,99,100,-6610,3244,16338,2974.50,11,P-GPS,1,0,0,294,324,0,0,1662720249265,4329,4320,4333,4332,0,0,27,,,,,,,0,0,0,-11.00,34.00,-1075.00,0.00,0.00,-1112.00,6,71.00,17.26,21.08,15.00,-3.00,-8.00,0,,,100,100,0,1,0,0,0,2,0,,,,,0.0,0.0,0.0,0.0,0.0,0.0,0
55.953360,-4.403026,7.20,6.90,1.75,2.25,7.20,7.20,1.90,2.25,7904,2022-09-09 10:44:09.376,2022-09-09 11:44:09.375,16,0,0,16.338,55.953344,-4.403005,1.50,-0.40,-0.80,1.00,3.50,-109.00,0,1,0,99,100,-6610,3244,16338,2974.50,11,P-GPS,1,0,0,294,326,0,0,1662720249375,4329,4320,4333,4332,0,0,27,,,,,,,0,0,0,-10.00,35.00,-1090.00,0.00,0.00,-1112.00,6,72.00,17.46,22.54,15.00,-4.00,-8.00,0,,,100,100,0,1,0,0,0,2,0,,,,,0.0,0.0,0.0,0.0,0.0,0.0,0
55.953361,-4.403026,7.20,6.90,1.83,2.40,7.20,7.20,1.90,2.40,8002,2022-09-09 10:44:09.474,2022-09-09 11:44:09.473,16,0,0,16.338,55.953344,-4.403005,1.60,-0.40,-0.80,1.20,3.60,-109.90,0,1,0,99,100,-6610,3244,16338,2974.50,11,P-GPS,1,0,0,294,328,0,0,1662720249473,4329,4320,4333,4332,0,0,27,,,,,,,0,0,0,-12.00,36.00,-1099.00,0.00,0.00,-1112.00,6,72.00,18.33,23.97,16.00,-4.00,-8.00,0,,,100,100,0,1,0,0,0,2,0,,,,,0.0,0.0,0.0,0.0,0.0,0.0,0
55.953363,-4.403027,7.30,7.00,1.86,2.55,7.30,7.30,1.90,2.55,8094,2022-09-09 10:44:09.566,2022-09-09 11:44:09.565,16,0,0,16.338,55.953344,-4.403005,1.60,-0.50,-0.80,1.30,3.40,-110.40,0,1,0,99,100,-6610,3244,16338,2974.50,11,P-GPS,1,0,0,294,333,0,0,1662720249565,4329,4320,4333,4332,0,0,27,,,,,,,0,0,0,-13.00,34.00,-1104.00,0.00,0.00,-1112.00,6,73.00,18.57,25.50,16.00,-5.00,-8.00,0,,,100,100,0,1,0,0,0,2,0,,,,,0.0,0.0,0.0,0.0,0.0,0.0,0
55.953364,-4.403028,7.40,7.10,1.86,2.72,7.40,7.40,1.90,2.72,8218,2022-09-09 10:44:09.690,2022-09-09 11:44:09.689,16,0,0,16.338,55.953344,-4.403005,1.60,-0.50,-0.80,0.80,3.60,-110.90,0,1,0,99,100,-6610,3244,16338,2974.50,11,P-GPS,1,0,0,293,334,0,0,1662720249689,4329,4320,4333,4332,0,0,27,,,,,,,0,0,0,-8.00,36.00,-1109.00,0.00,0.00,-1112.00,6,74.00,18.57,27.22,16.00,-5.00,-8.00,0,,,100,100,0,1,0,0,0,2,0,,,,,0.0,0.0,0.0,0.0,0.0,0.0,0
55.953366,-4.403029,7.50,7.10,1.86,2.88,7.50,7.50,1.90,2.88,8326,2022-09-09 10:44:09.798,2022-09-09 11:44:09.797,16,0,0,16.338,55.953344,-4.403005,1.60,-0.50,-0.80,1.00,3.60,-110.90,0,1,0,99,100,-6610,3244,16338,2974.50,11,P-GPS,1,0,0,294,334,0,0,1662720249797,4329,4320,4333,4332,0,0,27,,,,,,,0,0,0,-10.00,36.00,-1109.00,0.00,0.00,-1112.00,6,75.00,18.57,28.81,16.00,-5.00,-8.00,0,,,100,100,0,1,0,0,0,2,0,,,,,0.0,0.0,0.0,0.0,0.0,0.0,0
55.953367,-4.403030,7.60,7.20,1.86,3.03,7.60,7.60,1.90,3.03,8394,2022-09-09 10:44:09.865,2022-09-09 11:44:09.865,16,0,0,16.142,55.953344,-4.403005,1.60,-0.50,-0.80,1.20,3.60,-111.10,0,1,0,99,100,-8382,3242,16142,2974.50,11,P-GPS,1,0,0,293,334,0,0,1662720249865,4329,4320,4333,4332,0,0,27,,,,,,,0,0,0,-12.00,36.00,-1111.00,0.00,0.00,-1112.00,6,76.00,18.57,30.34,16.00,-5.00,-8.00,0,,,100,100,0,1,0,0,0,2,0,,,,,0.0,0.0,0.0,0.0,0.0,0.0,0
55.953368,-4.403031,7.70,7.30,1.90,3.20,7.70,7.70,1.90,3.20,8504,2022-09-09 10:44:09.976,2022-09-09 11:44:09.975,16,0,0,16.142,55.953344,-4.403005,1.60,-0.50,-0.90,1.10,4.10,-111.20,0,1,0,99,100,-8382,3242,16142,2974.50,11,P-GPS,1,0,0,293,335,0,0,1662720249975,4329,4320,4333,4332,0,0,27,,,,,,,0,0,0,-11.00,41.00,-1112.00,0.00,0.00,-1112.00,6,77.00,19.03,31.95,16.00,-5.00,-9.00,0,,,100,100,0,1,0,0,0,2,0,,,,,0.0,0.0,0.0,0.0,0.0,0.0,0
55.953370,-4.403032,7.80,7.30,1.90,3.35,7.80,7.80,1.90,3.35,8594,2022-09-09 10:44:10.066,2022-09-09 11:44:10.065,16,0,0,16.142,55.953344,-4.403005,1.60,-0.50,-0.90,0.60,4.20,-111.40,0,1,0,99,100,-8382,3242,16142,2974.50,11,P-GPS,1,0,0,294,353,0,0,1662720250065,4329,4320,4333,4332,0,0,27,,,,,,,0,0,0,-6.00,42.00,-1114.00,0.00,0.00,-1112.00,6,78.00,19.03,33.55,16.00,-5.00,-9.00,0,,,100,100,0,1,0,0,0,2,0,,,,,0.0,0.0,0.0,0.0,0.0,0.0,0
55.953371,-4.403033,7.90,7.40,1.99,3.52,7.90,7.90,1.99,3.52,8697,2022-09-09 10:44:10.169,2022-09-09 11:44:10.169,16,0,0,16.142,55.953344,-4.403005,1.70,-0.50,-0.90,0.40,4.60,-111.40,0,1,0,99,100,-8382,3242,16142,2974.50,11,P-GPS,1,0,0,294,363,0,0,1662720250168,4329,4320,4333,4332,0,0,27,,,,,,,0,0,0,-4.00,46.00,-1114.00,0.00,0.00,-1112.00,6,79.00,19.87,35.20,17.00,-5.00,-9.00,0,,,100,100,0,1,0,0,0,2,0,,,,,0.0,0.0,0.0,0.0,0.0,0.0,0
55.953373,-4.403034,8.00,7.50,2.03,3.69,8.00,8.00,2.03,3.69,8802,2022-09-09 10:44:10.274,2022-09-09 11:44:10.273,16,0,0,16.142,55.953344,-4.403005,1.70,-0.50,-1.00,0.40,4.80,-111.50,0,1,0,99,100,-8382,3242,16142,2974.50,11,P-GPS,1,0,0,294,371,0,0,1662720250273,4329,4320,4333,4332,0,0,27,,,,,,,0,0,0,-4.00,48.00,-1115.00,0.00,0.00,-1112.00,6,80.00,20.35,36.91,17.00,-5.00,-10.00,0,,,100,100,0,1,0,0,0,2,0,,,,,0.0,0.0,0.0,0.0,0.0,0.0,0
55.953374,-4.403034,8.10,7.60,2.06,3.86,8.10,8.10,2.06,3.86,8895,2022-09-09 10:44:10.367,2022-09-09 11:44:10.366,16,0,0,16.142,55.953344,-4.403005,1.70,-0.60,-1.00,0.40,4.60,-111.60,0,1,0,99,100,-8382,3242,16142,2974.50,11,P-GPS,1,0,0,294,383,0,0,1662720250366,4329,4320,4333,4332,0,0,27,,,,,,,0,0,0,-4.00,46.00,-1116.00,0.00,0.00,-1112.00,6,81.00,20.62,38.63,17.00,-6.00,-10.00,0,,,100,100,0,1,0,0,0,2,0,,,,,0.0,0.0,0.0,0.0,0.0,0.0,0
55.953375,-4.403036,8.20,7.70,2.11,4.04,8.20,8.20,2.11,4.04,8995,2022-09-09 10:44:10.467,2022-09-09 11:44:10.466,16,0,0,16.142,55.953344,-4.403005,1.70,-0.60,-1.10,0.90,4.40,-111.40,0,1,0,99,100,-8382,3242,16142,2974.50,11,P-GPS,1,0,0,294,407,0,0,1662720250466,4329,4320,4333,4332,0,0,27,,,,,,,0,0,0,-9.00,44.00,-1114.00,0.00,0.00,-1112.00,6,82.00,21.12,40.39,17.00,-6.00,-11.00,0,,,100,100,0,1,0,0,0,2,0,,,,,0.0,0.0,0.0,0.0,0.0,0.0,0
55.953377,-4.403037,8.30,7.80,2.17,4.22,8.30,8.30,2.17,4.22,9094,2022-09-09 10:44:10.565,2022-09-09 11:44:10.565,16,0,0,16.142,55.953344,-4.403005,1.70,-0.60,-1.20,1.20,3.00,-111.20,0,1,0,99,100,-8382,3242,16142,2974.50,11,P-GPS,1,0,0,294,458,0,0,1662720250565,4329,4320,4333,4332,0,0,27,,,,,,,0,0,0,-12.00,30.00,-1112.00,0.00,0.00,-1112.00,6,83.00,21.66,42.18,17.00,-6.00,-12.00,0,,,100,100,0,1,0,0,0,2,0,,,,,0.0,0.0,0.0,0.0,0.0,0.0,0
55.953379,-4.403038,8.40,7.90,2.28,4.40,8.40,8.40,2.28,4.40,9194,2022-09-09 10:44:10.665,2022-09-09 11:44:10.665,16,0,0,16.142,55.953344,-4.403005,1.70,-0.60,-1.40,0.60,2.90,-111.40,0,1,0,99,100,-8382,3242,16142,2974.50,11,P-GPS,1,0,0,294,474,0,0,1662720250665,4329,4320,4333,4332,0,0,27,,,,,,,0,0,0,-6.00,29.00,-1114.00,0.00,0.00,-1112.00,6,84.00,22.83,43.95,17.00,-6.00,-14.00,0,,,100,100,0,1,0,0,0,2,0,,,,,0.0,0.0,0.0,0.0,0.0,0.0,0
55.953380,-4.403039,8.60,8.10,2.48,4.57,8.60,8.60,2.48,4.57,9310,2022-09-09 10:44:10.782,2022-09-09 11:44:10.782,16,0,0,16.195,55.953344,-4.403005,1.70,-0.60,-1.70,0.60,4.10,-111.50,0,1,0,99,100,-7534,3239,16195,2974.50,11,P-GPS,1,0,0,294,481,0,0,1662720250781,4329,4320,4333,4332,0,0,27,,,,,,,0,0,0,-6.00,41.00,-1115.00,0.00,0.00,-1112.00,6,86.00,24.78,45.73,17.00,-6.00,-17.00,0,,,100,100,0,1,0,0,0,2,0,,,,,0.0,0.0,0.0,0.0,0.0,0.0,0
55.953382,-4.403040,8.80,8.20,2.57,4.76,8.80,8.80,2.57,4.76,9408,2022-09-09 10:44:10.879,2022-09-09 11:44:10.879,16,0,0,16.195,55.953344,-4.403005,1.70,-0.70,-1.80,1.90,5.60,-111.20,0,1,0,99,100,-7534,3239,16195,2974.50,11,P-GPS,1,0,0,294,483,0,0,1662720250879,4329,4320,4333,4332,0,0,27,,,,,,,0,0,0,-19.00,56.00,-1112.00,0.00,0.00,-1112.00,6,88.00,25.73,47.61,17.00,-7.00,-18.00,0,,,100,100,0,1,0,0,0,2,0,,,,,0.0,0.0,0.0,0.0,0.0,0.0,0
55.953383,-4.403041,9.00,8.40,2.62,4.94,9.00,9.00,2.62,4.94,9494,2022-09-09 10:44:10.966,2022-09-09 11:44:10.965,16,0,0,16.195,55.953344,-4.403005,1.70,-0.60,-1.90,3.00,5.70,-111.30,0,1,0,99,100,-7534,3239,16195,2974.50,11,P-GPS,1,0,0,294,483,0,0,1662720250965,4329,4320,4333,4332,0,0,27,,,,,,,0,0,0,-30.00,57.00,-1113.00,0.00,0.00,-1112.00,6,90.00,26.19,49.42,17.00,-6.00,-19.00,0,,,100,100,0,1,0,0,0,2,0,,,,,0.0,0.0,0.0,0.0,0.0,0.0,0
55.953383,-4.403041,9.00,8.40,2.62,4.94,9.00,9.00,2.62,4.94,9586,2022-09-09 10:44:11.057,2022-09-09 11:44:11.057,16,0,0,16.195,55.953344,-4.403005,1.70,-0.60,-1.90,3.00,5.70,-111.30,0,1,0,99,100,-7534,3239,16195,2974.50,11,P-GPS,1,0,0,294,489,0,0,1662720251057,4329,4320,4333,4332,0,0,27,,,,,,,0,0,0,-30.00,57.00,-1113.00,0.00,0.00,-1112.00,6,90.00,26.19,49.42,17.00,-6.00,-19.00,0,,,100,100,0,1,0,0,0,2,0,,,,,0.0,0.0,0.0,0.0,0.0,0.0,0
55.953386,-4.403043,9.40,8.80,2.76,5.30,9.40,9.40,2.76,5.30,9695,2022-09-09 10:44:11.167,2022-09-09 11:44:11.166,16,0,0,16.195,55.953344,-4.403005,1.80,-0.60,-2.00,2.00,5.30,-111.50,0,1,0,99,100,-7534,3239,16195,2974.50,11,P-GPS,1,0,0,294,497,0,0,1662720251166,4329,4320,4333,4332,0,0,27,,,,,,,0,0,0,-20.00,53.00,-1115.00,0.00,0.00,-1112.00,6,94.00,27.57,53.02,18.00,-6.00,-20.00,0,,,100,100,0,1,0,0,0,2,0,,,,,0.0,0.0,0.0,0.0,0.0,0.0,0
55.953388,-4.403044,9.60,9.00,2.83,5.51,9.60,9.60,2.83,5.51,9817,2022-09-09 10:44:11.290,2022-09-09 11:44:11.288,16,0,0,16.195,55.953344,-4.403005,1.80,-0.60,-2.10,1.00,4.50,-111.30,0,1,0,99,100,-7534,3239,16195,2974.50,11,P-GPS,1,0,0,294,501,0,0,1662720251288,4329,4320,4333,4332,0,0,27,,,,,,,0,0,0,-10.00,45.00,-1113.00,0.00,0.00,-1112.00,6,96.00,28.30,55.12,18.00,-6.00,-21.00,0,,,100,100,0,1,0,0,0,2,0,,,,,0.0,0.0,0.0,0.0,0.0,0.0,0
55.953389,-4.403046,9.80,9.30,2.83,5.71,9.80,9.80,2.83,5.71,9913,2022-09-09 10:44:11.385,2022-09-09 11:44:11.384,16,0,0,16.195,55.953344,-4.403005,1.80,-0.60,-2.10,1.00,4.40,-111.10,0,1,0,99,100,-7534,3239,16195,2974.50,11,P-GPS,1,0,0,294,501,0,0,1662720251384,4329,4320,4333,4332,0,0,27,,,,,,,0,0,0,-10.00,44.00,-1111.00,0.00,0.00,-1112.00,6,98.00,28.30,57.06,18.00,-6.00,-21.00,0,,,100,100,0,1,0,0,0,2,0,,,,,0.0,0.0,0.0,0.0,0.0,0.0,0
55.953391,-4.403046,10.00,9.50,2.97,5.90,10.00,10.00,2.97,5.90,10008,2022-09-09 10:44:11.480,2022-09-09 11:44:11.479,16,0,0,16.195,55.953344,-4.403005,1.90,-0.60,-2.20,0.90,3.80,-111.10,0,1,0,99,100,-7534,3239,16195,2974.50,11,P-GPS,1,0,0,294,509,0,0,1662720251479,4329,4320,4333,4332,0,0,27,,,,,,,0,0,0,-9.00,38.00,-1111.00,0.00,0.00,-1112.00,6,100.00,29.68,59.00,19.00,-6.00,-22.00,0,,,100,100,0,1,0,0,0,2,0,,,,,0.0,0.0,0.0,0.0,0.0,0.0,0
55.953393,-4.403048,10.20,9.70,2.97,6.10,10.20,10.20,2.97,6.10,10107,2022-09-09 10:44:11.578,2022-09-09 11:44:11.578,16,0,0,16.195,55.953344,-4.403005,1.90,-0.60,-2.20,0.80,3.90,-111.30,0,1,0,99,100,-7534,3239,16195,2974.50,11,P-GPS,1,0,0,294,522,0,0,1662720251578,4329,4320,4333,4332,0,0,27,,,,,,,0,0,0,-8.00,39.00,-1113.00,0.00,0.00,-1112.00,6,102.00,29.68,60.97,19.00,-6.00,-22.00,0,,,100,100,0,1,0,0,0,2,0,,,,,0.0,0.0,0.0,0.0,0.0,0.0,0
55.953394,-4.403048,10.50,9.90,3.04,6.29,10.50,10.50,3.04,6.29,10207,2022-09-09 10:44:11.679,2022-09-09 11:44:11.678,16,0,0,16.195,55.953344,-4.403005,1.90,-0.60,-2.30,0.40,4.20,-111.50,0,1,0,99,100,-7534,3239,16195,2974.50,11,P-GPS,1,0,0,294,528,0,0,1662720251678,4329,4320,4333,4332,0,0,27,,,,,,,0,0,0,-4.00,42.00,-1115.00,0.00,0.00,-1112.00,6,105.00,30.43,62.86,19.00,-6.00,-23.00,0,,,100,100,0,1,0,0,0,2,0,,,,,0.0,0.0,0.0,0.0,0.0,0.0,0
55.953396,-4.403050,10.70,10.10,3.12,6.48,10.70,10.70,3.12,6.48,10294,2022-09-09 10:44:11.766,2022-09-09 11:44:11.765,16,0,0,16.195,55.953344,-4.403005,1.90,-0.60,-2.40,0.20,4.70,-111.50,0,1,0,99,100,-7534,3239,16195,2974.50,11,P-GPS,1,0,0,294,532,0,0,1662720251765,4329,4320,4333,4332,0,0,27,,,,,,,0,0,0,-2.00,47.00,-1115.00,0.00,0.00,-1112.00,6,107.00,31.19,64.82,19.00,-6.00,-24.00,0,,,100,100,0,1,0,0,0,2,0,,,,,0.0,0.0,0.0,0.0,0.0,0.0,0
55.953398,-4.403051,11.00,10.30,3.22,6.68,11.00,11.00,3.22,6.68,10406,2022-09-09 10:44:11.878,2022-09-09 11:44:11.877,16,0,0,16.153,55.953344,-4.403005,1.90,-0.70,-2.50,0.30,5.10,-111.40,0,1,0,99,100,-7634,3237,16153,2975.50,11,P-GPS,1,0,0,292,538,0,0,1662720251877,4329,4320,4333,4332,0,0,27,,,,,,,0,0,0,-3.00,51.00,-1114.00,0.00,0.00,-1112.00,6,110.00,32.17,66.80,19.00,-7.00,-25.00,0,,,100,100,0,1,0,0,0,2,0,,,,,0.0,0.0,0.0,0.0,0.0,0.0,0
55.953399,-4.403052,11.20,10.60,3.22,6.88,11.20,11.20,3.22,6.88,10511,2022-09-09 10:44:11.983,2022-09-09 11:44:11.982,16,0,0,16.153,55.953344,-4.403005,1.90,-0.70,-2.50,0.70,4.70,-111.40,0,1,0,99,100,-7634,3237,16153,2975.50,11,P-GPS,1,0,0,290,547,0,0,1662720251982,4329,4320,4333,4332,0,0,27,,,,,,,0,0,0,-7.00,47.00,-1114.00,0.00,0.00,-1112.00,6,112.00,32.17,68.80,19.00,-7.00,-25.00,0,,,100,100,0,1,0,0,0,2,0,,,,,0.0,0.0,0.0,0.0,0.0,0.0,0
55.953401,-4.403053,11.50,10.80,3.30,7.11,11.50,11.50,3.30,7.11,10597,2022-09-09 10:44:12.068,2022-09-09 11:44:12.068,16,0,0,16.153,55.953344,-4.403005,1.90,-0.70,-2.60,0.90,4.60,-111.40,0,1,0,99,100,-7634,3237,16153,2975.50,11,P-GPS,1,0,0,289,557,0,0,1662720252068,4329,4320,4333,4332,0,0,27,,,,,,,0,0,0,-9.00,46.00,-1114.00,0.00,0.00,-1112.00,6,115.00,32.95,71.05,19.00,-7.00,-26.00,0,,,100,100,0,1,0,0,0,2,0,,,,,0.0,0.0,0.0,0.0,0.0,0.0,0
55.953403,-4.403054,11.70,11.10,3.32,7.31,11.70,11.70,3.32,7.31,10709,2022-09-09 10:44:12.180,2022-09-09 11:44:12.180,16,0,0,16.153,55.953344,-4.403005,1.80,-0.70,-2.70,1.50,4.80,-111.30,0,1,0,99,100,-7634,3237,16153,2975.50,11,P-GPS,1,0,0,279,569,0,0,1662720252180,4329,4320,4333,4332,0,0,27,,,,,,,0,0,0,-15.00,48.00,-1113.00,0.00,0.00,-1112.00,6,117.00,33.20,73.10,18.00,-7.00,-27.00,0,,,100,100,0,1,0,0,0,2,0,,,,,0.0,0.0,0.0,0.0,0.0,0.0,0
55.953405,-4.403055,12.00,11.30,3.48,7.51,12.00,12.00,3.48,7.51,10909,2022-09-09 10:44:12.381,2022-09-09 11:44:12.380,16,0,0,16.153,55.953344,-4.403005,1.90,-0.80,-2.80,2.10,4.80,-111.20,0,1,0,99,100,-7634,3237,16153,2975.50,11,P-GPS,1,0,0,268,576,0,0,1662720252380,4329,4320,4333,4332,0,0,27,,,,,,,0,0,0,-21.00,48.00,-1112.00,0.00,0.00,-1112.00,6,120.00,34.77,75.12,19.00,-8.00,-28.00,0,,,100,100,0,1,0,0,0,2,0,,,,,0.0,0.0,0.0,0.0,0.0,0.0,0
55.953408,-4.403057,12.60,0.00,3.51,7.93,12.60,12.60,3.51,7.93,11019,2022-09-09 10:44:12.491,2022-09-09 11:44:12.490,16,0,0,16.153,55.953344,-4.403005,1.80,-0.80,-2.90,2.60,4.40,-111.10,0,1,0,99,100,-7634,3237,16153,2975.50,11,P-GPS,1,0,0,265,583,0,0,1662720252490,4329,4320,4333,4332,0,0,27,,,,,,,0,0,0,-26.00,44.00,-1111.00,0.00,0.00,-1112.00,6,126.00,35.06,79.26,18.00,-8.00,-29.00,0,,,100,100,0,1,0,0,0,2,0,,,,,0.0,0.0,0.0,0.0,0.0,0.0,0
55.953412,-4.403060,13.20,0.00,3.65,8.33,13.20,13.20,3.65,8.33,11195,2022-09-09 10:44:12.667,2022-09-09 11:44:12.667,16,0,0,16.153,55.953344,-4.403005,1.80,-0.70,-3.10,2.90,4.50,-111.10,0,1,0,99,100,-7634,3237,16153,2975.50,11,P-GPS,1,0,0,263,604,0,0,1662720252666,4329,4320,4333,4332,0,0,27,,,,,,,0,0,0,-29.00,45.00,-1111.00,0.00,0.00,-1112.00,6,132.00,36.52,83.34,18.00,-7.00,-31.00,0,,,100,100,0,1,0,0,0,2,0,,,,,0.0,0.0,0.0,0.0,0.0,0.0,0
55.953413,-4.403061,13.50,0.00,3.74,8.54,13.50,13.50,3.74,8.54,11294,2022-09-09 10:44:12.766,2022-09-09 11:44:12.765,16,0,0,16.153,55.953344,-4.403005,1.80,-0.70,-3.20,2.30,4.80,-111.20,0,1,0,99,100,-7634,3237,16153,2975.50,11,P-GPS,1,0,0,263,605,0,0,1662720252765,4329,4320,4333,4332,0,0,27,,,,,,,0,0,0,-23.00,48.00,-1112.00,0.00,0.00,-1112.00,6,135.00,37.38,85.35,18.00,-7.00,-32.00,0,,,100,100,0,1,0,0,0,2,0,,,,,0.0,0.0,0.0,0.0,0.0,0.0,0
55.953415,-4.403063,13.90,0.00,3.82,8.74,13.90,13.90,3.82,8.74,11409,2022-09-09 10:44:12.881,2022-09-09 11:44:12.880,16,0,0,16.037,55.953344,-4.403005,1.80,-0.70,-3.30,1.90,5.10,-111.20,0,1,0,98,100,-9064,3235,16037,2975.50,11,P-GPS,1,0,0,263,606,0,0,1662720252880,4329,4320,4333,4332,0,0,27,,,,,,,0,0,0,-19.00,51.00,-1112.00,0.00,0.00,-1112.00,6,139.00,38.24,87.36,18.00,-7.00,-33.00,0,,,100,100,0,1,0,0,0,2,0,,,,,0.0,0.0,0.0,0.0,0.0,0.0,0
55.953417,-4.403064,14.20,0.00,3.82,8.93,14.20,14.20,3.82,8.93,11511,2022-09-09 10:44:12.983,2022-09-09 11:44:12.982,16,0,0,16.037,55.953344,-4.403005,1.80,-0.70,-3.30,1.60,5.30,-111.20,0,1,0,98,100,-9064,3235,16037,2975.50,11,P-GPS,1,0,0,263,606,0,0,1662720252982,4329,4320,4333,4332,0,0,27,,,,,,,0,0,0,-16.00,53.00,-1112.00,0.00,0.00,-1112.00,6,142.00,38.24,89.34,18.00,-7.00,-33.00,0,,,100,100,0,1,0,0,0,2,0,,,,,0.0,0.0,0.0,0.0,0.0,0.0,0
55.953420,-4.403066,14.90,0.00,3.82,9.33,14.90,14.90,3.82,9.33,11697,2022-09-09 10:44:13.169,2022-09-09 11:44:13.168,16,0,0,16.037,55.953344,-4.403005,1.80,-0.70,-3.30,1.90,5.50,-111.10,0,1,0,98,100,-9064,3235,16037,2975.50,11,P-GPS,1,0,0,263,606,0,0,1662720253168,4329,4320,4333,4332,0,0,27,,,,,,,0,0,0,-19.00,55.00,-1111.00,0.00,0.00,-1112.00,6,149.00,38.24,93.35,18.00,-7.00,-33.00,0,,,100,100,0,1,0,0,0,2,0,,,,,0.0,0.0,0.0,0.0,0.0,0.0,0
55.953422,-4.403067,15.20,0.00,3.82,9.55,15.20,15.20,3.82,9.55,11796,2022-09-09 10:44:13.268,2022-09-09 11:44:13.267,16,0,0,16.037,55.953344,-4.403005,1.80,-0.70,-3.30,3.00,5.30,-111.00,0,1,0,98,100,-9064,3235,16037,2975.50,11,P-GPS,1,0,0,263,607,0,0,1662720253267,4329,4320,4333,4332,0,0,27,,,,,,,0,0,0,-30.00,53.00,-1110.00,0.00,0.00,-1112.00,6,152.00,38.24,95.49,18.00,-7.00,-33.00,0,,,100,100,0,1,0,0,0,2,0,,,,,0.0,0.0,0.0,0.0,0.0,0.0,0
55.953424,-4.403068,15.50,0.00,3.78,9.74,15.50,15.50,3.82,9.74,11909,2022-09-09 10:44:13.380,2022-09-09 11:44:13.380,16,0,0,16.037,55.953344,-4.403005,1.70,-0.70,-3.30,3.20,5.20,-111.00,0,1,0,98,100,-9064,3235,16037,2975.50,11,P-GPS,1,0,0,263,611,0,0,1662720253380,4329,4320,4333,4332,0,0,27,,,,,,,0,0,0,-32.00,52.00,-1110.00,0.00,0.00,-1112.00,6,155.00,37.78,97.44,17.00,-7.00,-33.00,0,,,100,100,0,1,0,0,0,2,0,,,,,0.0,0.0,0.0,0.0,0.0,0.0,0
55.953425,-4.403069,15.90,0.00,3.78,9.93,15.90,15.90,3.82,9.93,12009,2022-09-09 10:44:13.481,2022-09-09 11:44:13.480,16,0,0,16.037,55.953344,-4.403005,1.70,-0.70,-3.30,2.80,5.60,-111.00,0,1,0,98,100,-9064,3235,16037,2975.50,11,P-GPS,1,0,0,264,612,0,0,1662720253480,4329,4320,4333,4332,0,0,27,,,,,,,0,0,0,-28.00,56.00,-1110.00,0.00,0.00,-1112.00,6,159.00,37.78,99.25,17.00,-7.00,-33.00,0,,,100,100,0,1,0,0,0,2,0,,,,,0.0,0.0,0.0,0.0,0.0,0.0,0
55.953427,-4.403070,16.20,0.00,3.87,10.11,16.20,16.20,3.87,10.11,12095,2022-09-09 10:44:13.567,2022-09-09 11:44:13.566,15,0,0,16.037,55.953344,-4.403005,1.70,-0.70,-3.40,2.10,6.60,-111.10,0,1,0,98,100,-9064,3235,16037,2975.50,11,P-GPS,1,0,0,264,614,0,0,1662720253566,4329,4320,4333,4332,0,0,27,,,,,,,0,0,0,-21.00,66.00,-1111.00,0.00,0.00,-1112.00,6,162.00,38.65,101.14,17.00,-7.00,-34.00,0,,,100,100,0,1,0,0,0,2,0,,,,,0.0,0.0,0.0,0.0,0.0,0.0,0
55.953428,-4.403071,16.50,0.00,3.73,10.28,16.50,16.50,3.87,10.28,12209,2022-09-09 10:44:13.681,2022-09-09 11:44:13.680,15,0,0,16.037,55.953344,-4.403005,1.60,-0.70,-3.30,2.40,7.60,-111.10,0,1,0,98,100,-9064,3235,16037,2975.50,11,P-GPS,1,0,0,263,616,0,0,1662720253680,4329,4320,4333,4332,0,0,27,,,,,,,0,0,0,-24.00,76.00,-1111.00,0.00,0.00,-1112.00,6,165.00,37.34,102.85,16.00,-7.00,-33.00,0,,,100,100,0,1,0,0,0,2,0,,,,,0.0,0.0,0.0,0.0,0.0,0.0,0
55.953430,-4.403072,16.90,0.00,3.78,10.47,16.90,16.90,3.87,10.47,12302,2022-09-09 10:44:13.773,2022-09-09 11:44:13.773,16,0,0,16.037,55.953344,-4.403005,1.70,-0.70,-3.30,3.10,7.40,-111.00,0,1,0,98,100,-9064,3235,16037,2975.50,11,P-GPS,1,0,0,263,616,0,0,1662720253773,4329,4320,4333,4332,0,0,27,,,,,,,0,0,0,-31.00,74.00,-1110.00,0.00,0.00,-1112.00,6,169.00,37.78,104.70,17.00,-7.00,-33.00,0,,,100,100,0,1,0,0,0,2,0,,,,,0.0,0.0,0.0,0.0,0.0,0.0,0
55.953431,-4.403074,17.20,0.00,3.78,10.69,17.20,17.20,3.87,10.69,12396,2022-09-09 10:44:13.867,2022-09-09 11:44:13.867,16,0,0,16.046,55.953344,-4.403005,1.70,-0.70,-3.30,3.60,6.60,-110.90,0,1,0,98,100,-8604,3232,16046,2976.50,11,P-GPS,1,0,0,263,616,0,0,1662720253867,4329,4320,4333,4332,0,0,27,,,,,,,0,0,0,-36.00,66.00,-1109.00,0.00,0.00,-1112.00,6,172.00,37.78,106.89,17.00,-7.00,-33.00,0,,,100,100,0,1,0,0,0,2,0,,,,,0.0,0.0,0.0,0.0,0.0,0.0,0
55.953433,-4.403075,17.60,0.00,3.87,10.88,17.60,17.60,3.87,10.88,12559,2022-09-09 10:44:14.030,2022-09-09 11:44:14.030,16,0,0,16.046,55.953344,-4.403005,1.70,-0.70,-3.40,3.80,6.30,-110.90,0,1,0,98,100,-8604,3232,16046,2976.50,11,P-GPS,1,0,0,263,617,0,0,1662720254030,4329,4320,4333,4332,0,0,27,,,,,,,0,0,0,-38.00,63.00,-1109.00,0.00,0.00,-1112.00,6,176.00,38.65,108.80,17.00,-7.00,-34.00,0,,,100,100,0,1,0,0,0,2,0,,,,,0.0,0.0,0.0,0.0,0.0,0.0,0
55.953436,-4.403077,18.20,0.00,3.85,11.25,18.20,18.20,3.87,11.25,12714,2022-09-09 10:44:14.185,2022-09-09 11:44:14.185,16,0,0,16.046,55.953344,-4.403005,1.70,-0.60,-3.40,3.30,5.80,-111.00,0,1,0,98,100,-8604,3232,16046,2976.50,11,P-GPS,1,0,0,264,616,0,0,1662720254185,4329,4320,4333,4332,0,0,27,,,,,,,0,0,0,-33.00,58.00,-1110.00,0.00,0.00,-1112.00,6,182.00,38.48,112.50,17.00,-6.00,-34.00,0,,,100,100,0,1,0,0,0,2,0,,,,,0.0,0.0,0.0,0.0,0.0,0.0,0
55.953438,-4.403078,18.60,0.00,3.85,11.44,18.60,18.60,3.87,11.44,12811,2022-09-09 10:44:14.282,2022-09-09 11:44:14.282,16,0,0,16.046,55.953344,-4.403005,1.70,-0.60,-3.40,2.50,6.30,-111.00,0,1,0,98,100,-8604,3232,16046,2976.50,11,P-GPS,1,0,0,263,616,0,0,1662720254282,4329,4320,4333,4332,0,0,27,,,,,,,0,0,0,-25.00,63.00,-1110.00,0.00,0.00,-1112.00,6,186.00,38.48,114.44,17.00,-6.00,-34.00,0,,,100,100,0,1,0,0,0,2,0,,,,,0.0,0.0,0.0,0.0,0.0,0.0,0
55.953441,-4.403080,19.30,0.00,3.89,11.82,19.30,19.30,3.89,11.82,13016,2022-09-09 10:44:14.487,2022-09-09 11:44:14.487,16,0,0,16.046,55.953344,-4.403005,1.60,-0.60,-3.50,2.60,6.40,-110.90,0,1,0,98,100,-8604,3232,16046,2976.50,11,P-GPS,1,0,0,263,616,0,0,1662720254487,4329,4320,4333,4332,0,0,27,,,,,,,0,0,0,-26.00,64.00,-1109.00,0.00,0.00,-1112.00,6,193.00,38.95,118.20,16.00,-6.00,-35.00,0,,,100,100,0,1,0,0,0,2,0,,,,,0.0,0.0,0.0,0.0,0.0,0.0,0
55.953444,-4.403082,20.00,0.00,3.88,12.16,20.00,20.00,3.89,12.16,13203,2022-09-09 10:44:14.674,2022-09-09 11:44:14.674,16,0,0,16.046,55.953344,-4.403005,1.60,-0.50,-3.50,2.70,8.00,-110.80,0,1,0,98,100,-8604,3232,16046,2976.50,11,P-GPS,1,0,0,263,616,0,0,1662720254674,4329,4320,4333,4332,0,0,27,,,,,,,0,0,0,-27.00,80.00,-1108.00,0.00,0.00,-1112.00,6,200.00,38.81,121.63,16.00,-5.00,-35.00,0,,,100,100,0,1,0,0,0,2,0,,,,,0.0,0.0,0.0,0.0,0.0,0.0,0
55.953445,-4.403083,20.40,0.00,3.88,12.34,20.40,20.40,3.89,12.34,13301,2022-09-09 10:44:14.773,2022-09-09 11:44:14.773,16,0,0,16.046,55.953344,-4.403005,1.60,-0.50,-3.50,1.90,9.00,-111.00,0,1,0,98,100,-8604,3232,16046,2976.50,11,P-GPS,1,0,0,263,616,0,0,1662720254772,4329,4320,4333,4332,0,0,27,,,,,,,0,0,0,-19.00,90.00,-1110.00,0.00,0.00,-1112.00,6,204.00,38.81,123.36,16.00,-5.00,-35.00,0,,,100,100,0,1,0,0,0,2,0,,,,,0.0,0.0,0.0,0.0,0.0,0.0,0
55.953447,-4.403084,20.70,0.00,3.88,12.53,20.70,20.70,3.89,12.53,13412,2022-09-09 10:44:14.884,2022-09-09 11:44:14.883,16,0,0,16.075,55.953344,-4.403005,1.60,-0.50,-3.50,1.10,9.80,-111.20,0,1,0,98,100,-8455,3230,16075,2976.50,11,P-GPS,1,0,0,263,616,0,0,1662720254883,4329,4320,4333,4332,0,0,27,,,,,,,0,0,0,-11.00,98.00,-1112.00,0.00,0.00,-1112.00,6,207.00,38.81,125.29,16.00,-5.00,-35.00,0,,,100,100,0,1,0,0,0,2,0,,,,,0.0,0.0,0.0,0.0,0.0,0.0,0
55.953448,-4.403085,21.10,0.00,3.89,12.70,21.10,21.10,3.89,12.70,13501,2022-09-09 10:44:14.972,2022-09-09 11:44:14.972,16,0,0,16.075,55.953344,-4.403005,1.60,-0.60,-3.50,1.30,9.30,-111.10,0,1,0,98,100,-8455,3230,16075,2976.50,11,P-GPS,1,0,0,263,619,0,0,1662720254972,4329,4320,4333,4332,0,0,27,,,,,,,0,0,0,-13.00,93.00,-1111.00,0.00,0.00,-1112.00,6,211.00,38.95,127.04,16.00,-6.00,-35.00,0,,,100,100,0,1,0,0,0,2,0,,,,,0.0,0.0,0.0,0.0,0.0,0.0,0
55.953450,-4.403086,21.50,0.00,3.89,12.90,21.50,21.50,3.89,12.90,13596,2022-09-09 10:44:15.067,2022-09-09 11:44:15.067,16,0,0,16.075,55.953344,-4.403005,1.60,-0.60,-3.50,1.90,8.50,-111.00,0,1,0,98,100,-8455,3230,16075,2976.50,11,P-GPS,1,0,0,263,622,0,0,1662720255067,4329,4320,4333,4332,0,0,27,,,,,,,0,0,0,-19.00,85.00,-1110.00,0.00,0.00,-1112.00,6,215.00,38.95,129.02,16.00,-6.00,-35.00,0,,,100,100,0,1,0,0,0,2,0,,,,,0.0,0.0,0.0,0.0,0.0,0.0,0
55.953452,-4.403087,21.80,0.00,3.96,13.08,21.80,21.80,3.96,13.08,13700,2022-09-09 10:44:15.172,2022-09-09 11:44:15.171,16,0,0,16.075,55.953344,-4.403005,1.50,-0.70,-3.60,3.40,8.20,-110.90,0,1,0,98,100,-8455,3230,16075,2976.50,11,P-GPS,1,0,0,263,627,0,0,1662720255171,4329,4320,4333,4332,0,0,27,,,,,,,0,0,0,-34.00,82.00,-1109.00,0.00,0.00,-1112.00,6,218.00,39.62,130.82,15.00,-7.00,-36.00,0,,,100,100,0,1,0,0,0,2,0,,,,,0.0,0.0,0.0,0.0,0.0,0.0,0
55.953453,-4.403088,22.20,0.00,3.96,13.24,22.20,22.20,3.96,13.24,13811,2022-09-09 10:44:15.282,2022-09-09 11:44:15.282,16,0,0,16.075,55.953344,-4.403005,1.50,-0.70,-3.60,4.40,8.50,-110.80,0,1,0,98,100,-8455,3230,16075,2976.50,11,P-GPS,1,0,0,263,629,0,0,1662720255282,4329,4320,4333,4332,0,0,27,,,,,,,0,0,0,-44.00,85.00,-1108.00,0.00,0.00,-1112.00,6,222.00,39.62,132.45,15.00,-7.00,-36.00,0,,,100,100,0,1,0,0,0,2,0,,,,,0.0,0.0,0.0,0.0,0.0,0.0,0
55.953454,-4.403089,22.50,0.00,3.91,13.42,22.50,22.50,3.96,13.42,13901,2022-09-09 10:44:15.372,2022-09-09 11:44:15.372,16,0,0,16.075,55.953344,-4.403005,1.60,-0.70,-3.50,4.60,8.60,-110.80,0,1,0,98,100,-8455,3230,16075,2976.50,11,P-GPS,1,0,0,264,631,0,0,1662720255372,4329,4320,4333,4332,0,0,27,,,,,,,0,0,0,-46.00,86.00,-1108.00,0.00,0.00,-1112.00,6,225.00,39.12,134.25,16.00,-7.00,-35.00,0,,,100,100,0,1,0,0,0,2,0,,,,,0.0,0.0,0.0,0.0,0.0,0.0,0
55.953456,-4.403091,22.80,0.00,3.91,13.61,22.80,22.80,3.96,13.61,14001,2022-09-09 10:44:15.472,2022-09-09 11:44:15.472,16,0,0,16.075,55.953344,-4.403005,1.60,-0.70,-3.50,4.70,8.70,-110.90,0,1,0,98,100,-8455,3230,16075,2976.50,11,P-GPS,1,0,0,264,633,0,0,1662720255472,4329,4320,4333,4332,0,0,27,,,,,,,0,0,0,-47.00,87.00,-1109.00,0.00,0.00,-1112.00,6,228.00,39.12,136.14,16.00,-7.00,-35.00,0,,,100,100,0,1,0,0,0,2,0,,,,,0.0,0.0,0.0,0.0,0.0,0.0,0
55.953457,-4.403092,23.20,0.00,3.91,13.80,23.20,23.20,3.96,13.80,14097,2022-09-09 10:44:15.569,2022-09-09 11:44:15.568,16,0,0,16.075,55.953344,-4.403005,1.60,-0.70,-3.50,4.50,7.40,-110.90,0,1,0,98,100,-8455,3230,16075,2976.50,11,P-GPS,1,0,0,265,639,0,0,1662720255568,4329,4320,4333,4332,0,0,27,,,,,,,0,0,0,-45.00,74.00,-1109.00,0.00,0.00,-1112.00,6,232.00,39.12,137.98,16.00,-7.00,-35.00,0,,,100,100,0,1,0,0,0,2,0,,,,,0.0,0.0,0.0,0.0,0.0,0.0,0
55.953459,-4.403093,23.50,0.00,3.91,13.98,23.50,23.50,3.96,13.98,14198,2022-09-09 10:44:15.670,2022-09-09 11:44:15.669,16,0,0,16.075,55.953344,-4.403005,1.60,-0.70,-3.50,4.40,7.20,-111.00,0,1,0,98,100,-8455,3230,16075,2976.50,11,P-GPS,1,0,0,266,642,0,0,1662720255669,4329,4320,4333,4332,0,0,27,,,,,,,0,0,0,-44.00,72.00,-1110.00,0.00,0.00,-1112.00,6,235.00,39.12,139.81,16.00,-7.00,-35.00,0,,,100,100,0,1,0,0,0,2,0,,,,,0.0,0.0,0.0,0.0,0.0,0.0,0
55.953461,-4.403094,23.90,0.00,4.04,14.17,23.90,23.90,4.04,14.17,14310,2022-09-09 10:44:15.782,2022-09-09 11:44:15.781,16,0,0,16.075,55.953344,-4.403005,1.70,-0.70,-3.60,4.60,6.20,-110.80,0,1,0,98,100,-8455,3230,16075,2976.50,11,P-GPS,1,0,0,270,646,0,0,1662720255781,4329,4320,4333,4332,0,0,27,,,,,,,0,0,0,-46.00,62.00,-1108.00,0.00,0.00,-1112.00,6,239.00,40.42,141.70,17.00,-7.00,-36.00,0,,,100,100,0,1,0,0,0,2,0,,,,,0.0,0.0,0.0,0.0,0.0,0.0,0
