latitude,longitude,altitude(m),ultrasonicHeight(m),speed(mps),distance(m),max_altitude(m),max_ascent(m),max_speed(mps),max_distance(m),time(millisecond),datetime(utc),datetime(local),satellites,pressure(Pa),temperature(F),voltage(v),home_latitude,home_longitude,velocityX(mps),velocityY(mps),velocityZ(mps),pitch(deg),roll(deg),yaw(deg),powerlevel,isflying,istakingphoto,remainPowerPercent,remainLifePercent,currentCurrent,currentElectricity,currentVoltage,batteryTemperature,dischargeCount,flightmode,isMotorsOn,isTakingVideo,Rc_elevator,Rc_aileron,Rc_throttle,Rc_rudder,Rc_gyro,timestamp,Battery_Cell1,Battery_Cell2,Battery_Cell3,Battery_Cell4,Battery_Cell5,Battery_Cell6,Dronetype,AppVersion,Planename,FlyControllerSerialNumber,RemoteSerialNumber,BatterySerialNumber,CENTER_BATTERY.productDate,CENTER_BATTERY.serialNo,CENTER_BATTERY.fullCapacity,CENTER_BATTERY.productDateRaw,pitchRaw,rollRaw,yawRaw,gimbalPitchRaw,gimbalRollRaw,gimbalYawRaw,flyState,altitudeRaw,speedRaw,distanceRaw,velocityXRaw,velocityYRaw,velocityZRaw,data_reuse,App_Tip,App_Warning,downlinkSignalQuality,uplinkSignalQuality,transmissionChannel,rcModeSwitch,rcHome,rcPause,rcTransform,rcJoystickMode,appMode,FlyControllerSerialNumber_legacy,RemoteSerialNumber_legacy,BatterySerialNumber_legacy,Battery2SerialNumber,frontAvoidDist,backAvoidDist,rightAvoidDist,leftAvoidDist,upAvoidDist,downAvoidDist,isBrakingToAvoid
55.937901,-4.406460,0.50,0.60,1.00,0.14,0.50,0.50,1.00,0.14,0,2022-07-10 09:41:34.665,2022-07-10 10:41:34.664,19,0,0,16.706,55.937901,-4.406462,0.10,0.00,-1.00,1.50,1.30,56.20,0,1,0,97,100,-5041,3277,16706,3024.50,7,P-GPS,1,0,0,0,446,0,0,1657446094664,4288,4270,4283,4291,0,0,27,Litchi_4.24.1-g,CJTMAVIC,163DFAS001K45C,0VECFAK0072T52,0P2AFB25340AEP,,0,0,0,-15.00,13.00,562.00,0.00,0.00,576.00,6,5.00,10.05,1.41,1.00,0.00,-10.00,0,,,100,100,0,2,0,0,0,2,2,,,,null,5.2,12.2,0.0,0.0,0.0,0.0,0
55.937901,-4.406460,0.70,0.70,1.20,0.14,0.70,0.70,1.20,0.14,90,2022-07-10 09:41:34.754,2022-07-10 10:41:34.754,19,0,0,16.706,55.937901,-4.406462,0.10,0.00,-1.20,1.50,1.20,56.30,0,1,0,97,100,-5041,3277,16706,3024.50,7,P-GPS,1,0,0,0,446,0,0,1657446094754,4288,4270,4283,4291,0,0,27,,,,,,,0,0,0,-15.00,12.00,563.00,0.00,0.00,576.00,6,7.00,12.04,1.41,1.00,0.00,-12.00,0,,,100,100,0,2,0,0,0,2,2,,,,,5.2,12.2,0.0,0.0,0.0,0.0,0
55.937901,-4.406459,0.80,0.90,1.40,0.16,0.80,0.80,1.40,0.16,200,2022-07-10 09:41:34.865,2022-07-10 10:41:34.864,19,0,0,16.706,55.937901,-4.406462,0.10,0.00,-1.40,1.50,1.70,56.30,0,1,0,97,100,-5041,3277,16706,3024.50,7,P-GPS,1,0,0,0,487,0,0,1657446094864,4288,4270,4283,4291,0,0,27,,,,,,,0,0,0,-15.00,17.00,563.00,0.00,0.00,576.00,6,8.00,14.04,1.65,1.00,0.00,-14.00,0,,,100,100,0,2,0,0,0,2,2,,,,,5.2,12.2,0.0,0.0,0.0,0.0,0
55.937901,-4.406459,1.00,1.00,1.70,0.17,1.00,1.00,1.70,0.17,300,2022-07-10 09:41:34.964,2022-07-10 10:41:34.964,19,0,0,16.706,55.937901,-4.406462,0.00,0.00,-1.70,1.60,1.90,56.20,0,1,0,97,100,-5041,3277,16706,3024.50,7,P-GPS,1,0,0,0,497,0,0,1657446094964,4288,4270,4283,4291,0,0,27,,,,,,,0,0,0,-16.00,19.00,562.00,0.00,0.00,576.00,6,10.00,17.00,1.66,0.00,0.00,-17.00,0,,,100,100,0,2,0,0,0,2,2,,,,,5.3,12.6,0.0,0.0,0.0,0.0,0
55.937901,-4.406459,1.10,1.20,1.90,0.17,1.10,1.10,1.90,0.17,402,2022-07-10 09:41:35.066,2022-07-10 10:41:35.066,19,0,0,16.706,55.937901,-4.406462,0.00,0.00,-1.90,1.60,2.10,56.30,0,1,0,97,100,-5041,3277,16706,3024.50,7,P-GPS,1,0,0,0,504,0,0,1657446095066,4288,4270,4283,4291,0,0,27,,,,,,,0,0,0,-16.00,21.00,563.00,0.00,0.00,576.00,6,11.00,19.00,1.69,0.00,0.00,-19.00,0,,,100,100,0,2,0,0,0,2,2,,,,,5.3,12.6,0.0,0.0,0.0,0.0,0
55.937901,-4.406459,1.30,1.40,2.00,0.17,1.30,1.30,2.00,0.17,511,2022-07-10 09:41:35.176,2022-07-10 10:41:35.175,19,0,0,16.706,55.937901,-4.406462,0.00,0.00,-2.00,1.20,1.50,56.30,0,1,0,97,100,-5041,3277,16706,3024.50,7,P-GPS,1,0,0,0,503,0,0,1657446095175,4288,4270,4283,4291,0,0,27,,,,,,,0,0,0,-12.00,15.00,563.00,0.00,0.00,576.00,6,13.00,20.00,1.69,0.00,0.00,-20.00,0,,,100,100,0,2,0,0,0,2,2,,,,,5.4,12.8,0.0,0.0,0.0,0.0,0
55.937902,-4.406459,1.50,1.60,2.20,0.16,1.50,1.50,2.20,0.17,598,2022-07-10 09:41:35.262,2022-07-10 10:41:35.262,19,0,0,16.706,55.937901,-4.406462,0.00,0.00,-2.20,1.10,1.30,56.30,0,1,0,97,100,-5041,3277,16706,3024.50,7,P-GPS,1,0,0,0,504,0,0,1657446095262,4288,4270,4283,4291,0,0,27,,,,,,,0,0,0,-11.00,13.00,563.00,0.00,0.00,576.00,6,15.00,22.00,1.63,0.00,0.00,-22.00,0,,,100,100,0,2,0,0,0,2,2,,,,,5.4,12.8,0.0,0.0,0.0,0.0,0
55.937902,-4.406459,1.80,1.80,2.30,0.16,1.80,1.80,2.30,0.17,698,2022-07-10 09:41:35.363,2022-07-10 10:41:35.362,19,0,0,16.706,55.937901,-4.406462,0.00,0.00,-2.30,1.30,1.50,56.20,0,1,0,97,100,-5041,3277,16706,3024.50,7,P-GPS,1,0,0,0,508,0,0,1657446095362,4288,4270,4283,4291,0,0,27,,,,,,,0,0,0,-13.00,15.00,562.00,0.00,0.00,576.00,6,18.00,23.00,1.62,0.00,0.00,-23.00,0,,,100,100,0,2,0,0,0,2,2,,,,,5.8,13.2,0.0,0.0,0.0,0.0,0
55.937901,-4.406459,2.00,2.10,2.30,0.16,2.00,2.00,2.30,0.17,800,2022-07-10 09:41:35.464,2022-07-10 10:41:35.464,19,0,0,16.461,55.937901,-4.406462,0.00,0.00,-2.30,1.40,1.50,56.30,0,1,0,97,100,-7878,3273,16461,3025.50,7,P-GPS,1,0,0,0,514,0,0,1657446095464,4288,4270,4283,4291,0,0,27,,,,,,,0,0,0,-14.00,15.00,563.00,0.00,0.00,576.00,6,20.00,23.00,1.64,0.00,0.00,-23.00,0,,,100,100,0,2,0,0,0,2,2,,,,,5.8,13.2,0.0,0.0,0.0,0.0,0
55.937901,-4.406459,2.20,2.30,2.30,0.16,2.20,2.20,2.30,0.17,904,2022-07-10 09:41:35.569,2022-07-10 10:41:35.568,19,0,0,16.461,55.937901,-4.406462,0.00,0.00,-2.30,0.80,1.30,56.30,0,1,0,97,100,-7878,3273,16461,3025.50,7,P-GPS,1,0,0,0,512,0,0,1657446095568,4288,4270,4283,4291,0,0,27,,,,,,,0,0,0,-8.00,13.00,563.00,0.00,0.00,576.00,6,22.00,23.00,1.62,0.00,0.00,-23.00,0,,,100,100,0,2,0,0,0,2,2,,,,,6.1,0.0,0.0,0.0,0.0,0.0,0
55.937902,-4.406459,2.50,2.50,2.30,0.16,2.50,2.50,2.30,0.17,999,2022-07-10 09:41:35.663,2022-07-10 10:41:35.663,19,0,0,16.461,55.937901,-4.406462,0.00,0.00,-2.30,0.30,0.80,56.20,0,1,0,97,100,-7878,3273,16461,3025.50,7,P-GPS,1,0,0,0,491,0,0,1657446095663,4288,4270,4283,4291,0,0,27,,,,,,,0,0,0,-3.00,8.00,562.00,0.00,0.00,576.00,6,25.00,23.00,1.62,0.00,0.00,-23.00,0,,,100,100,0,2,0,0,0,2,2,,,,,6.1,0.0,0.0,0.0,0.0,0.0,0
55.937902,-4.406459,2.70,2.80,2.30,0.16,2.70,2.70,2.30,0.17,1098,2022-07-10 09:41:35.763,2022-07-10 10:41:35.762,19,0,0,16.461,55.937901,-4.406462,0.00,0.00,-2.30,0.10,0.50,56.00,0,1,0,97,100,-7878,3273,16461,3025.50,7,P-GPS,1,0,0,0,465,0,0,1657446095762,4288,4270,4283,4291,0,0,27,,,,,,,0,0,0,-1.00,5.00,560.00,0.00,0.00,576.00,6,27.00,23.00,1.60,0.00,0.00,-23.00,0,,,100,100,0,2,0,0,0,2,2,,,,,6.1,0.0,0.0,0.0,0.0,0.0,0
55.937902,-4.406459,3.00,3.00,2.20,0.17,3.00,3.00,2.30,0.17,1203,2022-07-10 09:41:35.867,2022-07-10 10:41:35.867,19,0,0,16.461,55.937901,-4.406462,0.00,0.00,-2.20,0.30,0.60,56.00,0,1,0,97,100,-7878,3273,16461,3025.50,7,P-GPS,1,0,0,0,458,0,0,1657446095867,4288,4270,4283,4291,0,0,27,,,,,,,0,0,0,-3.00,6.00,560.00,0.00,0.00,576.00,6,30.00,22.00,1.69,0.00,0.00,-22.00,0,,,100,100,0,2,0,0,0,2,2,,,,,6.1,0.0,0.0,0.0,0.0,0.0,0
55.937902,-4.406459,3.20,3.20,2.10,0.17,3.20,3.20,2.30,0.17,1289,2022-07-10 09:41:35.953,2022-07-10 10:41:35.953,18,0,0,16.461,55.937901,-4.406462,0.00,0.00,-2.10,0.30,0.60,55.90,0,1,0,97,100,-7878,3273,16461,3025.50,7,P-GPS,1,0,0,0,458,0,0,1657446095953,4288,4270,4283,4291,0,0,27,,,,,,,0,0,0,-3.00,6.00,559.00,0.00,0.00,576.00,6,32.00,21.00,1.70,0.00,0.00,-21.00,0,,,100,100,0,2,0,0,0,2,2,,,,,13.0,0.0,0.0,0.0,0.0,0.0,0
55.937902,-4.406459,3.40,3.40,2.00,0.17,3.40,3.40,2.30,0.17,1399,2022-07-10 09:41:36.064,2022-07-10 10:41:36.063,18,0,0,16.461,55.937901,-4.406462,0.00,0.00,-2.00,0.40,0.60,56.00,0,1,0,97,100,-7878,3273,16461,3025.50,7,P-GPS,1,0,0,0,379,0,0,1657446096063,4288,4270,4283,4291,0,0,27,,,,,,,0,0,0,-4.00,6.00,560.00,0.00,0.00,576.00,6,34.00,20.00,1.70,0.00,0.00,-20.00,0,,,100,100,0,2,0,0,0,2,2,,,,,13.0,0.0,0.0,0.0,0.0,0.0,0
55.937902,-4.406459,3.60,3.60,1.80,0.18,3.60,3.60,2.30,0.18,1497,2022-07-10 09:41:36.161,2022-07-10 10:41:36.161,18,0,0,16.461,55.937901,-4.406462,0.00,0.00,-1.80,1.20,0.70,55.90,0,1,0,97,100,-7878,3273,16461,3025.50,7,P-GPS,1,0,0,0,312,0,0,1657446096161,4288,4270,4283,4291,0,0,27,,,,,,,0,0,0,-12.00,7.00,559.00,0.00,0.00,576.00,6,36.00,18.00,1.75,0.00,0.00,-18.00,0,,,100,100,0,2,0,0,0,2,2,,,,,13.1,0.0,0.0,0.0,0.0,0.0,0
55.937902,-4.406459,3.80,3.70,1.50,0.18,3.80,3.80,2.30,0.18,1598,2022-07-10 09:41:36.262,2022-07-10 10:41:36.262,18,0,0,16.461,55.937901,-4.406462,0.00,0.00,-1.50,1.80,0.90,55.90,0,1,0,97,100,-7878,3273,16461,3025.50,7,P-GPS,1,0,0,0,199,0,0,1657446096262,4288,4270,4283,4291,0,0,27,,,,,,,0,0,0,-18.00,9.00,559.00,0.00,0.00,576.00,6,38.00,15.00,1.77,0.00,0.00,-15.00,0,,,100,100,0,2,0,0,0,2,2,,,,,13.1,0.0,0.0,0.0,0.0,0.0,0
55.937902,-4.406459,3.90,3.80,1.10,0.18,3.90,3.90,2.30,0.18,1693,2022-07-10 09:41:36.358,2022-07-10 10:41:36.357,19,0,0,16.461,55.937901,-4.406462,0.00,0.00,-1.10,2.10,0.80,56.10,0,1,0,97,100,-7878,3273,16461,3025.50,7,P-GPS,1,0,0,0,199,0,0,1657446096357,4288,4270,4283,4291,0,0,27,,,,,,,0,0,0,-21.00,8.00,561.00,0.00,0.00,576.00,6,39.00,11.00,1.84,0.00,0.00,-11.00,0,,,100,100,0,2,0,0,0,2,2,,,,,0.0,0.0,0.0,0.0,0.0,0.0,0
55.937902,-4.406459,3.90,3.80,1.10,0.18,3.90,3.90,2.30,0.18,1782,2022-07-10 09:41:36.447,2022-07-10 10:41:36.447,19,0,0,16.431,55.937901,-4.406462,0.00,0.00,-1.10,2.10,0.80,56.10,0,1,0,97,100,-9093,3270,16431,3025.50,7,P-GPS,1,0,0,0,6,0,0,1657446096446,4288,4270,4283,4291,0,0,27,,,,,,,0,0,0,-21.00,8.00,561.00,0.00,0.00,576.00,6,39.00,11.00,1.84,0.00,0.00,-11.00,0,,,100,100,0,2,0,0,0,2,2,,,,,0.0,0.0,0.0,0.0,0.0,0.0,0
55.937902,-4.406459,4.10,4.00,0.40,0.19,4.10,4.10,2.30,0.19,1893,2022-07-10 09:41:36.557,2022-07-10 10:41:36.557,19,0,0,16.431,55.937901,-4.406462,0.00,0.00,-0.40,2.50,0.90,56.30,0,1,0,97,100,-9093,3270,16431,3025.50,7,P-GPS,1,0,0,0,0,0,0,1657446096557,4288,4270,4283,4291,0,0,27,,,,,,,0,0,0,-25.00,9.00,563.00,0.00,0.00,576.00,6,41.00,4.00,1.94,0.00,0.00,-4.00,0,,,100,100,0,2,0,0,0,2,2,,,,,0.0,0.0,0.0,0.0,0.0,0.0,0
55.937902,-4.406459,4.10,4.00,0.10,0.20,4.10,4.10,2.30,0.20,1992,2022-07-10 09:41:36.657,2022-07-10 10:41:36.656,19,0,0,16.431,55.937901,-4.406462,0.00,0.00,-0.10,2.10,0.80,56.10,0,1,0,97,100,-9093,3270,16431,3025.50,7,P-GPS,1,0,0,0,0,0,0,1657446096656,4288,4270,4283,4291,0,0,27,,,,,,,0,0,0,-21.00,8.00,561.00,0.00,0.00,576.00,6,41.00,1.00,2.01,0.00,0.00,-1.00,0,,,100,100,0,2,0,0,0,2,2,,,,,0.0,0.0,0.0,0.0,0.0,0.0,0
55.937902,-4.406459,4.10,4.00,0.00,0.21,4.10,4.10,2.30,0.21,2089,2022-07-10 09:41:36.753,2022-07-10 10:41:36.753,19,0,0,16.431,55.937901,-4.406462,0.00,0.00,0.00,1.50,0.90,56.00,0,1,0,97,100,-9093,3270,16431,3025.50,7,P-GPS,1,0,0,0,0,0,0,1657446096753,4288,4270,4283,4291,0,0,27,,,,,,,0,0,0,-15.00,9.00,560.00,0.00,0.00,576.00,6,41.00,0.00,2.06,0.00,0.00,0.00,0,,,100,100,0,2,0,0,0,2,2,,,,,0.0,0.0,0.0,0.0,0.0,0.0,0
55.937902,-4.406459,4.10,4.00,0.00,0.22,4.10,4.10,2.30,0.22,2207,2022-07-10 09:41:36.871,2022-07-10 10:41:36.871,19,0,0,16.431,55.937901,-4.406462,0.00,0.00,0.00,1.40,0.90,56.00,0,1,0,97,100,-9093,3270,16431,3025.50,7,P-GPS,1,0,0,0,0,0,0,1657446096871,4288,4270,4283,4291,0,0,27,,,,,,,0,0,0,-14.00,9.00,560.00,0.00,0.00,576.00,6,41.00,0.00,2.16,0.00,0.00,0.00,0,,,100,100,0,2,0,0,0,2,2,,,,,0.0,0.0,0.0,0.0,0.0,0.0,0
55.937902,-4.406459,4.10,4.00,0.00,0.22,4.10,4.10,2.30,0.22,2297,2022-07-10 09:41:36.962,2022-07-10 10:41:36.961,19,0,0,16.431,55.937901,-4.406462,0.00,0.00,0.00,1.80,1.20,56.10,0,1,0,97,100,-9093,3270,16431,3025.50,7,P-GPS,1,0,0,0,0,0,0,1657446096961,4288,4270,4283,4291,0,0,27,,,,,,,0,0,0,-18.00,12.00,561.00,0.00,0.00,576.00,6,41.00,0.00,2.22,0.00,0.00,0.00,0,,,100,100,0,2,0,0,0,2,2,,,,,0.0,0.0,0.0,0.0,0.0,0.0,0
55.937903,-4.406459,4.10,4.00,0.00,0.25,4.10,4.10,2.30,0.25,2397,2022-07-10 09:41:37.061,2022-07-10 10:41:37.061,19,0,0,16.431,55.937901,-4.406462,0.00,0.00,0.00,2.40,1.70,56.20,0,1,0,97,100,-9093,3270,16431,3025.50,7,P-GPS,1,0,0,0,0,0,0,1657446097061,4288,4270,4283,4291,0,0,27,,,,,,,0,0,0,-24.00,17.00,562.00,0.00,0.00,576.00,6,41.00,0.00,2.45,0.00,0.00,0.00,0,,,100,100,0,2,0,0,0,2,2,,,,,0.0,0.0,0.0,0.0,0.0,0.0,0
55.937903,-4.406459,4.00,3.90,0.00,0.25,4.10,4.10,2.30,0.25,2499,2022-07-10 09:41:37.164,2022-07-10 10:41:37.163,19,0,0,16.431,55.937901,-4.406462,0.00,0.00,0.00,2.80,2.00,56.20,0,1,0,97,100,-9093,3270,16431,3025.50,7,P-GPS,1,0,0,0,0,0,0,1657446097163,4288,4270,4283,4291,0,0,27,,,,,,,0,0,0,-28.00,20.00,562.00,0.00,0.00,576.00,6,40.00,0.00,2.55,0.00,0.00,0.00,0,,,100,100,0,2,0,0,0,2,2,,,,,0.0,0.0,0.0,0.0,0.0,0.0,0
55.937903,-4.406459,4.00,3.90,0.00,0.26,4.10,4.10,2.30,0.26,2599,2022-07-10 09:41:37.263,2022-07-10 10:41:37.263,19,0,0,16.431,55.937901,-4.406462,0.00,0.00,0.00,2.80,2.10,56.20,0,1,0,97,100,-9093,3270,16431,3025.50,7,P-GPS,1,0,0,0,0,0,0,1657446097263,4288,4270,4283,4291,0,0,27,,,,,,,0,0,0,-28.00,21.00,562.00,0.00,0.00,576.00,6,40.00,0.00,2.60,0.00,0.00,0.00,0,,,100,100,0,2,0,0,0,2,2,,,,,0.0,0.0,0.0,0.0,0.0,0.0,0
55.937903,-4.406459,4.00,3.90,0.00,0.27,4.10,4.10,2.30,0.27,2696,2022-07-10 09:41:37.361,2022-07-10 10:41:37.360,19,0,0,16.431,55.937901,-4.406462,0.00,0.00,0.00,2.80,2.40,56.20,0,1,0,97,100,-9093,3270,16431,3025.50,7,P-GPS,1,0,0,0,0,0,0,1657446097360,4288,4270,4283,4291,0,0,27,,,,,,,0,0,0,-28.00,24.00,562.00,0.00,0.00,576.00,6,40.00,0.00,2.69,0.00,0.00,0.00,0,,,100,100,0,2,0,0,0,2,2,,,,,0.0,0.0,0.0,0.0,0.0,0.0,0
55.937903,-4.406459,4.00,3.90,0.00,0.27,4.10,4.10,2.30,0.27,2809,2022-07-10 09:41:37.473,2022-07-10 10:41:37.473,19,0,0,16.806,55.937901,-4.406462,0.00,0.00,0.00,2.80,2.50,56.10,0,1,0,97,100,-5312,3269,16806,3025.50,7,P-GPS,1,0,0,0,0,-79,0,1657446097473,4288,4270,4283,4291,0,0,27,,,,,,,0,0,0,-28.00,25.00,561.00,0.00,0.00,576.00,6,40.00,0.00,2.70,0.00,0.00,0.00,0,,,100,100,0,2,0,0,0,2,2,,,,,0.0,0.0,0.0,0.0,0.0,0.0,0
55.937903,-4.406459,4.00,3.90,0.00,0.28,4.10,4.10,2.30,0.28,2900,2022-07-10 09:41:37.565,2022-07-10 10:41:37.564,19,0,0,16.806,55.937901,-4.406462,0.00,0.00,0.00,2.80,2.30,56.10,0,1,0,97,100,-5312,3269,16806,3025.50,7,P-GPS,1,0,0,0,0,-342,0,1657446097564,4288,4270,4283,4291,0,0,27,,,,,,,0,0,0,-28.00,23.00,561.00,0.00,0.00,576.00,6,40.00,0.00,2.80,0.00,0.00,0.00,0,,,100,100,0,2,0,0,0,2,2,,,,,0.0,0.0,0.0,0.0,0.0,0.0,0
55.937903,-4.406459,4.00,3.90,0.00,0.29,4.10,4.10,2.30,0.29,2996,2022-07-10 09:41:37.661,2022-07-10 10:41:37.660,19,0,0,16.806,55.937901,-4.406462,0.00,0.00,0.00,3.00,2.20,55.60,0,1,0,97,100,-5312,3269,16806,3025.50,7,P-GPS,1,0,0,0,0,-265,0,1657446097660,4288,4270,4283,4291,0,0,27,,,,,,,0,0,0,-30.00,22.00,556.00,0.00,0.00,576.00,6,40.00,0.00,2.86,0.00,0.00,0.00,0,,,100,100,0,2,0,0,0,2,2,,,,,0.0,0.0,0.0,0.0,0.0,0.0,0
55.937903,-4.406459,4.00,3.90,0.00,0.30,4.10,4.10,2.30,0.30,3098,2022-07-10 09:41:37.763,2022-07-10 10:41:37.762,19,0,0,16.806,55.937901,-4.406462,0.00,0.00,0.00,3.50,2.50,54.80,0,1,0,97,100,-5312,3269,16806,3025.50,7,P-GPS,1,0,0,0,0,-203,0,1657446097762,4288,4270,4283,4291,0,0,27,,,,,,,0,0,0,-35.00,25.00,548.00,0.00,0.00,570.00,6,40.00,0.00,2.95,0.00,0.00,0.00,0,,,100,100,0,2,0,0,0,2,2,,,,,0.0,0.0,0.0,0.0,0.0,0.0,0
55.937903,-4.406459,4.00,4.00,0.00,0.30,4.10,4.10,2.30,0.30,3208,2022-07-10 09:41:37.873,2022-07-10 10:41:37.872,19,0,0,16.806,55.937901,-4.406462,0.00,0.00,0.00,3.50,2.90,54.20,0,1,0,97,100,-5312,3269,16806,3025.50,7,P-GPS,1,0,0,0,0,0,0,1657446097872,4288,4270,4283,4291,0,0,27,,,,,,,0,0,0,-35.00,29.00,542.00,0.00,0.00,560.00,6,40.00,0.00,2.98,0.00,0.00,0.00,0,,,100,100,0,2,0,0,0,2,2,,,,,0.0,0.0,0.0,0.0,0.0,0.0,0
55.937903,-4.406459,4.00,4.00,0.00,0.30,4.10,4.10,2.30,0.30,3309,2022-07-10 09:41:37.973,2022-07-10 10:41:37.973,19,0,0,16.806,55.937901,-4.406462,0.00,0.00,0.00,2.90,2.40,54.00,0,1,0,97,100,-5312,3269,16806,3025.50,7,P-GPS,1,0,0,0,0,63,0,1657446097973,4288,4270,4283,4291,0,0,27,,,,,,,0,0,0,-29.00,24.00,540.00,0.00,0.00,555.00,6,40.00,0.00,3.04,0.00,0.00,0.00,0,,,100,100,0,2,0,0,0,2,2,,,,,0.0,0.0,0.0,0.0,0.0,0.0,0
55.937903,-4.406459,4.00,4.00,0.00,0.29,4.10,4.10,2.30,0.30,3489,2022-07-10 09:41:38.154,2022-07-10 10:41:38.153,19,0,0,16.806,55.937901,-4.406462,0.00,0.00,0.00,2.80,0.80,54.50,0,1,0,97,100,-5312,3269,16806,3025.50,7,P-GPS,1,0,0,0,0,419,0,1657446098153,4288,4270,4283,4291,0,0,27,,,,,,,0,0,0,-28.00,8.00,545.00,0.00,0.00,554.00,6,40.00,0.00,2.87,0.00,0.00,0.00,0,,,100,100,0,2,0,0,0,2,2,,,,,0.0,0.0,0.0,0.0,0.0,0.0,0
55.937903,-4.406459,4.00,4.00,0.00,0.26,4.10,4.10,2.30,0.30,3598,2022-07-10 09:41:38.263,2022-07-10 10:41:38.262,19,0,0,16.806,55.937901,-4.406462,0.00,0.00,0.00,2.50,0.90,57.30,0,1,0,97,100,-5312,3269,16806,3025.50,7,P-GPS,1,0,0,0,0,660,0,1657446098262,4288,4270,4283,4291,0,0,27,,,,,,,0,0,0,-25.00,9.00,573.00,0.00,0.00,564.00,6,40.00,0.00,2.64,0.00,0.00,0.00,0,,,100,100,0,2,0,0,0,2,2,,,,,0.0,0.0,0.0,0.0,0.0,0.0,0
55.937903,-4.406459,4.00,4.00,0.00,0.26,4.10,4.10,2.30,0.30,3697,2022-07-10 09:41:38.362,2022-07-10 10:41:38.361,19,0,0,16.806,55.937901,-4.406462,0.00,0.00,0.00,1.90,1.20,62.00,0,1,0,97,100,-5312,3269,16806,3025.50,7,P-GPS,1,0,0,0,0,660,0,1657446098361,4288,4270,4283,4291,0,0,27,,,,,,,0,0,0,-19.00,12.00,620.00,0.00,0.00,599.00,6,40.00,0.00,2.59,0.00,0.00,0.00,0,,,100,100,0,2,0,0,0,2,2,,,,,0.0,0.0,0.0,0.0,0.0,0.0,0
55.937903,-4.406460,4.00,4.00,0.00,0.23,4.10,4.10,2.30,0.30,3797,2022-07-10 09:41:38.462,2022-07-10 10:41:38.461,19,0,0,16.550,55.937901,-4.406462,0.00,0.00,0.00,1.60,1.00,67.50,0,1,0,97,100,-6928,3267,16550,3025.50,7,P-GPS,1,0,0,0,0,660,0,1657446098461,4288,4270,4283,4291,0,0,27,,,,,,,0,0,0,-16.00,10.00,675.00,0.00,0.00,654.00,6,40.00,0.00,2.31,0.00,0.00,0.00,0,,,100,100,0,2,0,0,0,2,2,,,,,0.0,0.0,0.0,0.0,0.0,0.0,0
55.937903,-4.406460,4.00,4.00,0.00,0.22,4.10,4.10,2.30,0.30,3899,2022-07-10 09:41:38.564,2022-07-10 10:41:38.563,19,0,0,16.550,55.937901,-4.406462,0.00,0.00,0.00,0.90,1.50,73.40,0,1,0,97,100,-6928,3267,16550,3025.50,7,P-GPS,1,0,0,0,0,660,0,1657446098563,4288,4270,4283,4291,0,0,27,,,,,,,0,0,0,-9.00,15.00,734.00,0.00,0.00,714.00,6,40.00,0.00,2.24,0.00,0.00,0.00,0,,,100,100,0,2,0,0,0,2,2,,,,,0.0,0.0,0.0,0.0,0.0,0.0,0
55.937903,-4.406460,4.00,4.00,0.00,0.20,4.10,4.10,2.30,0.30,4002,2022-07-10 09:41:38.667,2022-07-10 10:41:38.666,19,0,0,16.550,55.937901,-4.406462,0.00,0.00,0.00,1.00,1.60,79.30,0,1,0,97,100,-6928,3267,16550,3025.50,7,P-GPS,1,0,0,0,0,660,0,1657446098666,4288,4270,4283,4291,0,0,27,,,,,,,0,0,0,-10.00,16.00,793.00,0.00,0.00,774.00,6,40.00,0.00,1.99,0.00,0.00,0.00,0,,,100,100,0,2,0,0,0,2,2,,,,,0.0,0.0,0.0,0.0,0.0,0.0,0
55.937903,-4.406460,4.00,4.00,0.00,0.19,4.10,4.10,2.30,0.30,4097,2022-07-10 09:41:38.762,2022-07-10 10:41:38.761,19,0,0,16.550,55.937901,-4.406462,0.00,0.00,0.00,0.20,2.70,85.00,0,1,0,97,100,-6928,3267,16550,3025.50,7,P-GPS,1,0,0,0,0,660,0,1657446098761,4288,4270,4283,4291,0,0,27,,,,,,,0,0,0,-2.00,27.00,850.00,0.00,0.00,833.00,6,40.00,0.00,1.92,0.00,0.00,0.00,0,,,100,100,0,2,0,0,0,2,2,,,,,0.0,0.0,0.0,0.0,0.0,0.0,0
55.937902,-4.406461,4.00,4.10,0.00,0.16,4.10,4.10,2.30,0.30,4201,2022-07-10 09:41:38.865,2022-07-10 10:41:38.865,19,0,0,16.550,55.937901,-4.406462,0.00,0.00,0.00,-0.90,3.00,90.90,0,1,0,97,100,-6928,3267,16550,3025.50,7,P-GPS,1,0,0,0,0,660,0,1657446098865,4288,4270,4283,4291,0,0,27,,,,,,,0,0,0,9.00,30.00,909.00,0.00,0.00,893.00,6,40.00,0.00,1.62,0.00,0.00,0.00,0,,,100,100,0,2,0,0,0,2,2,,,,,0.0,0.0,0.0,0.0,0.0,0.0,0
55.937902,-4.406461,4.00,4.10,0.00,0.15,4.10,4.10,2.30,0.30,4298,2022-07-10 09:41:38.962,2022-07-10 10:41:38.962,19,0,0,16.550,55.937901,-4.406462,0.00,0.00,0.00,-0.70,1.80,97.00,0,1,0,97,100,-6928,3267,16550,3025.50,7,P-GPS,1,0,0,0,0,660,0,1657446098962,4288,4270,4283,4291,0,0,27,,,,,,,0,0,0,7.00,18.00,970.00,0.00,0.00,953.00,6,40.00,0.00,1.53,0.00,0.00,0.00,0,,,100,100,0,2,0,0,0,2,2,,,,,0.0,0.0,0.0,0.0,0.0,0.0,0
55.937902,-4.406461,4.00,4.10,0.00,0.14,4.10,4.10,2.30,0.30,4399,2022-07-10 09:41:39.064,2022-07-10 10:41:39.063,19,0,0,16.550,55.937901,-4.406462,0.00,0.00,0.00,0.40,1.00,103.10,0,1,0,97,100,-6928,3267,16550,3025.50,7,P-GPS,1,0,0,0,0,660,0,1657446099063,4288,4270,4283,4291,0,0,27,,,,,,,0,0,0,-4.00,10.00,1031.00,0.00,0.00,1014.00,6,40.00,0.00,1.39,0.00,0.00,0.00,0,,,100,100,0,2,0,0,0,2,2,,,,,0.0,0.0,0.0,0.0,0.0,0.0,0
55.937902,-4.406461,4.00,4.10,0.00,0.13,4.10,4.10,2.30,0.30,4500,2022-07-10 09:41:39.164,2022-07-10 10:41:39.164,19,0,0,16.550,55.937901,-4.406462,0.00,0.00,0.00,0.30,0.70,108.90,0,1,0,97,100,-6928,3267,16550,3025.50,7,P-GPS,1,0,0,0,0,619,0,1657446099164,4288,4270,4283,4291,0,0,27,,,,,,,0,0,0,-3.00,7.00,1089.00,0.00,0.00,1074.00,6,40.00,0.00,1.33,0.00,0.00,0.00,0,,,100,100,0,2,0,0,0,2,2,,,,,0.0,0.0,0.0,0.0,0.0,0.0,0
55.937902,-4.406461,4.00,4.10,0.00,0.12,4.10,4.10,2.30,0.30,4604,2022-07-10 09:41:39.269,2022-07-10 10:41:39.268,19,0,0,16.550,55.937901,-4.406462,0.00,0.00,0.00,0.10,1.00,114.60,0,1,0,97,100,-6928,3267,16550,3025.50,7,P-GPS,1,0,0,0,0,660,0,1657446099268,4288,4270,4283,4291,0,0,27,,,,,,,0,0,0,-1.00,10.00,1146.00,0.00,0.00,1134.00,6,40.00,0.00,1.20,0.00,0.00,0.00,0,,,100,100,0,2,0,0,0,2,2,,,,,0.0,0.0,0.0,0.0,0.0,0.0,0
55.937902,-4.406461,4.00,4.10,0.00,0.12,4.10,4.10,2.30,0.30,4698,2022-07-10 09:41:39.362,2022-07-10 10:41:39.362,19,0,0,16.550,55.937901,-4.406462,0.00,0.00,0.00,0.30,1.60,120.50,0,1,0,97,100,-6928,3267,16550,3025.50,7,P-GPS,1,0,0,0,0,599,0,1657446099362,4288,4270,4283,4291,0,0,27,,,,,,,0,0,0,-3.00,16.00,1205.00,0.00,0.00,1189.00,6,40.00,0.00,1.18,0.00,0.00,0.00,0,,,100,100,0,2,0,0,0,2,2,,,,,0.0,0.0,0.0,0.0,0.0,0.0,0
55.937902,-4.406461,4.00,4.10,0.00,0.12,4.10,4.10,2.30,0.30,4802,2022-07-10 09:41:39.466,2022-07-10 10:41:39.466,19,0,0,16.534,55.937901,-4.406462,0.00,0.00,0.00,0.00,2.10,126.30,0,1,0,97,100,-7043,3265,16534,3025.50,7,P-GPS,1,0,0,0,0,465,0,1657446099466,4288,4270,4283,4291,0,0,27,,,,,,,0,0,0,-0.00,21.00,1263.00,0.00,0.00,1248.00,6,40.00,0.00,1.23,0.00,0.00,0.00,0,,,100,100,0,2,0,0,0,2,2,,,,,0.0,0.0,0.0,0.0,0.0,0.0,0
55.937902,-4.406461,4.00,4.10,0.10,0.13,4.10,4.10,2.30,0.30,4902,2022-07-10 09:41:39.567,2022-07-10 10:41:39.566,19,0,0,16.534,55.937901,-4.406462,0.10,0.00,0.00,-1.00,3.30,130.00,0,1,0,97,100,-7043,3265,16534,3025.50,7,P-GPS,1,0,0,0,0,660,0,1657446099566,4288,4270,4283,4291,0,0,27,,,,,,,0,0,0,10.00,33.00,1300.00,0.00,0.00,1303.00,6,40.00,1.00,1.27,1.00,0.00,0.00,0,,,100,100,0,2,0,0,0,2,2,,,,,0.0,0.0,0.0,0.0,0.0,0.0,0
55.937902,-4.406461,4.00,4.10,0.10,0.14,4.10,4.10,2.30,0.30,5002,2022-07-10 09:41:39.666,2022-07-10 10:41:39.666,19,0,0,16.534,55.937901,-4.406462,0.10,0.00,0.00,-2.10,3.70,135.00,0,1,0,97,100,-7043,3265,16534,3025.50,7,P-GPS,1,0,0,0,0,480,0,1657446099666,4288,4270,4283,4291,0,0,27,,,,,,,0,0,0,21.00,37.00,1350.00,0.00,0.00,1331.00,6,40.00,1.00,1.42,1.00,0.00,0.00,0,,,100,100,0,2,0,0,0,2,2,,,,,0.0,0.0,0.0,0.0,0.0,0.0,0
55.937902,-4.406461,4.00,4.10,0.00,0.15,4.10,4.10,2.30,0.30,5099,2022-07-10 09:41:39.764,2022-07-10 10:41:39.763,19,0,0,16.534,55.937901,-4.406462,0.00,0.00,0.00,-2.50,4.90,140.00,0,1,0,97,100,-7043,3265,16534,3025.50,7,P-GPS,1,0,0,0,0,0,0,1657446099763,4288,4270,4283,4291,0,0,27,,,,,,,0,0,0,25.00,49.00,1400.00,0.00,0.00,1382.00,6,40.00,0.00,1.48,0.00,0.00,0.00,0,,,100,100,0,2,0,0,0,2,2,,,,,0.0,0.0,0.0,0.0,0.0,0.0,0
55.937902,-4.406461,4.00,4.10,0.00,0.16,4.10,4.10,2.30,0.30,5199,2022-07-10 09:41:39.863,2022-07-10 10:41:39.863,19,0,0,16.534,55.937901,-4.406462,0.00,0.00,0.00,-1.60,4.80,141.90,0,1,0,97,100,-7043,3265,16534,3025.50,7,P-GPS,1,0,0,0,0,0,0,1657446099863,4288,4270,4283,4291,0,0,27,,,,,,,0,0,0,16.00,48.00,1419.00,0.00,0.00,1429.00,6,40.00,0.00,1.57,0.00,0.00,0.00,0,,,100,100,0,2,0,0,0,2,2,,,,,0.0,0.0,0.0,0.0,0.0,0.0,0
55.937902,-4.406461,4.10,4.10,0.10,0.15,4.10,4.10,2.30,0.30,5300,2022-07-10 09:41:39.965,2022-07-10 10:41:39.964,19,0,0,16.534,55.937901,-4.406462,0.00,0.00,-0.10,-1.40,3.60,142.30,0,1,0,97,100,-7043,3265,16534,3025.50,7,P-GPS,1,0,0,0,0,0,0,1657446099964,4288,4270,4283,4291,0,0,27,,,,,,,0,0,0,14.00,36.00,1423.00,0.00,0.00,1435.00,6,41.00,1.00,1.53,0.00,0.00,-1.00,0,,,100,100,0,2,0,0,0,2,2,,,,,0.0,0.0,0.0,0.0,0.0,0.0,0
55.937902,-4.406461,4.10,4.10,0.00,0.15,4.10,4.10,2.30,0.30,5408,2022-07-10 09:41:40.073,2022-07-10 10:41:40.072,19,0,0,16.534,55.937901,-4.406462,0.00,0.00,0.00,-1.70,2.60,142.50,0,1,0,97,100,-7043,3265,16534,3025.50,7,P-GPS,1,0,0,0,0,0,0,1657446100072,4288,4270,4283,4291,0,0,27,,,,,,,0,0,0,17.00,26.00,1425.00,0.00,0.00,1435.00,6,41.00,0.00,1.54,0.00,0.00,0.00,0,,,100,100,0,2,0,0,0,2,2,,,,,0.0,0.0,0.0,0.0,0.0,0.0,0
55.937902,-4.406461,4.10,4.10,0.10,0.14,4.10,4.10,2.30,0.30,5499,2022-07-10 09:41:40.164,2022-07-10 10:41:40.163,19,0,0,16.534,55.937901,-4.406462,0.00,-0.10,0.00,-1.90,1.00,142.40,0,1,0,97,100,-7043,3265,16534,3025.50,7,P-GPS,1,0,0,0,0,0,0,1657446100163,4288,4270,4283,4291,0,0,27,,,,,,,0,0,0,19.00,10.00,1424.00,0.00,0.00,1435.00,6,41.00,1.00,1.45,0.00,-1.00,0.00,0,,,100,100,0,2,0,0,0,2,2,,,,,0.0,0.0,0.0,0.0,0.0,0.0,0
55.937902,-4.406461,4.10,4.10,0.00,0.13,4.10,4.10,2.30,0.30,5597,2022-07-10 09:41:40.261,2022-07-10 10:41:40.261,19,0,0,16.534,55.937901,-4.406462,0.00,0.00,0.00,-2.40,-0.40,142.50,0,1,0,97,100,-7043,3265,16534,3025.50,7,P-GPS,1,0,0,0,0,0,0,1657446100261,4288,4270,4283,4291,0,0,27,,,,,,,0,0,0,24.00,-4.00,1425.00,0.00,0.00,1435.00,6,41.00,0.00,1.30,0.00,0.00,0.00,0,,,100,100,0,2,0,0,0,2,2,,,,,0.0,0.0,0.0,0.0,0.0,0.0,0
55.937902,-4.406461,4.10,4.10,0.00,0.12,4.10,4.10,2.30,0.30,5701,2022-07-10 09:41:40.365,2022-07-10 10:41:40.365,19,0,0,16.534,55.937901,-4.406462,0.00,0.00,0.00,-1.70,0.00,142.50,0,1,0,97,100,-7043,3265,16534,3025.50,7,P-GPS,1,0,0,0,0,0,0,1657446100365,4288,4270,4283,4291,0,0,27,,,,,,,0,0,0,17.00,0.00,1425.00,0.00,0.00,1435.00,6,41.00,0.00,1.21,0.00,0.00,0.00,0,,,100,100,0,2,0,0,0,2,2,,,,,0.0,0.0,0.0,0.0,0.0,0.0,0
55.937902,-4.406461,4.10,4.10,0.00,0.13,4.10,4.10,2.30,0.30,5789,2022-07-10 09:41:40.453,2022-07-10 10:41:40.453,19,0,0,16.510,55.937901,-4.406462,0.00,0.00,0.00,-2.30,1.20,142.50,0,1,0,96,100,-6953,3263,16510,3025.50,7,P-GPS,1,0,0,0,0,0,0,1657446100453,4288,4270,4283,4291,0,0,27,,,,,,,0,0,0,23.00,12.00,1425.00,0.00,0.00,1435.00,6,41.00,0.00,1.30,0.00,0.00,0.00,0,,,100,100,0,2,0,0,0,2,2,,,,,0.0,0.0,0.0,0.0,0.0,0.0,0
55.937902,-4.406461,4.10,4.10,0.00,0.13,4.10,4.10,2.30,0.30,5899,2022-07-10 09:41:40.563,2022-07-10 10:41:40.563,19,0,0,16.510,55.937901,-4.406462,0.00,0.00,0.00,-1.90,1.90,142.50,0,1,0,96,100,-6953,3263,16510,3025.50,7,P-GPS,1,0,0,0,0,0,0,1657446100563,4288,4270,4283,4291,0,0,27,,,,,,,0,0,0,19.00,19.00,1425.00,0.00,0.00,1435.00,6,41.00,0.00,1.28,0.00,0.00,0.00,0,,,100,100,0,2,0,0,0,2,2,,,,,0.0,0.0,0.0,0.0,0.0,0.0,0
55.937902,-4.406461,4.10,4.10,0.00,0.13,4.10,4.10,2.30,0.30,6003,2022-07-10 09:41:40.667,2022-07-10 10:41:40.667,19,0,0,16.510,55.937901,-4.406462,0.00,0.00,0.00,-1.10,3.30,143.10,0,1,0,96,100,-6953,3263,16510,3025.50,7,P-GPS,1,0,0,0,0,0,0,1657446100667,4288,4270,4283,4291,0,0,27,,,,,,,0,0,0,11.00,33.00,1431.00,0.00,0.00,1435.00,6,41.00,0.00,1.29,0.00,0.00,0.00,0,,,100,100,0,2,0,0,0,2,2,,,,,0.0,0.0,0.0,0.0,0.0,0.0,0
55.937902,-4.406461,4.10,4.10,0.00,0.13,4.10,4.10,2.30,0.30,6091,2022-07-10 09:41:40.756,2022-07-10 10:41:40.755,19,0,0,16.510,55.937901,-4.406462,0.00,0.00,0.00,-2.30,2.80,143.30,0,1,0,96,100,-6953,3263,16510,3025.50,7,P-GPS,1,0,0,0,0,0,0,1657446100755,4288,4270,4283,4291,0,0,27,,,,,,,0,0,0,23.00,28.00,1433.00,0.00,0.00,1435.00,6,41.00,0.00,1.29,0.00,0.00,0.00,0,,,100,100,0,2,0,0,0,2,2,,,,,0.0,0.0,0.0,0.0,0.0,0.0,0
55.937902,-4.406461,4.00,4.00,0.00,0.13,4.10,4.10,2.30,0.30,6217,2022-07-10 09:41:40.881,2022-07-10 10:41:40.881,19,0,0,16.510,55.937901,-4.406462,0.00,0.00,0.00,-5.50,1.20,143.10,0,1,0,96,100,-6953,3263,16510,3025.50,7,P-GPS,1,0,0,0,0,0,0,1657446100881,4288,4270,4283,4291,0,0,27,,,,,,,0,0,0,55.00,12.00,1431.00,0.00,0.00,1435.00,6,40.00,0.00,1.29,0.00,0.00,0.00,0,,,100,100,0,2,0,0,0,2,2,,,,,0.0,0.0,0.0,0.0,0.0,0.0,0
55.937902,-4.406461,4.00,4.00,0.10,0.13,4.10,4.10,2.30,0.30,6413,2022-07-10 09:41:41.077,2022-07-10 10:41:41.077,19,0,0,16.510,55.937901,-4.406462,0.00,0.10,0.00,-4.20,0.60,142.30,0,1,0,96,100,-6953,3263,16510,3025.50,7,P-GPS,1,0,0,0,0,0,0,1657446101077,4288,4270,4283,4291,0,0,27,,,,,,,0,0,0,42.00,6.00,1423.00,0.00,0.00,1435.00,6,40.00,1.00,1.34,0.00,1.00,0.00,0,,,100,100,0,2,0,0,0,2,2,,,,,0.0,0.0,0.0,0.0,0.0,0.0,0
55.937902,-4.406461,4.00,4.00,0.10,0.14,4.10,4.10,2.30,0.30,6499,2022-07-10 09:41:41.164,2022-07-10 10:41:41.164,19,0,0,16.510,55.937901,-4.406462,0.00,0.10,0.00,-2.20,1.90,142.30,0,1,0,96,100,-6953,3263,16510,3025.50,7,P-GPS,1,0,0,0,0,0,0,1657446101163,4145,4105,4112,4137,0,0,27,,,,,,,0,0,0,22.00,19.00,1423.00,0.00,0.00,1435.00,6,40.00,1.00,1.37,0.00,1.00,0.00,0,,,100,100,0,2,0,0,0,2,2,,,,,0.0,0.0,0.0,0.0,0.0,0.0,0
55.937902,-4.406460,4.00,4.00,0.10,0.14,4.10,4.10,2.30,0.30,6614,2022-07-10 09:41:41.278,2022-07-10 10:41:41.278,19,0,0,16.510,55.937901,-4.406462,0.00,0.10,0.00,-1.60,3.40,142.30,0,1,0,96,100,-6953,3263,16510,3025.50,7,P-GPS,1,0,0,0,0,0,0,1657446101278,4145,4105,4112,4137,0,0,27,,,,,,,0,0,0,16.00,34.00,1423.00,0.00,0.00,1435.00,6,40.00,1.00,1.43,0.00,1.00,0.00,0,,,100,100,0,2,0,0,0,2,2,,,,,0.0,0.0,0.0,0.0,0.0,0.0,0
55.937902,-4.406460,4.00,4.00,0.10,0.15,4.10,4.10,2.30,0.30,6732,2022-07-10 09:41:41.396,2022-07-10 10:41:41.396,19,0,0,16.499,55.937901,-4.406462,0.00,0.10,0.00,-0.60,3.00,142.40,0,1,0,96,100,-6733,3261,16499,3026.50,7,P-GPS,1,0,0,0,0,0,0,1657446101396,4145,4105,4112,4137,0,0,27,,,,,,,0,0,0,6.00,30.00,1424.00,0.00,0.00,1435.00,6,40.00,1.00,1.51,0.00,1.00,0.00,0,,,100,100,0,2,0,0,0,2,2,,,,,0.0,0.0,0.0,0.0,0.0,0.0,0
55.937902,-4.406460,4.00,4.10,0.10,0.16,4.10,4.10,2.30,0.30,6898,2022-07-10 09:41:41.562,2022-07-10 10:41:41.562,19,0,0,16.499,55.937901,-4.406462,0.00,0.10,0.00,-0.20,4.30,142.70,0,1,0,96,100,-6733,3261,16499,3026.50,7,P-GPS,1,0,0,0,0,0,0,1657446101562,4145,4105,4112,4137,0,0,27,,,,,,,0,0,0,2.00,43.00,1427.00,0.00,0.00,1435.00,6,40.00,1.00,1.61,0.00,1.00,0.00,0,,,100,100,0,2,0,0,0,2,2,,,,,0.0,0.0,0.0,0.0,0.0,0.0,0
55.937902,-4.406460,4.00,4.10,0.00,0.16,4.10,4.10,2.30,0.30,7021,2022-07-10 09:41:41.686,2022-07-10 10:41:41.685,19,0,0,16.499,55.937901,-4.406462,0.00,0.00,0.00,-0.30,3.90,142.60,0,1,0,96,100,-6733,3261,16499,3026.50,7,P-GPS,1,0,0,0,0,0,0,1657446101685,4145,4105,4112,4137,0,0,27,,,,,,,0,0,0,3.00,39.00,1426.00,0.00,0.00,1435.00,6,40.00,0.00,1.55,0.00,0.00,0.00,0,,,100,100,0,2,0,0,0,2,2,,,,,0.0,0.0,0.0,0.0,0.0,0.0,0
55.937901,-4.406459,4.00,4.10,0.00,0.17,4.10,4.10,2.30,0.30,7213,2022-07-10 09:41:41.878,2022-07-10 10:41:41.877,19,0,0,16.499,55.937901,-4.406462,0.00,0.00,0.00,-0.50,1.80,142.40,0,1,0,96,100,-6733,3261,16499,3026.50,7,P-GPS,1,0,0,0,0,0,-37,1657446101877,4145,4105,4112,4137,0,0,27,,,,,,,0,0,0,5.00,18.00,1424.00,0.00,0.00,1435.00,6,40.00,0.00,1.70,0.00,0.00,0.00,0,,,100,100,0,2,0,0,0,2,2,,,,,0.0,0.0,0.0,0.0,0.0,0.0,0
55.937901,-4.406459,4.00,4.10,0.00,0.17,4.10,4.10,2.30,0.30,7300,2022-07-10 09:41:41.964,2022-07-10 10:41:41.964,19,0,0,16.499,55.937901,-4.406462,0.00,0.00,0.00,-0.70,1.50,142.30,0,1,0,96,100,-6733,3261,16499,3026.50,7,P-GPS,1,0,0,0,0,0,-190,1657446101964,4145,4105,4112,4137,0,0,27,,,,,,,0,0,0,7.00,15.00,1423.00,0.00,0.00,1435.00,6,40.00,0.00,1.73,0.00,0.00,0.00,0,,,100,100,0,2,0,0,0,2,2,,,,,0.0,0.0,0.0,0.0,0.0,0.0,0
55.937901,-4.406459,4.00,4.10,0.00,0.18,4.10,4.10,2.30,0.30,7415,2022-07-10 09:41:42.080,2022-07-10 10:41:42.079,19,0,0,16.499,55.937901,-4.406462,0.00,0.00,0.00,-1.10,1.80,142.30,0,1,0,96,100,-6733,3261,16499,3026.50,7,P-GPS,1,0,0,0,0,0,-234,1657446102079,4145,4105,4112,4137,0,0,27,,,,,,,0,0,0,11.00,18.00,1423.00,-1.00,0.00,1435.00,6,40.00,0.00,1.80,0.00,0.00,0.00,0,,,100,100,0,2,0,0,0,2,2,,,,,0.0,0.0,0.0,0.0,0.0,0.0,0
55.937901,-4.406459,4.00,4.00,0.00,0.20,4.10,4.10,2.30,0.30,7615,2022-07-10 09:41:42.279,2022-07-10 10:41:42.279,19,0,0,16.499,55.937901,-4.406462,0.00,0.00,0.00,-1.30,1.80,142.00,0,1,0,96,100,-6733,3261,16499,3026.50,7,P-GPS,1,0,0,0,0,0,-660,1657446102279,4145,4105,4112,4137,0,0,27,,,,,,,0,0,0,13.00,18.00,1420.00,-14.00,0.00,1435.00,6,40.00,0.00,1.96,0.00,0.00,0.00,0,,,100,100,0,2,0,0,0,2,2,,,,,0.0,0.0,0.0,0.0,0.0,0.0,0
55.937901,-4.406459,4.00,4.00,0.00,0.20,4.10,4.10,2.30,0.30,7728,2022-07-10 09:41:42.392,2022-07-10 10:41:42.392,19,0,0,16.499,55.937901,-4.406462,0.00,0.00,0.00,-0.60,1.90,142.10,0,1,0,96,100,-6733,3261,16499,3026.50,7,P-GPS,1,0,0,0,0,0,-660,1657446102392,4145,4105,4112,4137,0,0,27,,,,,,,0,0,0,6.00,19.00,1421.00,-45.00,0.00,1435.00,6,40.00,0.00,2.03,0.00,0.00,0.00,0,,,100,100,0,2,0,0,0,2,2,,,,,0.0,0.0,0.0,0.0,0.0,0.0,0
55.937901,-4.406458,4.00,4.00,0.00,0.21,4.10,4.10,2.30,0.30,7899,2022-07-10 09:41:42.564,2022-07-10 10:41:42.563,19,0,0,16.560,55.937901,-4.406462,0.00,0.00,0.00,-1.00,2.50,142.00,0,1,0,96,100,-6540,3259,16560,3026.50,7,P-GPS,1,0,0,0,0,0,-660,1657446102563,4145,4105,4112,4137,0,0,27,,,,,,,0,0,0,10.00,25.00,1420.00,-68.00,0.00,1435.00,6,40.00,0.00,2.12,0.00,0.00,0.00,0,,,100,100,0,2,0,0,0,2,2,,,,,0.0,0.0,0.0,0.0,0.0,0.0,0
55.937901,-4.406458,4.00,4.10,0.00,0.23,4.10,4.10,2.30,0.30,8014,2022-07-10 09:41:42.679,2022-07-10 10:41:42.678,19,0,0,16.560,55.937901,-4.406462,0.00,0.00,0.00,-1.70,2.70,142.00,0,1,0,96,100,-6540,3259,16560,3026.50,7,P-GPS,1,0,0,0,0,0,-660,1657446102678,4145,4105,4112,4137,0,0,27,,,,,,,0,0,0,17.00,27.00,1420.00,-91.00,0.00,1435.00,6,40.00,0.00,2.31,0.00,0.00,0.00,0,,,100,100,0,2,0,0,0,2,2,,,,,0.0,0.0,0.0,0.0,0.0,0.0,0
55.937901,-4.406458,4.00,4.10,0.00,0.24,4.10,4.10,2.30,0.30,8101,2022-07-10 09:41:42.766,2022-07-10 10:41:42.765,19,0,0,16.560,55.937901,-4.406462,0.00,0.00,0.00,-1.70,3.10,142.00,0,1,0,96,100,-6540,3259,16560,3026.50,7,P-GPS,1,0,0,0,0,0,-660,1657446102765,4145,4105,4112,4137,0,0,27,,,,,,,0,0,0,17.00,31.00,1420.00,-115.00,0.00,1435.00,6,40.00,0.00,2.38,0.00,0.00,0.00,0,,,100,100,0,2,0,0,0,2,2,,,,,0.0,0.0,0.0,0.0,0.0,0.0,0
55.937901,-4.406458,4.00,4.10,0.00,0.25,4.10,4.10,2.30,0.30,8213,2022-07-10 09:41:42.878,2022-07-10 10:41:42.878,19,0,0,16.560,55.937901,-4.406462,0.00,0.00,0.00,-1.50,3.40,142.00,0,1,0,96,100,-6540,3259,16560,3026.50,7,P-GPS,1,0,0,0,0,0,-660,1657446102877,4145,4105,4112,4137,0,0,27,,,,,,,0,0,0,15.00,34.00,1420.00,-138.00,0.00,1435.00,6,40.00,0.00,2.46,0.00,0.00,0.00,0,,,100,100,0,2,0,0,0,2,2,,,,,0.0,0.0,0.0,0.0,0.0,0.0,0
55.937901,-4.406458,4.00,4.10,0.00,0.27,4.10,4.10,2.30,0.30,8404,2022-07-10 09:41:43.068,2022-07-10 10:41:43.068,19,0,0,16.560,55.937901,-4.406462,0.00,0.00,0.00,-1.90,3.10,142.00,0,1,0,96,100,-6540,3259,16560,3026.50,7,P-GPS,1,0,0,0,0,0,-660,1657446103068,4145,4105,4112,4137,0,0,27,,,,,,,0,0,0,19.00,31.00,1420.00,-186.00,0.00,1435.00,6,40.00,0.00,2.68,0.00,0.00,0.00,0,,,100,100,0,2,0,0,0,2,2,,,,,0.0,0.0,0.0,0.0,0.0,0.0,0
55.937901,-4.406457,4.00,4.00,0.00,0.28,4.10,4.10,2.30,0.30,8502,2022-07-10 09:41:43.167,2022-07-10 10:41:43.166,19,0,0,16.560,55.937901,-4.406462,0.00,0.00,0.00,-1.90,3.30,141.90,0,1,0,96,100,-6540,3259,16560,3026.50,7,P-GPS,1,0,0,0,0,0,-660,1657446103166,4145,4105,4112,4137,0,0,27,,,,,,,0,0,0,19.00,33.00,1419.00,-210.00,0.00,1435.00,6,40.00,0.00,2.77,0.00,0.00,0.00,0,,,100,100,0,2,0,0,0,2,2,,,,,0.0,0.0,0.0,0.0,0.0,0.0,0
55.937901,-4.406457,4.00,4.00,0.00,0.30,4.10,4.10,2.30,0.30,8599,2022-07-10 09:41:43.263,2022-07-10 10:41:43.263,19,0,0,16.560,55.937901,-4.406462,0.00,0.00,0.00,-1.50,3.50,141.90,0,1,0,96,100,-6540,3259,16560,3026.50,7,P-GPS,1,0,0,0,0,0,-660,1657446103263,4145,4105,4112,4137,0,0,27,,,,,,,0,0,0,15.00,35.00,1419.00,-233.00,0.00,1435.00,6,40.00,0.00,3.00,0.00,0.00,0.00,0,,,100,100,0,2,0,0,0,2,2,,,,,0.0,0.0,0.0,0.0,0.0,0.0,0
55.937901,-4.406457,4.00,4.00,0.00,0.31,4.10,4.10,2.30,0.31,8712,2022-07-10 09:41:43.376,2022-07-10 10:41:43.376,19,0,0,16.560,55.937901,-4.406462,0.00,0.00,0.00,-1.90,3.80,141.90,0,1,0,96,100,-6540,3259,16560,3026.50,7,P-GPS,1,0,0,0,0,0,-660,1657446103376,4145,4105,4112,4137,0,0,27,,,,,,,0,0,0,19.00,38.00,1419.00,-257.00,0.00,1435.00,6,40.00,0.00,3.11,0.00,0.00,0.00,0,,,100,100,0,2,0,0,0,2,2,,,,,0.0,0.0,0.0,0.0,0.0,0.0,0
55.937901,-4.406457,4.00,4.00,0.00,0.33,4.10,4.10,2.30,0.33,8892,2022-07-10 09:41:43.557,2022-07-10 10:41:43.556,19,0,0,16.528,55.937901,-4.406462,0.00,0.00,0.00,-2.30,4.20,141.90,0,1,0,96,100,-6587,3258,16528,3026.50,7,P-GPS,1,0,0,0,0,0,-660,1657446103556,4145,4105,4112,4137,0,0,27,,,,,,,0,0,0,23.00,42.00,1419.00,-304.00,0.00,1435.00,6,40.00,0.00,3.29,0.00,0.00,0.00,0,,,100,100,0,2,0,0,0,2,2,,,,,0.0,0.0,0.0,0.0,0.0,0.0,0
55.937901,-4.406456,4.00,4.00,0.00,0.33,4.10,4.10,2.30,0.33,9009,2022-07-10 09:41:43.673,2022-07-10 10:41:43.673,19,0,0,16.528,55.937901,-4.406462,0.00,0.00,0.00,-2.50,3.80,141.90,0,1,0,96,100,-6587,3258,16528,3026.50,7,P-GPS,1,0,0,0,0,0,-660,1657446103673,4145,4105,4112,4137,0,0,27,,,,,,,0,0,0,25.00,38.00,1419.00,-328.00,0.00,1435.00,6,40.00,0.00,3.34,0.00,0.00,0.00,0,,,100,100,0,2,0,0,0,2,2,,,,,0.0,0.0,0.0,0.0,0.0,0.0,0
55.937901,-4.406456,4.00,4.00,0.00,0.34,4.10,4.10,2.30,0.34,9099,2022-07-10 09:41:43.763,2022-07-10 10:41:43.763,19,0,0,16.528,55.937901,-4.406462,0.00,0.00,0.00,-2.30,3.40,142.00,0,1,0,96,100,-6587,3258,16528,3026.50,7,P-GPS,1,0,0,0,0,0,-660,1657446103763,4145,4105,4112,4137,0,0,27,,,,,,,0,0,0,23.00,34.00,1420.00,-351.00,0.00,1435.00,6,40.00,0.00,3.40,0.00,0.00,0.00,0,,,100,100,0,2,0,0,0,2,2,,,,,0.0,0.0,0.0,0.0,0.0,0.0,0
55.937901,-4.406456,4.00,4.00,0.00,0.35,4.10,4.10,2.30,0.35,9198,2022-07-10 09:41:43.862,2022-07-10 10:41:43.862,19,0,0,16.528,55.937901,-4.406462,0.00,0.00,0.00,-1.90,3.30,141.90,0,1,0,96,100,-6587,3258,16528,3026.50,7,P-GPS,1,0,0,0,0,0,-660,1657446103862,4145,4105,4112,4137,0,0,27,,,,,,,0,0,0,19.00,33.00,1419.00,-375.00,0.00,1435.00,6,40.00,0.00,3.52,0.00,0.00,0.00,0,,,100,100,0,2,0,0,0,2,2,,,,,0.0,0.0,0.0,0.0,0.0,0.0,0
55.937901,-4.406456,4.00,4.00,0.00,0.36,4.10,4.10,2.30,0.36,9292,2022-07-10 09:41:43.956,2022-07-10 10:41:43.956,19,0,0,16.528,55.937901,-4.406462,0.00,0.00,0.00,-2.00,3.10,141.80,0,1,0,96,100,-6587,3258,16528,3026.50,7,P-GPS,1,0,0,0,0,0,-660,1657446103956,4145,4105,4112,4137,0,0,27,,,,,,,0,0,0,20.00,31.00,1418.00,-399.00,0.00,1435.00,6,40.00,0.00,3.60,0.00,0.00,0.00,0,,,100,100,0,2,0,0,0,2,2,,,,,0.0,0.0,0.0,0.0,0.0,0.0,0
55.937901,-4.406456,4.00,4.00,0.00,0.35,4.10,4.10,2.30,0.36,9393,2022-07-10 09:41:44.057,2022-07-10 10:41:44.057,19,0,0,16.528,55.937901,-4.406462,0.00,0.00,0.00,-2.20,3.00,141.80,0,1,0,96,100,-6587,3258,16528,3026.50,7,P-GPS,1,0,0,0,0,0,-660,1657446104057,4145,4105,4112,4137,0,0,27,,,,,,,0,0,0,22.00,30.00,1418.00,-422.00,0.00,1435.00,6,40.00,0.00,3.51,0.00,0.00,0.00,0,,,100,100,0,2,0,0,0,2,2,,,,,0.0,0.0,0.0,0.0,0.0,0.0,0
55.937901,-4.406456,4.00,4.00,0.00,0.36,4.10,4.10,2.30,0.36,9497,2022-07-10 09:41:44.162,2022-07-10 10:41:44.161,19,0,0,16.528,55.937901,-4.406462,0.00,0.00,0.00,-2.20,3.00,141.70,0,1,0,96,100,-6587,3258,16528,3026.50,7,P-GPS,1,0,0,0,0,0,0,1657446104161,4145,4105,4112,4137,0,0,27,,,,,,,0,0,0,22.00,30.00,1417.00,-445.00,0.00,1435.00,6,40.00,0.00,3.59,0.00,0.00,0.00,0,,,100,100,0,2,0,0,0,2,2,,,,,0.0,0.0,0.0,0.0,0.0,0.0,0
55.937901,-4.406456,4.00,4.00,0.00,0.36,4.10,4.10,2.30,0.36,9601,2022-07-10 09:41:44.266,2022-07-10 10:41:44.265,19,0,0,16.528,55.937901,-4.406462,0.00,0.00,0.00,-1.70,3.70,141.60,0,1,0,96,100,-6587,3258,16528,3026.50,7,P-GPS,1,0,0,0,0,0,0,1657446104265,4145,4105,4112,4137,0,0,27,,,,,,,0,0,0,17.00,37.00,1416.00,-465.00,0.00,1435.00,6,40.00,0.00,3.60,0.00,0.00,0.00,0,,,100,100,0,2,0,0,0,2,2,,,,,0.0,0.0,0.0,0.0,0.0,0.0,0
55.937901,-4.406456,4.00,4.00,0.00,0.37,4.10,4.10,2.30,0.37,9713,2022-07-10 09:41:44.377,2022-07-10 10:41:44.377,19,0,0,16.528,55.937901,-4.406462,0.00,0.00,0.00,-2.10,3.80,141.50,0,1,0,96,100,-6587,3258,16528,3026.50,7,P-GPS,1,0,0,0,0,0,-224,1657446104377,4145,4105,4112,4137,0,0,27,,,,,,,0,0,0,21.00,38.00,1415.00,-478.00,0.00,1435.00,6,40.00,0.00,3.68,0.00,0.00,0.00,0,,,100,100,0,2,0,0,0,2,2,,,,,0.0,0.0,0.0,0.0,0.0,0.0,0
55.937901,-4.406456,4.00,4.00,0.00,0.38,4.10,4.10,2.30,0.38,9802,2022-07-10 09:41:44.466,2022-07-10 10:41:44.466,19,0,0,16.521,55.937901,-4.406462,0.00,0.00,0.00,-2.20,3.60,141.50,0,1,0,96,100,-6680,3256,16521,3026.50,7,P-GPS,1,0,0,0,0,0,-660,1657446104466,4145,4105,4112,4137,0,0,27,,,,,,,0,0,0,22.00,36.00,1415.00,-486.00,0.00,1435.00,6,40.00,0.00,3.76,0.00,0.00,0.00,0,,,100,100,0,2,0,0,0,2,2,,,,,0.0,0.0,0.0,0.0,0.0,0.0,0
55.937901,-4.406456,4.00,4.00,0.00,0.38,4.10,4.10,2.30,0.38,9898,2022-07-10 09:41:44.562,2022-07-10 10:41:44.562,19,0,0,16.521,55.937901,-4.406462,0.00,0.00,0.00,-2.20,3.00,141.70,0,1,0,96,100,-6680,3256,16521,3026.50,7,P-GPS,1,0,0,0,0,0,-660,1657446104562,4145,4105,4112,4137,0,0,27,,,,,,,0,0,0,22.00,30.00,1417.00,-491.00,0.00,1435.00,6,40.00,0.00,3.84,0.00,0.00,0.00,0,,,100,100,0,2,0,0,0,2,2,,,,,0.0,0.0,0.0,0.0,0.0,0.0,0
55.937901,-4.406456,4.00,4.00,0.00,0.38,4.10,4.10,2.30,0.38,10003,2022-07-10 09:41:44.667,2022-07-10 10:41:44.667,19,0,0,16.521,55.937901,-4.406462,0.00,0.00,0.00,-1.30,2.70,141.90,0,1,0,96,100,-6680,3256,16521,3026.50,7,P-GPS,1,0,0,0,0,0,-660,1657446104667,4145,4105,4112,4137,0,0,27,,,,,,,0,0,0,13.00,27.00,1419.00,-500.00,0.00,1435.00,6,40.00,0.00,3.76,0.00,0.00,0.00,0,,,100,100,0,2,0,0,0,2,2,,,,,0.0,0.0,0.0,0.0,0.0,0.0,0
55.937901,-4.406456,4.00,4.00,0.00,0.38,4.10,4.10,2.30,0.38,10094,2022-07-10 09:41:44.759,2022-07-10 10:41:44.758,19,0,0,16.521,55.937901,-4.406462,0.00,0.00,0.00,-0.40,2.60,141.90,0,1,0,96,100,-6680,3256,16521,3026.50,7,P-GPS,1,0,0,0,0,0,-660,1657446104758,4145,4105,4112,4137,0,0,27,,,,,,,0,0,0,4.00,26.00,1419.00,-515.00,0.00,1435.00,6,40.00,0.00,3.84,0.00,0.00,0.00,0,,,100,100,0,2,0,0,0,2,2,,,,,0.0,0.0,0.0,0.0,0.0,0.0,0
55.937901,-4.406456,4.00,4.00,0.00,0.38,4.10,4.10,2.30,0.38,10207,2022-07-10 09:41:44.872,2022-07-10 10:41:44.871,19,0,0,16.521,55.937901,-4.406462,0.00,0.00,0.00,-0.20,2.00,141.90,0,1,0,96,100,-6680,3256,16521,3026.50,7,P-GPS,1,0,0,0,0,0,-660,1657446104871,4145,4105,4112,4137,0,0,27,,,,,,,0,0,0,2.00,20.00,1419.00,-536.00,0.00,1435.00,6,40.00,0.00,3.80,0.00,0.00,0.00,0,,,100,100,0,2,0,0,0,2,2,,,,,0.0,0.0,0.0,0.0,0.0,0.0,0
55.937900,-4.406456,4.00,4.00,0.00,0.39,4.10,4.10,2.30,0.39,10299,2022-07-10 09:41:44.963,2022-07-10 10:41:44.963,19,0,0,16.521,55.937901,-4.406462,0.00,0.00,0.00,-0.20,1.50,141.90,0,1,0,96,100,-6680,3256,16521,3026.50,7,P-GPS,1,0,0,0,0,0,-138,1657446104963,4145,4105,4112,4137,0,0,27,,,,,,,0,0,0,2.00,15.00,1419.00,-559.00,0.00,1435.00,6,40.00,0.00,3.85,0.00,0.00,0.00,0,,,100,100,0,2,0,0,0,2,2,,,,,0.0,0.0,0.0,0.0,0.0,0.0,0
55.937900,-4.406456,4.00,4.00,0.00,0.38,4.10,4.10,2.30,0.39,10403,2022-07-10 09:41:45.069,2022-07-10 10:41:45.067,19,0,0,16.521,55.937901,-4.406462,0.00,0.00,0.00,-0.20,1.40,141.80,0,1,0,96,100,-6680,3256,16521,3026.50,7,P-GPS,1,0,0,0,0,0,0,1657446105067,4145,4105,4112,4137,0,0,27,,,,,,,0,0,0,2.00,14.00,1418.00,-583.00,0.00,1435.00,6,40.00,0.00,3.81,0.00,0.00,0.00,0,,,100,100,0,2,0,0,0,2,2,,,,,0.0,0.0,0.0,0.0,0.0,0.0,0
55.937900,-4.406456,4.00,4.00,0.00,0.39,4.10,4.10,2.30,0.39,10494,2022-07-10 09:41:45.158,2022-07-10 10:41:45.158,19,0,0,16.521,55.937901,-4.406462,0.00,0.00,0.00,-0.10,1.60,141.80,0,1,0,96,100,-6680,3256,16521,3026.50,7,P-GPS,1,0,0,0,0,0,0,1657446105158,4145,4105,4112,4137,0,0,27,,,,,,,0,0,0,1.00,16.00,1418.00,-604.00,0.00,1435.00,6,40.00,0.00,3.86,0.00,0.00,0.00,0,,,100,100,0,2,0,0,0,2,2,,,,,0.0,0.0,0.0,0.0,0.0,0.0,0
55.937900,-4.406456,4.00,4.00,0.00,0.38,4.10,4.10,2.30,0.39,10609,2022-07-10 09:41:45.273,2022-07-10 10:41:45.273,19,0,0,16.521,55.937901,-4.406462,0.00,0.00,0.00,-0.10,1.80,142.00,0,1,0,96,100,-6680,3256,16521,3026.50,7,P-GPS,1,0,0,0,0,0,0,1657446105273,4145,4105,4112,4137,0,0,27,,,,,,,0,0,0,1.00,18.00,1420.00,-621.00,0.00,1435.00,6,40.00,0.00,3.79,0.00,0.00,0.00,0,,,100,100,0,2,0,0,0,2,2,,,,,0.0,0.0,0.0,0.0,0.0,0.0,0
55.937900,-4.406456,4.00,4.00,0.00,0.38,4.10,4.10,2.30,0.39,10732,2022-07-10 09:41:45.396,2022-07-10 10:41:45.396,19,0,0,16.521,55.937901,-4.406462,0.00,0.00,0.00,0.00,1.80,142.10,0,1,0,96,100,-6680,3256,16521,3026.50,7,P-GPS,1,0,0,0,0,-459,0,1657446105396,4145,4105,4112,4137,0,0,27,,,,,,,0,0,0,-0.00,18.00,1421.00,-636.00,0.00,1435.00,6,40.00,0.00,3.83,0.00,0.00,0.00,0,,,100,100,0,2,0,0,0,2,2,,,,,0.0,0.0,0.0,0.0,0.0,0.0,0
55.937900,-4.406456,4.00,4.00,0.00,0.38,4.10,4.10,2.30,0.39,10891,2022-07-10 09:41:45.555,2022-07-10 10:41:45.555,19,0,0,16.521,55.937901,-4.406462,0.00,0.00,0.00,-0.50,2.50,137.80,0,1,0,96,100,-6680,3256,16521,3026.50,7,P-GPS,1,0,0,0,0,-660,0,1657446105555,4145,4105,4112,4137,0,0,27,,,,,,,0,0,0,5.00,25.00,1378.00,-637.00,0.00,1431.00,6,40.00,0.00,3.78,0.00,0.00,0.00,0,,,100,100,0,2,0,0,0,2,2,,,,,0.0,0.0,0.0,0.0,0.0,0.0,0
55.937900,-4.406456,4.00,3.90,0.00,0.38,4.10,4.10,2.30,0.39,10997,2022-07-10 09:41:45.661,2022-07-10 10:41:45.661,19,0,0,16.521,55.937901,-4.406462,0.00,0.00,0.00,-1.20,2.00,132.60,0,1,0,96,100,-6680,3256,16521,3026.50,7,P-GPS,1,0,0,0,0,-660,0,1657446105661,4145,4105,4112,4137,0,0,27,,,,,,,0,0,0,12.00,20.00,1326.00,-637.00,0.00,1383.00,6,40.00,0.00,3.77,0.00,0.00,0.00,0,,,100,100,0,2,0,0,0,2,2,,,,,0.0,0.0,0.0,0.0,0.0,0.0,0
55.937900,-4.406456,4.00,3.90,0.00,0.38,4.10,4.10,2.30,0.39,11094,2022-07-10 09:41:45.759,2022-07-10 10:41:45.758,19,0,0,16.521,55.937901,-4.406462,0.00,0.00,0.00,-1.20,1.10,127.10,0,1,0,96,100,-6680,3256,16521,3026.50,7,P-GPS,1,0,0,0,0,-660,0,1657446105758,4145,4105,4112,4137,0,0,27,,,,,,,0,0,0,12.00,11.00,1271.00,-637.00,0.00,1324.00,6,40.00,0.00,3.81,0.00,0.00,0.00,0,,,100,100,0,2,0,0,0,2,2,,,,,0.0,0.0,0.0,0.0,0.0,0.0,0
55.937900,-4.406456,4.00,3.90,0.00,0.38,4.10,4.10,2.30,0.39,11198,2022-07-10 09:41:45.863,2022-07-10 10:41:45.862,19,0,0,16.521,55.937901,-4.406462,0.00,0.00,0.00,-0.10,0.70,121.40,0,1,0,96,100,-6680,3256,16521,3026.50,7,P-GPS,1,0,0,0,0,-660,0,1657446105862,4145,4105,4112,4137,0,0,27,,,,,,,0,0,0,1.00,7.00,1214.00,-637.00,0.00,1264.00,6,40.00,0.00,3.84,0.00,0.00,0.00,0,,,100,100,0,2,0,0,0,2,2,,,,,0.0,0.0,0.0,0.0,0.0,0.0,0
55.937900,-4.406456,4.00,3.90,0.00,0.39,4.10,4.10,2.30,0.39,11291,2022-07-10 09:41:45.955,2022-07-10 10:41:45.955,19,0,0,16.521,55.937901,-4.406462,0.00,0.00,0.00,0.50,1.10,115.60,0,1,0,96,100,-6680,3256,16521,3026.50,7,P-GPS,1,0,0,0,0,-660,0,1657446105955,4145,4105,4112,4137,0,0,27,,,,,,,0,0,0,-5.00,11.00,1156.00,-637.00,0.00,1204.00,6,40.00,0.00,3.93,0.00,0.00,0.00,0,,,100,100,0,2,0,0,0,2,2,,,,,0.0,0.0,0.0,0.0,0.0,0.0,0
55.937900,-4.406456,4.00,3.90,0.00,0.41,4.10,4.10,2.30,0.41,11405,2022-07-10 09:41:46.069,2022-07-10 10:41:46.069,19,0,0,16.521,55.937901,-4.406462,0.00,0.00,0.00,1.20,1.50,109.70,0,1,0,96,100,-7067,3254,16521,3026.50,7,P-GPS,1,0,0,0,0,-660,0,1657446106069,4145,4105,4112,4137,0,0,27,,,,,,,0,0,0,-12.00,15.00,1097.00,-637.00,0.00,1144.00,6,40.00,0.00,4.10,0.00,0.00,0.00,0,,,100,100,0,2,0,0,0,2,2,,,,,0.0,0.0,0.0,0.0,0.0,0.0,0
55.937900,-4.406456,4.00,3.90,0.00,0.42,4.10,4.10,2.30,0.42,11497,2022-07-10 09:41:46.162,2022-07-10 10:41:46.161,19,0,0,16.521,55.937901,-4.406462,0.00,0.00,0.00,1.60,1.80,103.70,0,1,0,96,100,-7067,3254,16521,3026.50,7,P-GPS,1,0,0,0,0,-660,0,1657446106161,4145,4105,4112,4137,0,0,27,,,,,,,0,0,0,-16.00,18.00,1037.00,-637.00,0.00,1084.00,6,40.00,0.00,4.21,0.00,0.00,0.00,0,,,100,100,0,2,0,0,0,2,2,,,,,0.0,0.0,0.0,0.0,0.0,0.0,0
55.937900,-4.406456,4.00,3.90,0.00,0.42,4.10,4.10,2.30,0.42,11592,2022-07-10 09:41:46.256,2022-07-10 10:41:46.256,19,0,0,16.521,55.937901,-4.406462,0.00,0.00,0.00,1.80,1.50,97.70,0,1,0,96,100,-7067,3254,16521,3026.50,7,P-GPS,1,0,0,0,0,-660,0,1657446106256,4145,4105,4112,4137,0,0,27,,,,,,,0,0,0,-18.00,15.00,977.00,-637.00,0.00,1024.00,6,40.00,0.00,4.18,0.00,0.00,0.00,0,,,100,100,0,2,0,0,0,2,2,,,,,0.0,0.0,0.0,0.0,0.0,0.0,0
55.937900,-4.406455,4.00,3.90,0.00,0.43,4.10,4.10,2.30,0.43,11696,2022-07-10 09:41:46.360,2022-07-10 10:41:46.360,19,0,0,16.521,55.937901,-4.406462,0.00,0.00,0.00,2.00,1.50,91.60,0,1,0,96,100,-7067,3254,16521,3026.50,7,P-GPS,1,0,0,0,0,-660,0,1657446106360,4145,4105,4112,4137,0,0,27,,,,,,,0,0,0,-20.00,15.00,916.00,-637.00,0.00,964.00,6,40.00,0.00,4.25,0.00,0.00,0.00,0,,,100,100,0,2,0,0,0,2,2,,,,,0.0,0.0,0.0,0.0,0.0,0.0,0
55.937900,-4.406455,4.00,3.90,0.00,0.43,4.10,4.10,2.30,0.43,11800,2022-07-10 09:41:46.464,2022-07-10 10:41:46.464,19,0,0,16.521,55.937901,-4.406462,0.00,0.00,0.00,2.10,1.70,85.50,0,1,0,96,100,-7067,3254,16521,3026.50,7,P-GPS,1,0,0,0,0,-660,0,1657446106464,4145,4105,4112,4137,0,0,27,,,,,,,0,0,0,-21.00,17.00,855.00,-637.00,0.00,904.00,6,40.00,0.00,4.35,0.00,0.00,0.00,0,,,100,100,0,2,0,0,0,2,2,,,,,0.0,0.0,0.0,0.0,0.0,0.0,0
55.937900,-4.406455,4.00,3.90,0.00,0.44,4.10,4.10,2.30,0.44,11899,2022-07-10 09:41:46.563,2022-07-10 10:41:46.563,19,0,0,16.521,55.937901,-4.406462,0.00,0.00,0.00,2.70,2.70,79.60,0,1,0,96,100,-7067,3254,16521,3026.50,7,P-GPS,1,0,0,0,0,-660,0,1657446106563,4145,4105,4112,4137,0,0,27,,,,,,,0,0,0,-27.00,27.00,796.00,-637.00,0.00,844.00,6,40.00,0.00,4.42,0.00,0.00,0.00,0,,,100,100,0,2,0,0,0,2,2,,,,,0.0,0.0,0.0,0.0,0.0,0.0,0
55.937900,-4.406455,4.00,3.90,0.00,0.46,4.10,4.10,2.30,0.46,11999,2022-07-10 09:41:46.663,2022-07-10 10:41:46.663,19,0,0,16.521,55.937901,-4.406462,0.00,0.00,0.00,3.50,1.90,73.70,0,1,0,96,100,-7067,3254,16521,3026.50,7,P-GPS,1,0,0,0,0,-660,0,1657446106663,4145,4105,4112,4137,0,0,27,,,,,,,0,0,0,-35.00,19.00,737.00,-637.00,0.00,784.00,6,40.00,0.00,4.59,0.00,0.00,0.00,0,,,100,100,0,2,0,0,0,2,2,,,,,0.0,0.0,0.0,0.0,0.0,0.0,0
55.937900,-4.406455,4.00,3.90,0.00,0.47,4.10,4.10,2.30,0.47,12108,2022-07-10 09:41:46.773,2022-07-10 10:41:46.772,19,0,0,16.521,55.937901,-4.406462,0.00,0.00,0.00,4.10,0.90,67.70,0,1,0,96,100,-7067,3254,16521,3026.50,7,P-GPS,1,0,0,0,0,-660,0,1657446106772,4145,4105,4112,4137,0,0,27,,,,,,,0,0,0,-41.00,9.00,677.00,-637.00,0.00,725.00,6,40.00,0.00,4.69,0.00,0.00,0.00,0,,,100,100,0,2,0,0,0,2,2,,,,,0.0,0.0,0.0,0.0,0.0,0.0,0
55.937900,-4.406454,4.00,3.90,0.00,0.47,4.10,4.10,2.30,0.47,12197,2022-07-10 09:41:46.862,2022-07-10 10:41:46.862,19,0,0,16.521,55.937901,-4.406462,0.00,0.00,0.00,4.00,0.60,61.80,0,1,0,96,100,-7067,3254,16521,3026.50,7,P-GPS,1,0,0,0,0,-660,0,1657446106861,4145,4105,4112,4137,0,0,27,,,,,,,0,0,0,-40.00,6.00,618.00,-637.00,0.00,665.00,6,40.00,0.00,4.75,0.00,0.00,0.00,0,,,100,100,0,2,0,0,0,2,2,,,,,0.0,0.0,0.0,0.0,0.0,0.0,0
55.937900,-4.406454,4.00,3.90,0.00,0.48,4.10,4.10,2.30,0.48,12303,2022-07-10 09:41:46.968,2022-07-10 10:41:46.967,19,0,0,16.447,55.937901,-4.406462,0.00,0.00,0.00,4.00,0.50,55.70,0,1,0,96,100,-7072,3252,16447,3027.50,7,P-GPS,1,0,0,0,0,-660,0,1657446106967,4145,4105,4112,4137,0,0,27,,,,,,,0,0,0,-40.00,5.00,557.00,-637.00,0.00,604.00,6,40.00,0.00,4.82,0.00,0.00,0.00,0,,,100,100,0,2,0,0,0,2,2,,,,,0.0,0.0,0.0,0.0,0.0,0.0,0
55.937900,-4.406454,4.00,4.00,0.00,0.49,4.10,4.10,2.30,0.49,12398,2022-07-10 09:41:47.063,2022-07-10 10:41:47.062,19,0,0,16.447,55.937901,-4.406462,0.00,0.00,0.00,3.90,0.50,49.60,0,1,0,96,100,-7072,3252,16447,3027.50,7,P-GPS,1,0,0,0,0,-660,0,1657446107062,4145,4105,4112,4137,0,0,27,,,,,,,0,0,0,-39.00,5.00,496.00,-637.00,0.00,544.00,6,40.00,0.00,4.95,0.00,0.00,0.00,0,,,100,100,0,2,0,0,0,2,2,,,,,0.0,0.0,0.0,0.0,0.0,0.0,0
55.937900,-4.406454,4.00,3.90,0.00,0.50,4.10,4.10,2.30,0.50,12492,2022-07-10 09:41:47.156,2022-07-10 10:41:47.156,19,0,0,16.447,55.937901,-4.406462,0.00,0.00,0.00,3.80,0.00,43.50,0,1,0,96,100,-7072,3252,16447,3027.50,7,P-GPS,1,0,0,0,0,-660,0,1657446107156,4145,4105,4112,4137,0,0,27,,,,,,,0,0,0,-38.00,0.00,435.00,-637.00,0.00,484.00,6,40.00,0.00,5.00,0.00,0.00,0.00,0,,,100,100,0,2,0,0,0,2,2,,,,,0.0,0.0,0.0,0.0,0.0,0.0,0
55.937900,-4.406454,4.00,3.90,0.00,0.49,4.10,4.10,2.30,0.50,12591,2022-07-10 09:41:47.256,2022-07-10 10:41:47.255,19,0,0,16.447,55.937901,-4.406462,0.00,0.00,0.00,3.60,-0.60,37.50,0,1,0,96,100,-7072,3252,16447,3027.50,7,P-GPS,1,0,0,0,0,-660,0,1657446107255,4145,4105,4112,4137,0,0,27,,,,,,,0,0,0,-36.00,-6.00,375.00,-637.00,0.00,424.00,6,40.00,0.00,4.92,0.00,0.00,0.00,0,,,100,100,0,2,0,0,0,2,2,,,,,0.0,0.0,0.0,0.0,0.0,0.0,0
55.937900,-4.406454,4.00,3.90,0.00,0.49,4.10,4.10,2.30,0.50,12700,2022-07-10 09:41:47.364,2022-07-10 10:41:47.364,19,0,0,16.447,55.937901,-4.406462,0.00,0.00,0.00,2.90,-1.00,31.50,0,1,0,96,100,-7072,3252,16447,3027.50,7,P-GPS,1,0,0,0,0,-660,0,1657446107364,4145,4105,4112,4137,0,0,27,,,,,,,0,0,0,-29.00,-10.00,315.00,-637.00,0.00,365.00,6,40.00,0.00,4.94,0.00,0.00,0.00,0,,,100,100,0,2,0,0,0,2,2,,,,,0.0,0.0,0.0,0.0,0.0,0.0,0
55.937900,-4.406454,4.00,3.90,0.00,0.49,4.10,4.10,2.30,0.50,12799,2022-07-10 09:41:47.463,2022-07-10 10:41:47.463,19,0,0,16.447,55.937901,-4.406462,0.00,0.00,0.00,2.50,-1.10,25.60,0,1,0,96,100,-7072,3252,16447,3027.50,7,P-GPS,1,0,0,0,0,-660,0,1657446107463,4145,4105,4112,4137,0,0,27,,,,,,,0,0,0,-25.00,-11.00,256.00,-637.00,0.00,305.00,6,40.00,0.00,4.92,0.00,0.00,0.00,0,,,100,100,0,2,0,0,0,2,2,,,,,0.0,0.0,0.0,0.0,0.0,0.0,0
55.937900,-4.406454,4.00,3.90,0.00,0.49,4.10,4.10,2.30,0.50,12898,2022-07-10 09:41:47.562,2022-07-10 10:41:47.562,19,0,0,16.447,55.937901,-4.406462,0.00,0.00,0.00,2.50,-1.20,19.70,0,1,0,96,100,-7072,3252,16447,3027.50,7,P-GPS,1,0,0,0,0,-660,0,1657446107562,4145,4105,4112,4137,0,0,27,,,,,,,0,0,0,-25.00,-12.00,197.00,-637.00,0.00,245.00,6,40.00,0.00,4.92,0.00,0.00,0.00,0,,,100,100,0,2,0,0,0,2,2,,,,,0.0,0.0,0.0,0.0,0.0,0.0,0
55.937900,-4.406454,3.90,3.90,0.00,0.48,4.10,4.10,2.30,0.50,12995,2022-07-10 09:41:47.659,2022-07-10 10:41:47.659,19,0,0,16.453,55.937901,-4.406462,0.00,0.00,0.00,2.40,-1.30,13.60,0,1,0,96,100,-7072,3252,16453,3027.50,7,P-GPS,1,0,0,0,0,-660,0,1657446107659,4145,4105,4112,4137,0,0,27,,,,,,,0,0,0,-24.00,-13.00,136.00,-637.00,0.00,185.00,6,39.00,0.00,4.84,0.00,0.00,0.00,0,,,100,100,0,2,0,0,0,2,2,,,,,0.0,0.0,0.0,0.0,0.0,0.0,0
55.937900,-4.406454,3.90,3.90,0.00,0.48,4.10,4.10,2.30,0.50,13098,2022-07-10 09:41:47.762,2022-07-10 10:41:47.762,19,0,0,16.453,55.937901,-4.406462,0.00,0.00,0.00,2.20,-1.40,7.60,0,1,0,96,100,-7072,3252,16453,3027.50,7,P-GPS,1,0,0,0,0,-660,0,1657446107762,4145,4105,4112,4137,0,0,27,,,,,,,0,0,0,-22.00,-14.00,76.00,-637.00,0.00,124.00,6,39.00,0.00,4.83,0.00,0.00,0.00,0,,,100,100,0,2,0,0,0,2,2,,,,,0.0,0.0,0.0,0.0,0.0,0.0,0
55.937900,-4.406454,3.90,3.90,0.00,0.47,4.10,4.10,2.30,0.50,13201,2022-07-10 09:41:47.865,2022-07-10 10:41:47.865,19,0,0,16.453,55.937901,-4.406462,0.00,0.00,0.00,1.60,-1.50,1.60,0,1,0,96,100,-7072,3252,16453,3027.50,7,P-GPS,1,0,0,0,0,-660,0,1657446107865,4145,4105,4112,4137,0,0,27,,,,,,,0,0,0,-16.00,-15.00,16.00,-637.00,0.00,65.00,6,39.00,0.00,4.69,0.00,0.00,0.00,0,,,100,100,0,2,0,0,0,2,2,,,,,0.0,0.0,0.0,0.0,0.0,0.0,0
55.937900,-4.406454,3.90,3.90,0.00,0.47,4.10,4.10,2.30,0.50,13299,2022-07-10 09:41:47.964,2022-07-10 10:41:47.963,19,0,0,16.453,55.937901,-4.406462,0.00,0.00,0.00,1.60,-1.70,-4.50,0,1,0,96,100,-7072,3252,16453,3027.50,7,P-GPS,1,0,0,0,0,-660,0,1657446107963,4145,4105,4112,4137,0,0,27,,,,,,,0,0,0,-16.00,-17.00,-45.00,-637.00,0.00,5.00,6,39.00,0.00,4.66,0.00,0.00,0.00,0,,,100,100,0,2,0,0,0,2,2,,,,,0.0,0.0,0.0,0.0,0.0,0.0,0
55.937900,-4.406455,3.90,3.90,0.00,0.46,4.10,4.10,2.30,0.50,13408,2022-07-10 09:41:48.073,2022-07-10 10:41:48.073,19,0,0,16.453,55.937901,-4.406462,0.00,0.00,0.00,1.70,-1.60,-10.60,0,1,0,96,100,-7072,3252,16453,3027.50,7,P-GPS,1,0,0,0,0,-660,0,1657446108072,4145,4105,4112,4137,0,0,27,,,,,,,0,0,0,-17.00,-16.00,-106.00,-637.00,0.00,-54.00,6,39.00,0.00,4.65,0.00,0.00,0.00,0,,,100,100,0,2,0,0,0,2,2,,,,,12.3,0.0,0.0,0.0,0.0,0.0,0
55.937900,-4.406455,3.90,3.90,0.00,0.46,4.10,4.10,2.30,0.50,13498,2022-07-10 09:41:48.163,2022-07-10 10:41:48.162,19,0,0,16.453,55.937901,-4.406462,0.00,0.00,0.00,0.70,-2.10,-16.50,0,1,0,96,100,-7072,3252,16453,3027.50,7,P-GPS,1,0,0,0,0,-660,0,1657446108162,4145,4105,4112,4137,0,0,27,,,,,,,0,0,0,-7.00,-21.00,-165.00,-637.00,0.00,-114.00,6,39.00,0.00,4.64,0.00,0.00,0.00,0,,,100,100,0,2,0,0,0,2,2,,,,,12.3,0.0,0.0,0.0,0.0,0.0,0
55.937900,-4.406455,3.90,3.90,0.00,0.44,4.10,4.10,2.30,0.50,13605,2022-07-10 09:41:48.269,2022-07-10 10:41:48.269,19,0,0,16.453,55.937901,-4.406462,0.00,0.00,0.00,0.30,-2.30,-22.40,0,1,0,96,100,-7072,3252,16453,3027.50,7,P-GPS,1,0,0,0,0,-660,0,1657446108269,4145,4105,4112,4137,0,0,27,,,,,,,0,0,0,-3.00,-23.00,-224.00,-637.00,0.00,-174.00,6,39.00,0.00,4.39,0.00,0.00,0.00,0,,,100,100,0,2,0,0,0,2,2,,,,,11.7,0.0,0.0,0.0,0.0,0.0,0
55.937900,-4.406455,3.90,3.90,0.00,0.44,4.10,4.10,2.30,0.50,13699,2022-07-10 09:41:48.364,2022-07-10 10:41:48.363,19,0,0,16.453,55.937901,-4.406462,0.00,0.00,0.00,0.20,-2.70,-28.40,0,1,0,96,100,-7072,3252,16453,3027.50,7,P-GPS,1,0,0,0,0,-660,0,1657446108363,4145,4105,4112,4137,0,0,27,,,,,,,0,0,0,-2.00,-27.00,-284.00,-637.00,0.00,-234.00,6,39.00,0.00,4.37,0.00,0.00,0.00,0,,,100,100,0,2,0,0,0,2,2,,,,,11.7,0.0,0.0,0.0,0.0,0.0,0
55.937900,-4.406455,3.90,3.90,0.00,0.43,4.10,4.10,2.30,0.50,13804,2022-07-10 09:41:48.469,2022-07-10 10:41:48.468,19,0,0,16.442,55.937901,-4.406462,0.00,0.00,0.00,0.20,-2.50,-34.50,0,1,0,96,100,-7016,3248,16442,3027.50,7,P-GPS,1,0,0,0,0,-660,0,1657446108468,4145,4105,4112,4137,0,0,27,,,,,,,0,0,0,-2.00,-25.00,-345.00,-637.00,0.00,-294.00,6,39.00,0.00,4.32,0.00,0.00,0.00,0,,,100,100,0,2,0,0,0,2,2,,,,,0.0,0.0,0.0,0.0,0.0,0.0,0
55.937900,-4.406455,3.90,3.90,0.00,0.43,4.10,4.10,2.30,0.50,13899,2022-07-10 09:41:48.564,2022-07-10 10:41:48.563,19,0,0,16.442,55.937901,-4.406462,0.00,0.00,0.00,0.30,-2.50,-40.80,0,1,0,96,100,-7016,3248,16442,3027.50,7,P-GPS,1,0,0,0,0,-660,0,1657446108563,4145,4105,4112,4137,0,0,27,,,,,,,0,0,0,-3.00,-25.00,-408.00,-637.00,0.00,-354.00,6,39.00,0.00,4.29,0.00,0.00,0.00,0,,,100,100,0,2,0,0,0,2,2,,,,,0.0,0.0,0.0,0.0,0.0,0.0,0
55.937900,-4.406455,3.90,3.90,0.00,0.42,4.10,4.10,2.30,0.50,14004,2022-07-10 09:41:48.669,2022-07-10 10:41:48.668,19,0,0,16.442,55.937901,-4.406462,0.00,0.00,0.00,0.70,-3.40,-46.90,0,1,0,96,100,-7016,3248,16442,3027.50,7,P-GPS,1,0,0,0,0,-660,0,1657446108668,4145,4105,4112,4137,0,0,27,,,,,,,0,0,0,-7.00,-34.00,-469.00,-637.00,0.00,-414.00,6,39.00,0.00,4.19,0.00,0.00,0.00,0,,,100,100,0,2,0,0,0,2,2,,,,,0.0,0.0,0.0,0.0,0.0,0.0,0
55.937900,-4.406455,3.90,3.90,0.00,0.42,4.10,4.10,2.30,0.50,14098,2022-07-10 09:41:48.763,2022-07-10 10:41:48.762,19,0,0,16.442,55.937901,-4.406462,0.00,0.00,0.00,0.30,-4.10,-53.00,0,1,0,96,100,-7016,3248,16442,3027.50,7,P-GPS,1,0,0,0,0,-660,0,1657446108762,4145,4105,4112,4137,0,0,27,,,,,,,0,0,0,-3.00,-41.00,-530.00,-637.00,0.00,-474.00,6,39.00,0.00,4.18,0.00,0.00,0.00,0,,,100,100,0,2,0,0,0,2,2,,,,,0.0,0.0,0.0,0.0,0.0,0.0,0
55.937900,-4.406455,3.90,3.90,0.00,0.43,4.10,4.10,2.30,0.50,14204,2022-07-10 09:41:48.869,2022-07-10 10:41:48.868,19,0,0,16.442,55.937901,-4.406462,0.00,0.00,0.00,-0.70,-3.30,-58.70,0,1,0,96,100,-7016,3248,16442,3027.50,7,P-GPS,1,0,0,0,0,-660,0,1657446108868,4145,4105,4112,4137,0,0,27,,,,,,,0,0,0,7.00,-33.00,-587.00,-637.00,0.00,-534.00,6,39.00,0.00,4.31,0.00,0.00,0.00,0,,,100,100,0,2,0,0,0,2,2,,,,,0.0,0.0,0.0,0.0,0.0,0.0,0
55.937900,-4.406455,3.90,3.90,0.10,0.43,4.10,4.10,2.30,0.50,14303,2022-07-10 09:41:48.968,2022-07-10 10:41:48.967,19,0,0,16.442,55.937901,-4.406462,-0.10,0.00,0.00,-1.40,-1.70,-64.40,0,1,0,96,100,-7016,3248,16442,3027.50,7,P-GPS,1,0,0,0,0,-660,0,1657446108967,4145,4105,4112,4137,0,0,27,,,,,,,0,0,0,14.00,-17.00,-644.00,-637.00,0.00,-594.00,6,39.00,1.00,4.32,-1.00,0.00,0.00,0,,,100,100,0,2,0,0,0,2,2,,,,,0.0,0.0,0.0,0.0,0.0,0.0,0
55.937900,-4.406455,3.90,3.90,0.10,0.42,4.10,4.10,2.30,0.50,14402,2022-07-10 09:41:49.067,2022-07-10 10:41:49.066,19,0,0,16.442,55.937901,-4.406462,-0.10,0.00,0.00,-1.90,-0.60,-70.20,0,1,0,96,100,-7016,3248,16442,3027.50,7,P-GPS,1,0,0,0,0,-660,0,1657446109066,4145,4105,4112,4137,0,0,27,,,,,,,0,0,0,19.00,-6.00,-702.00,-637.00,0.00,-654.00,6,39.00,1.00,4.24,-1.00,0.00,0.00,0,,,100,100,0,2,0,0,0,2,2,,,,,0.0,0.0,0.0,0.0,0.0,0.0,0
55.937900,-4.406455,3.90,3.90,0.10,0.42,4.10,4.10,2.30,0.50,14505,2022-07-10 09:41:49.170,2022-07-10 10:41:49.169,19,0,0,16.442,55.937901,-4.406462,-0.10,0.00,0.00,-1.80,0.20,-76.00,0,1,0,96,100,-7016,3248,16442,3027.50,7,P-GPS,1,0,0,0,0,-660,0,1657446109169,4145,4105,4112,4137,0,0,27,,,,,,,0,0,0,18.00,2.00,-760.00,-637.00,0.00,-714.00,6,39.00,1.00,4.23,-1.00,0.00,0.00,0,,,100,100,0,2,0,0,0,2,2,,,,,0.0,0.0,0.0,0.0,0.0,0.0,0
55.937900,-4.406456,3.90,3.90,0.00,0.41,4.10,4.10,2.30,0.50,14607,2022-07-10 09:41:49.272,2022-07-10 10:41:49.271,19,0,0,16.442,55.937901,-4.406462,0.00,0.00,0.00,-1.60,0.20,-82.10,0,1,0,96,100,-7016,3248,16442,3027.50,7,P-GPS,1,0,0,0,0,-660,0,1657446109271,4145,4105,4112,4137,0,0,27,,,,,,,0,0,0,16.00,2.00,-821.00,-637.00,0.00,-774.00,6,39.00,0.00,4.10,0.00,0.00,0.00,0,,,100,100,0,2,0,0,0,2,2,,,,,0.0,0.0,0.0,0.0,0.0,0.0,0
