latitude,longitude,altitude(m),ultrasonicHeight(m),speed(mps),distance(m),max_altitude(m),max_ascent(m),max_speed(mps),max_distance(m),time(millisecond),datetime(utc),datetime(local),satellites,pressure(Pa),temperature(F),voltage(v),home_latitude,home_longitude,velocityX(mps),velocityY(mps),velocityZ(mps),pitch(deg),roll(deg),yaw(deg),powerlevel,isflying,istakingphoto,remainPowerPercent,remainLifePercent,currentCurrent,currentElectricity,currentVoltage,batteryTemperature,dischargeCount,flightmode,isMotorsOn,isTakingVideo,Rc_elevator,Rc_aileron,Rc_throttle,Rc_rudder,Rc_gyro,timestamp,Battery_Cell1,Battery_Cell2,Battery_Cell3,Battery_Cell4,Battery_Cell5,Battery_Cell6,Dronetype,AppVersion,Planename,FlyControllerSerialNumber,RemoteSerialNumber,BatterySerialNumber,CENTER_BATTERY.productDate,CENTER_BATTERY.serialNo,CENTER_BATTERY.fullCapacity,CENTER_BATTERY.productDateRaw,pitchRaw,rollRaw,yawRaw,gimbalPitchRaw,gimbalRollRaw,gimbalYawRaw,flyState,altitudeRaw,speedRaw,distanceRaw,velocityXRaw,velocityYRaw,velocityZRaw,data_reuse,App_Tip,App_Warning,downlinkSignalQuality,uplinkSignalQuality,transmissionChannel,rcModeSwitch,rcHome,rcPause,rcTransform,rcJoystickMode,appMode,FlyControllerSerialNumber_legacy,RemoteSerialNumber_legacy,BatterySerialNumber_legacy,Battery2SerialNumber,frontAvoidDist,backAvoidDist,rightAvoidDist,leftAvoidDist,upAvoidDist,downAvoidDist,isBrakingToAvoid
55.940908,-4.406260,0.60,0.70,0.71,8.88,0.60,0.60,0.71,8.88,0,2022-09-13 11:28:00.685,2022-09-13 12:28:00.685,20,0,0,16.453,55.940907,-4.406263,0.00,0.10,-0.70,0.80,-3.70,-5.40,0,1,0,98,100,-1776,3218,16453,3007.50,11,P-GPS,1,0,0,-245,299,0,0,1663068480685,4129,4095,4100,4129,0,0,27,Litchi_4.24.1-g,CJTMAVIC,163DFAS001K45C,0VECFAK0072T52,0P2AFAL5340E87,,0,0,0,-8.00,-37.00,-54.00,0.00,0.00,-35.00,6,6.00,7.07,88.80,0.00,1.00,-7.00,0,,,100,100,0,2,0,0,0,2,2,,,,null,0.0,7.1,0.0,0.0,0.0,0.0,0
55.940908,-4.406260,0.70,0.70,0.71,8.88,0.70,0.70,0.71,8.88,100,2022-09-13 11:28:00.785,2022-09-13 12:28:00.785,20,0,0,16.453,55.940907,-4.406263,0.00,0.10,-0.70,0.70,-5.60,-5.30,0,1,0,98,100,-1776,3218,16453,3007.50,11,P-GPS,1,0,0,-290,300,0,0,1663068480785,4129,4095,4100,4129,0,0,27,,,,,,,0,0,0,-7.00,-56.00,-53.00,0.00,0.00,-35.00,6,7.00,7.07,88.82,0.00,1.00,-7.00,0,,,100,100,0,2,0,0,0,2,2,,,,,0.0,7.1,0.0,0.0,0.0,0.0,0
55.940908,-4.406260,0.70,0.80,0.70,8.87,0.70,0.70,0.71,8.88,195,2022-09-13 11:28:00.880,2022-09-13 12:28:00.880,20,0,0,16.453,55.940907,-4.406263,0.00,0.00,-0.70,1.00,-7.70,-5.30,0,1,0,98,100,-1776,3218,16453,3007.50,11,P-GPS,1,0,0,-359,300,0,0,1663068480880,4129,4095,4100,4129,0,0,27,,,,,,,0,0,0,-10.00,-77.00,-53.00,0.00,0.00,-35.00,6,7.00,7.00,88.66,0.00,0.00,-7.00,0,,,100,100,0,2,0,0,0,2,2,,,,,0.0,7.1,0.0,0.0,0.0,0.0,0
55.940908,-4.406260,0.80,0.90,0.60,8.86,0.80,0.80,0.71,8.88,297,2022-09-13 11:28:00.983,2022-09-13 12:28:00.982,20,0,0,16.453,55.940907,-4.406263,0.00,0.00,-0.60,0.40,-10.50,-5.30,0,1,0,98,100,-1776,3218,16453,3007.50,11,P-GPS,1,0,0,-390,301,0,0,1663068480982,4129,4095,4100,4129,0,0,27,,,,,,,0,0,0,-4.00,-105.00,-53.00,0.00,0.00,-35.00,6,8.00,6.00,88.64,0.00,0.00,-6.00,0,,,100,100,0,2,0,0,0,2,2,,,,,0.0,7.1,0.0,0.0,0.0,0.0,0
55.940908,-4.406260,0.90,0.90,0.63,8.86,0.90,0.90,0.71,8.88,400,2022-09-13 11:28:01.085,2022-09-13 12:28:01.085,20,0,0,16.453,55.940907,-4.406263,0.00,-0.20,-0.60,0.50,-12.80,-5.40,0,1,0,98,100,-1776,3218,16453,3007.50,11,P-GPS,1,0,0,-403,301,0,0,1663068481085,4129,4095,4100,4129,0,0,27,,,,,,,0,0,0,-5.00,-128.00,-54.00,0.00,0.00,-35.00,6,9.00,6.32,88.59,0.00,-2.00,-6.00,0,,,100,100,0,2,0,0,0,2,2,,,,,0.0,7.4,0.0,0.0,0.0,0.0,0
55.940908,-4.406261,1.00,1.00,0.67,8.86,1.00,1.00,0.71,8.88,507,2022-09-13 11:28:01.192,2022-09-13 12:28:01.192,20,0,0,16.453,55.940907,-4.406263,0.00,-0.30,-0.60,1.00,-13.50,-5.40,0,1,0,98,100,-1776,3218,16453,3007.50,11,P-GPS,1,0,0,-403,301,0,0,1663068481192,4129,4095,4100,4129,0,0,27,,,,,,,0,0,0,-10.00,-135.00,-54.00,0.00,0.00,-35.00,6,10.00,6.71,88.55,0.00,-3.00,-6.00,0,,,100,100,0,2,0,0,0,2,2,,,,,0.0,7.4,0.0,0.0,0.0,0.0,0
55.940908,-4.406262,1.00,1.10,0.86,8.85,1.00,1.00,0.86,8.88,603,2022-09-13 11:28:01.289,2022-09-13 12:28:01.288,20,0,0,16.453,55.940907,-4.406263,0.00,-0.50,-0.70,1.40,-14.00,-5.40,0,1,0,98,100,-1776,3218,16453,3007.50,11,P-GPS,1,0,0,-399,301,0,0,1663068481288,4129,4095,4100,4129,0,0,27,,,,,,,0,0,0,-14.00,-140.00,-54.00,0.00,0.00,-35.00,6,10.00,8.60,88.54,0.00,-5.00,-7.00,0,,,100,100,0,2,0,0,0,2,2,,,,,0.0,7.5,0.0,0.0,0.0,0.0,0
55.940908,-4.406263,1.10,1.20,0.99,8.85,1.10,1.10,0.99,8.88,703,2022-09-13 11:28:01.388,2022-09-13 12:28:01.388,20,0,0,16.453,55.940907,-4.406263,0.00,-0.70,-0.70,1.50,-14.10,-5.40,0,1,0,98,100,-1776,3218,16453,3007.50,11,P-GPS,1,0,0,-394,304,0,0,1663068481388,4129,4095,4100,4129,0,0,27,,,,,,,0,0,0,-15.00,-141.00,-54.00,0.00,0.00,-35.00,6,11.00,9.90,88.48,0.00,-7.00,-7.00,0,,,100,100,0,2,0,0,0,2,2,,,,,0.0,7.5,0.0,0.0,0.0,0.0,0
55.940908,-4.406264,1.20,1.20,1.14,8.86,1.20,1.20,1.14,8.88,801,2022-09-13 11:28:01.487,2022-09-13 12:28:01.486,20,0,0,16.453,55.940907,-4.406263,0.00,-0.90,-0.70,1.50,-13.90,-5.40,0,1,0,98,100,-1776,3218,16453,3007.50,11,P-GPS,1,0,0,-389,305,0,0,1663068481486,4129,4095,4100,4129,0,0,27,,,,,,,0,0,0,-15.00,-139.00,-54.00,0.00,0.00,-35.00,6,12.00,11.40,88.64,0.00,-9.00,-7.00,0,,,100,100,0,2,0,0,0,2,2,,,,,0.0,7.7,0.0,0.0,0.0,0.0,0
55.940908,-4.406266,1.20,1.30,1.30,8.86,1.20,1.20,1.30,8.88,904,2022-09-13 11:28:01.589,2022-09-13 12:28:01.589,20,0,0,16.453,55.940907,-4.406263,0.00,-1.10,-0.70,2.10,-13.90,-5.10,0,1,0,98,100,-1776,3218,16453,3007.50,11,P-GPS,1,0,0,-387,306,0,0,1663068481589,4129,4095,4100,4129,0,0,27,,,,,,,0,0,0,-21.00,-139.00,-51.00,0.00,0.00,-35.00,6,12.00,13.04,88.61,0.00,-11.00,-7.00,0,,,100,100,0,2,0,0,0,2,2,,,,,0.0,7.7,0.0,0.0,0.0,0.0,0
55.940908,-4.406267,1.30,1.40,1.39,8.88,1.30,1.30,1.39,8.88,998,2022-09-13 11:28:01.684,2022-09-13 12:28:01.683,20,0,0,16.374,55.940907,-4.406263,0.00,-1.20,-0.70,2.40,-13.70,-5.00,0,1,0,98,100,-7291,3215,16374,3007.50,11,P-GPS,1,0,0,-384,308,0,0,1663068481683,4129,4095,4100,4129,0,0,27,,,,,,,0,0,0,-24.00,-137.00,-50.00,0.00,0.00,-35.00,6,13.00,13.89,88.78,0.00,-12.00,-7.00,0,,,100,100,0,2,0,0,0,2,2,,,,,0.0,0.0,0.0,0.0,0.0,0.0,0
55.940908,-4.406270,1.40,1.40,1.57,8.88,1.40,1.40,1.57,8.88,1100,2022-09-13 11:28:01.785,2022-09-13 12:28:01.785,20,0,0,16.374,55.940907,-4.406263,0.00,-1.40,-0.70,2.60,-13.50,-4.40,0,1,0,98,100,-7291,3215,16374,3007.50,11,P-GPS,1,0,0,-372,310,0,0,1663068481785,4129,4095,4100,4129,0,0,27,,,,,,,0,0,0,-26.00,-135.00,-44.00,0.00,0.00,-35.00,6,14.00,15.65,88.80,0.00,-14.00,-7.00,0,,,100,100,0,2,0,0,0,2,2,,,,,0.0,0.0,0.0,0.0,0.0,0.0,0
55.940908,-4.406272,1.50,1.50,1.66,8.92,1.50,1.50,1.66,8.92,1211,2022-09-13 11:28:01.897,2022-09-13 12:28:01.897,20,0,0,16.374,55.940907,-4.406263,0.00,-1.50,-0.70,2.70,-13.00,-4.20,0,1,0,98,100,-7291,3215,16374,3007.50,11,P-GPS,1,0,0,-343,313,0,0,1663068481896,4129,4095,4100,4129,0,0,27,,,,,,,0,0,0,-27.00,-130.00,-42.00,0.00,0.00,-35.00,6,15.00,16.55,89.15,0.00,-15.00,-7.00,0,,,100,100,0,2,0,0,0,2,2,,,,,0.0,0.0,0.0,0.0,0.0,0.0,0
55.940908,-4.406274,1.50,1.60,1.84,8.93,1.50,1.50,1.84,8.93,1304,2022-09-13 11:28:01.990,2022-09-13 12:28:01.989,20,0,0,16.374,55.940907,-4.406263,0.00,-1.70,-0.70,2.90,-11.80,-3.50,0,1,0,98,100,-7291,3215,16374,3007.50,11,P-GPS,1,0,0,-336,314,0,0,1663068481989,4129,4095,4100,4129,0,0,27,,,,,,,0,0,0,-29.00,-118.00,-35.00,0.00,0.00,-35.00,6,15.00,18.38,89.26,0.00,-17.00,-7.00,0,,,100,100,0,2,0,0,0,2,2,,,,,0.0,0.0,0.0,0.0,0.0,0.0,0
55.940909,-4.406277,1.60,1.70,1.93,9.01,1.60,1.60,1.93,9.01,1413,2022-09-13 11:28:02.099,2022-09-13 12:28:02.098,20,0,0,16.374,55.940907,-4.406263,0.00,-1.80,-0.70,3.10,-10.10,-3.10,0,1,0,98,100,-7291,3215,16374,3007.50,11,P-GPS,1,0,0,-335,315,0,0,1663068482098,4129,4095,4100,4129,0,0,27,,,,,,,0,0,0,-31.00,-101.00,-31.00,0.00,0.00,-35.00,6,16.00,19.31,90.12,0.00,-18.00,-7.00,0,,,100,100,0,2,0,0,0,2,2,,,,,0.0,0.0,0.0,0.0,0.0,0.0,0
55.940909,-4.406280,1.70,1.80,2.06,9.04,1.70,1.70,2.06,9.04,1501,2022-09-13 11:28:02.187,2022-09-13 12:28:02.186,20,0,0,16.374,55.940907,-4.406263,0.00,-1.90,-0.80,3.10,-9.50,-2.70,0,1,0,98,100,-7291,3215,16374,3007.50,11,P-GPS,1,0,0,-335,317,0,0,1663068482186,4129,4095,4100,4129,0,0,27,,,,,,,0,0,0,-31.00,-95.00,-27.00,0.00,0.00,-35.00,6,17.00,20.62,90.35,0.00,-19.00,-8.00,0,,,100,100,0,2,0,0,0,2,2,,,,,0.0,0.0,0.0,0.0,0.0,0.0,0
55.940910,-4.406283,1.80,1.90,2.06,9.11,1.80,1.80,2.06,9.11,1600,2022-09-13 11:28:02.285,2022-09-13 12:28:02.285,20,0,0,16.374,55.940907,-4.406263,0.00,-1.90,-0.80,2.90,-9.00,-2.50,0,1,0,98,100,-7291,3215,16374,3007.50,11,P-GPS,1,0,0,-334,317,0,0,1663068482285,4129,4095,4100,4129,0,0,27,,,,,,,0,0,0,-29.00,-90.00,-25.00,0.00,0.00,-35.00,6,18.00,20.62,91.13,0.00,-19.00,-8.00,0,,,100,100,0,2,0,0,0,2,2,,,,,0.0,8.1,0.0,0.0,0.0,0.0,0
55.940910,-4.406286,1.90,1.90,2.15,9.15,1.90,1.90,2.15,9.15,1701,2022-09-13 11:28:02.386,2022-09-13 12:28:02.386,20,0,0,16.374,55.940907,-4.406263,0.00,-2.00,-0.80,2.70,-8.70,-2.30,0,1,0,98,100,-7291,3215,16374,3007.50,11,P-GPS,1,0,0,-333,323,0,0,1663068482386,4129,4095,4100,4129,0,0,27,,,,,,,0,0,0,-27.00,-87.00,-23.00,0.00,0.00,-35.00,6,19.00,21.54,91.48,0.00,-20.00,-8.00,0,,,100,100,0,2,0,0,0,2,2,,,,,0.0,8.1,0.0,0.0,0.0,0.0,0
55.940910,-4.406289,1.90,2.00,2.25,9.23,1.90,1.90,2.25,9.23,1799,2022-09-13 11:28:02.484,2022-09-13 12:28:02.484,20,0,0,16.374,55.940907,-4.406263,0.00,-2.10,-0.80,2.80,-8.30,-2.40,0,1,0,98,100,-7291,3215,16374,3007.50,11,P-GPS,1,0,0,-332,333,0,0,1663068482484,4129,4095,4100,4129,0,0,27,,,,,,,0,0,0,-28.00,-83.00,-24.00,0.00,0.00,-35.00,6,19.00,22.47,92.29,0.00,-21.00,-8.00,0,,,100,100,0,2,0,0,0,2,2,,,,,0.0,8.1,0.0,0.0,0.0,0.0,0
55.940910,-4.406293,2.00,2.10,2.25,9.28,2.00,2.00,2.25,9.28,1896,2022-09-13 11:28:02.582,2022-09-13 12:28:02.581,20,0,0,16.374,55.940907,-4.406263,0.00,-2.10,-0.80,2.70,-8.20,-2.30,0,1,0,98,100,-7291,3215,16374,3007.50,11,P-GPS,1,0,0,-331,355,0,0,1663068482581,4129,4095,4100,4129,0,0,27,,,,,,,0,0,0,-27.00,-82.00,-23.00,0.00,0.00,-35.00,6,20.00,22.47,92.78,0.00,-21.00,-8.00,0,,,100,100,0,2,0,0,0,2,2,,,,,0.0,0.0,0.0,0.0,0.0,0.0,0
55.940911,-4.406296,2.10,2.10,2.38,9.38,2.10,2.10,2.38,9.38,2000,2022-09-13 11:28:02.685,2022-09-13 12:28:02.685,20,0,0,16.331,55.940907,-4.406263,0.00,-2.20,-0.90,2.80,-7.60,-2.30,0,1,0,98,100,-7595,3213,16331,3007.50,11,P-GPS,1,0,0,-331,386,0,0,1663068482685,4129,4095,4100,4129,0,0,27,,,,,,,0,0,0,-28.00,-76.00,-23.00,0.00,0.00,-35.00,6,21.00,23.77,93.78,0.00,-22.00,-9.00,0,,,100,100,0,2,0,0,0,2,2,,,,,0.0,0.0,0.0,0.0,0.0,0.0,0
55.940911,-4.406299,2.20,2.20,2.46,9.44,2.20,2.20,2.46,9.44,2101,2022-09-13 11:28:02.787,2022-09-13 12:28:02.786,20,0,0,16.331,55.940907,-4.406263,0.00,-2.20,-1.10,3.10,-7.50,-2.10,0,1,0,98,100,-7595,3213,16331,3007.50,11,P-GPS,1,0,0,-331,395,0,0,1663068482786,4129,4095,4100,4129,0,0,27,,,,,,,0,0,0,-31.00,-75.00,-21.00,0.00,0.00,-35.00,6,22.00,24.60,94.42,0.00,-22.00,-11.00,0,,,100,100,0,2,0,0,0,2,2,,,,,0.0,0.0,0.0,0.0,0.0,0.0,0
55.940912,-4.406303,2.30,2.40,2.46,9.54,2.30,2.30,2.46,9.54,2212,2022-09-13 11:28:02.898,2022-09-13 12:28:02.897,20,0,0,16.331,55.940907,-4.406263,0.00,-2.20,-1.10,2.70,-7.70,-2.10,0,1,0,98,100,-7595,3213,16331,3007.50,11,P-GPS,1,0,0,-331,396,0,0,1663068482897,4129,4095,4100,4129,0,0,27,,,,,,,0,0,0,-27.00,-77.00,-21.00,0.00,0.00,-35.00,6,23.00,24.60,95.43,0.00,-22.00,-11.00,0,,,100,100,0,2,0,0,0,2,2,,,,,0.0,0.0,0.0,0.0,0.0,0.0,0
55.940912,-4.406307,2.40,2.50,2.51,9.62,2.40,2.40,2.51,9.62,2301,2022-09-13 11:28:02.986,2022-09-13 12:28:02.986,20,0,0,16.331,55.940907,-4.406263,0.00,-2.20,-1.20,2.90,-8.10,-2.20,0,1,0,98,100,-7595,3213,16331,3007.50,11,P-GPS,1,0,0,-331,395,0,0,1663068482986,4129,4095,4100,4129,0,0,27,,,,,,,0,0,0,-29.00,-81.00,-22.00,0.00,0.00,-35.00,6,24.00,25.06,96.24,0.00,-22.00,-12.00,0,,,100,100,0,2,0,0,0,2,2,,,,,0.0,0.0,0.0,0.0,0.0,0.0,0
55.940912,-4.406311,2.60,2.60,2.59,9.72,2.60,2.60,2.59,9.72,2402,2022-09-13 11:28:03.087,2022-09-13 12:28:03.087,20,0,0,16.331,55.940907,-4.406263,0.00,-2.30,-1.20,3.10,-8.00,-1.80,0,1,0,98,100,-7595,3213,16331,3007.50,11,P-GPS,1,0,0,-331,396,0,0,1663068483087,4129,4095,4100,4129,0,0,27,,,,,,,0,0,0,-31.00,-80.00,-18.00,0.00,0.00,-35.00,6,26.00,25.94,97.18,0.00,-23.00,-12.00,0,,,100,100,0,2,0,0,0,2,2,,,,,0.0,0.0,0.0,0.0,0.0,0.0,0
55.940912,-4.406314,2.70,2.70,2.64,9.81,2.70,2.70,2.64,9.81,2501,2022-09-13 11:28:03.186,2022-09-13 12:28:03.186,20,0,0,16.331,55.940907,-4.406263,0.00,-2.30,-1.30,2.60,-7.80,-0.30,0,1,0,98,100,-7595,3213,16331,3007.50,11,P-GPS,1,0,0,-331,396,0,0,1663068483186,4129,4095,4100,4129,0,0,27,,,,,,,0,0,0,-26.00,-78.00,-3.00,0.00,0.00,-35.00,6,27.00,26.42,98.11,0.00,-23.00,-13.00,0,,,100,100,0,2,0,0,0,2,2,,,,,0.0,0.0,0.0,0.0,0.0,0.0,0
55.940913,-4.406318,2.80,2.80,2.64,9.91,2.80,2.80,2.64,9.91,2598,2022-09-13 11:28:03.285,2022-09-13 12:28:03.283,20,0,0,16.331,55.940907,-4.406263,0.10,-2.30,-1.30,2.20,-7.70,1.20,0,1,0,98,100,-7595,3213,16331,3007.50,11,P-GPS,1,0,0,-331,399,0,0,1663068483283,4129,4095,4100,4129,0,0,27,,,,,,,0,0,0,-22.00,-77.00,12.00,0.00,0.00,-35.00,6,28.00,26.44,99.09,1.00,-23.00,-13.00,0,,,100,100,0,2,0,0,0,2,2,,,,,0.0,0.0,0.0,0.0,0.0,0.0,0
55.940913,-4.406321,3.00,2.90,2.73,10.01,3.00,3.00,2.73,10.01,2703,2022-09-13 11:28:03.389,2022-09-13 12:28:03.388,20,0,0,16.331,55.940907,-4.406263,0.10,-2.40,-1.30,2.60,-7.40,2.30,0,1,0,98,100,-7595,3213,16331,3007.50,11,P-GPS,1,0,0,-331,407,0,0,1663068483388,4129,4095,4100,4129,0,0,27,,,,,,,0,0,0,-26.00,-74.00,23.00,0.00,0.00,-35.00,6,30.00,27.31,100.15,1.00,-24.00,-13.00,0,,,100,100,0,2,0,0,0,2,2,,,,,0.0,0.0,0.0,0.0,0.0,0.0,0
55.940913,-4.406326,3.10,3.00,2.74,10.13,3.10,3.10,2.74,10.13,2795,2022-09-13 11:28:03.480,2022-09-13 12:28:03.480,20,0,0,16.331,55.940907,-4.406263,0.20,-2.40,-1.30,2.70,-7.00,3.10,0,1,0,98,100,-7595,3213,16331,3007.50,11,P-GPS,1,0,0,-331,409,0,0,1663068483480,4129,4095,4100,4129,0,0,27,,,,,,,0,0,0,-27.00,-70.00,31.00,0.00,0.00,-35.00,6,31.00,27.37,101.32,2.00,-24.00,-13.00,0,,,100,100,0,2,0,0,0,2,2,,,,,0.0,0.0,0.0,0.0,0.0,0.0,0
55.940913,-4.406330,3.20,3.10,2.79,10.25,3.20,3.20,2.79,10.25,2896,2022-09-13 11:28:03.582,2022-09-13 12:28:03.581,20,0,0,16.331,55.940907,-4.406263,0.20,-2.40,-1.40,2.40,-6.70,3.70,0,1,0,98,100,-7595,3213,16331,3007.50,11,P-GPS,1,0,0,-331,409,0,0,1663068483581,4129,4095,4100,4129,0,0,27,,,,,,,0,0,0,-24.00,-67.00,37.00,0.00,0.00,-35.00,6,32.00,27.86,102.51,2.00,-24.00,-14.00,0,,,100,100,0,2,0,0,0,2,2,,,,,0.0,0.0,0.0,0.0,0.0,0.0,0
55.940914,-4.406334,3.40,3.20,2.87,10.38,3.40,3.40,2.87,10.38,2995,2022-09-13 11:28:03.680,2022-09-13 12:28:03.680,20,0,0,16.218,55.940907,-4.406263,0.20,-2.50,-1.40,2.40,-6.50,4.00,0,1,0,98,100,-7712,3211,16218,3007.50,11,P-GPS,1,0,0,-331,409,0,0,1663068483680,4129,4095,4100,4129,0,0,27,,,,,,,0,0,0,-24.00,-65.00,40.00,0.00,0.00,-35.00,6,34.00,28.72,103.81,2.00,-25.00,-14.00,0,,,100,100,0,2,0,0,0,2,2,,,,,0.0,0.0,0.0,0.0,0.0,0.0,0
55.940914,-4.406338,3.50,3.40,2.87,10.51,3.50,3.50,2.87,10.51,3104,2022-09-13 11:28:03.790,2022-09-13 12:28:03.789,20,0,0,16.218,55.940907,-4.406263,0.20,-2.50,-1.40,2.00,-6.70,4.10,0,1,0,98,100,-7712,3211,16218,3007.50,11,P-GPS,1,0,0,-331,409,0,0,1663068483789,4129,4095,4100,4129,0,0,27,,,,,,,0,0,0,-20.00,-67.00,41.00,0.00,0.00,-35.00,6,35.00,28.72,105.13,2.00,-25.00,-14.00,0,,,100,100,0,2,0,0,0,2,2,,,,,0.0,0.0,0.0,0.0,0.0,0.0,0
55.940914,-4.406342,3.70,3.50,2.87,10.63,3.70,3.70,2.87,10.63,3202,2022-09-13 11:28:03.887,2022-09-13 12:28:03.887,20,0,0,16.218,55.940907,-4.406263,0.10,-2.50,-1.40,2.30,-6.60,4.00,0,1,0,98,100,-7712,3211,16218,3007.50,11,P-GPS,1,0,0,-331,410,0,0,1663068483887,4129,4095,4100,4129,0,0,27,,,,,,,0,0,0,-23.00,-66.00,40.00,0.00,0.00,-35.00,6,37.00,28.67,106.27,1.00,-25.00,-14.00,0,,,100,100,0,2,0,0,0,2,2,,,,,0.0,0.0,0.0,0.0,0.0,0.0,0
55.940914,-4.406346,3.80,3.60,2.87,10.77,3.80,3.80,2.87,10.77,3297,2022-09-13 11:28:03.983,2022-09-13 12:28:03.982,20,0,0,16.218,55.940907,-4.406263,0.10,-2.50,-1.40,1.90,-6.60,4.20,0,1,0,98,100,-7712,3211,16218,3007.50,11,P-GPS,1,0,0,-331,411,0,0,1663068483982,4129,4095,4100,4129,0,0,27,,,,,,,0,0,0,-19.00,-66.00,42.00,0.00,0.00,-35.00,6,38.00,28.67,107.67,1.00,-25.00,-14.00,0,,,100,100,0,2,0,0,0,2,2,,,,,0.0,0.0,0.0,0.0,0.0,0.0,0
55.940914,-4.406346,3.80,3.60,2.87,10.77,3.80,3.80,2.87,10.77,3385,2022-09-13 11:28:04.070,2022-09-13 12:28:04.070,20,0,0,16.218,55.940907,-4.406263,0.10,-2.50,-1.40,1.90,-6.60,4.20,0,1,0,98,100,-7712,3211,16218,3007.50,11,P-GPS,1,0,0,-331,411,0,0,1663068484070,4129,4095,4100,4129,0,0,27,,,,,,,0,0,0,-19.00,-66.00,42.00,0.00,0.00,-35.00,6,38.00,28.67,107.67,1.00,-25.00,-14.00,0,,,100,100,0,2,0,0,0,2,2,,,,,0.0,0.0,0.0,0.0,0.0,0.0,0
55.940915,-4.406354,4.10,3.90,2.95,11.04,4.10,4.10,2.95,11.04,3498,2022-09-13 11:28:04.184,2022-09-13 12:28:04.183,20,0,0,16.218,55.940907,-4.406263,0.10,-2.60,-1.40,0.60,-6.50,4.30,0,1,0,98,100,-7712,3211,16218,3007.50,11,P-GPS,1,0,0,-331,414,0,0,1663068484183,4129,4095,4100,4129,0,0,27,,,,,,,0,0,0,-6.00,-65.00,43.00,0.00,0.00,-35.00,6,41.00,29.55,110.36,1.00,-26.00,-14.00,0,,,100,100,0,2,0,0,0,2,2,,,,,0.0,0.0,0.0,0.0,0.0,0.0,0
55.940915,-4.406358,4.20,4.00,2.95,11.16,4.20,4.20,2.95,11.16,3596,2022-09-13 11:28:04.281,2022-09-13 12:28:04.281,20,0,0,16.218,55.940907,-4.406263,0.10,-2.60,-1.40,0.60,-6.20,4.40,0,1,0,98,100,-7712,3211,16218,3007.50,11,P-GPS,1,0,0,-331,429,0,0,1663068484281,4129,4095,4100,4129,0,0,27,,,,,,,0,0,0,-6.00,-62.00,44.00,0.00,0.00,-35.00,6,42.00,29.55,111.63,1.00,-26.00,-14.00,0,,,100,100,0,2,0,0,0,2,2,,,,,0.0,0.0,0.0,0.0,0.0,0.0,0
55.940915,-4.406362,4.40,4.10,3.00,11.32,4.40,4.40,3.00,11.32,3695,2022-09-13 11:28:04.380,2022-09-13 12:28:04.380,20,0,0,16.218,55.940907,-4.406263,0.10,-2.60,-1.50,0.80,-6.30,4.30,0,1,0,98,100,-7712,3211,16218,3007.50,11,P-GPS,1,0,0,-331,435,0,0,1663068484380,4129,4095,4100,4129,0,0,27,,,,,,,0,0,0,-8.00,-63.00,43.00,0.00,0.00,-35.00,6,44.00,30.03,113.20,1.00,-26.00,-15.00,0,,,100,100,0,2,0,0,0,2,2,,,,,0.0,0.0,0.0,0.0,0.0,0.0,0
55.940915,-4.406367,4.50,4.30,3.05,11.46,4.50,4.50,3.05,11.46,3795,2022-09-13 11:28:04.481,2022-09-13 12:28:04.480,20,0,0,16.218,55.940907,-4.406263,0.10,-2.60,-1.60,1.90,-6.60,3.90,0,1,0,98,100,-7712,3211,16218,3007.50,11,P-GPS,1,0,0,-331,446,0,0,1663068484480,4129,4095,4100,4129,0,0,27,,,,,,,0,0,0,-19.00,-66.00,39.00,0.00,0.00,-35.00,6,45.00,30.55,114.65,1.00,-26.00,-16.00,0,,,100,100,0,2,0,0,0,2,2,,,,,0.0,0.0,0.0,0.0,0.0,0.0,0
55.940915,-4.406371,4.70,4.40,3.05,11.62,4.70,4.70,3.05,11.62,3902,2022-09-13 11:28:04.587,2022-09-13 12:28:04.587,20,0,0,16.218,55.940907,-4.406263,0.00,-2.60,-1.60,0.90,-6.80,4.20,0,1,0,98,100,-7712,3211,16218,3007.50,11,P-GPS,1,0,0,-331,448,0,0,1663068484587,4129,4095,4100,4129,0,0,27,,,,,,,0,0,0,-9.00,-68.00,42.00,0.00,0.00,-35.00,6,47.00,30.53,116.25,0.00,-26.00,-16.00,0,,,100,100,0,2,0,0,0,2,2,,,,,0.0,0.0,0.0,0.0,0.0,0.0,0
55.940915,-4.406375,4.90,4.50,3.05,11.76,4.90,4.90,3.05,11.76,4099,2022-09-13 11:28:04.785,2022-09-13 12:28:04.784,20,0,0,16.282,55.940907,-4.406263,0.00,-2.60,-1.60,-0.20,-6.80,4.30,0,1,0,98,100,-7685,3209,16282,3007.50,11,P-GPS,1,0,0,-331,454,0,0,1663068484784,4129,4095,4100,4129,0,0,27,,,,,,,0,0,0,2.00,-68.00,43.00,0.00,0.00,-35.00,6,49.00,30.53,117.60,0.00,-26.00,-16.00,0,,,100,100,0,2,0,0,0,2,2,,,,,0.0,0.0,0.0,0.0,0.0,0.0,0
55.940915,-4.406379,5.00,4.70,3.11,11.92,5.00,5.00,3.11,11.92,4115,2022-09-13 11:28:04.802,2022-09-13 12:28:04.800,20,0,0,16.282,55.940907,-4.406263,0.00,-2.60,-1.70,-1.10,-7.30,4.20,0,1,0,98,100,-7685,3209,16282,3007.50,11,P-GPS,1,0,0,-331,458,0,0,1663068484800,4129,4095,4100,4129,0,0,27,,,,,,,0,0,0,11.00,-73.00,42.00,0.00,0.00,-35.00,6,50.00,31.06,119.20,0.00,-26.00,-17.00,0,,,100,100,0,2,0,0,0,2,2,,,,,0.0,0.0,0.0,0.0,0.0,0.0,0
55.940915,-4.406388,5.40,5.00,3.11,12.23,5.40,5.40,3.11,12.23,4298,2022-09-13 11:28:04.983,2022-09-13 12:28:04.983,20,0,0,16.282,55.940907,-4.406263,0.00,-2.60,-1.70,-1.90,-8.40,4.40,0,1,0,98,100,-7685,3209,16282,3007.50,11,P-GPS,1,0,0,-331,460,0,0,1663068484983,4129,4095,4100,4129,0,0,27,,,,,,,0,0,0,19.00,-84.00,44.00,0.00,0.00,-35.00,6,54.00,31.06,122.26,0.00,-26.00,-17.00,0,,,100,100,0,2,0,0,0,2,2,,,,,0.0,0.0,0.0,0.0,0.0,0.0,0
55.940915,-4.406392,5.60,5.20,3.11,12.39,5.60,5.60,3.11,12.39,4400,2022-09-13 11:28:05.086,2022-09-13 12:28:05.086,20,0,0,16.282,55.940907,-4.406263,0.00,-2.60,-1.70,-2.40,-8.70,4.40,0,1,0,98,100,-7685,3209,16282,3007.50,11,P-GPS,1,0,0,-331,461,0,0,1663068485085,4129,4095,4100,4129,0,0,27,,,,,,,0,0,0,24.00,-87.00,44.00,0.00,0.00,-35.00,6,56.00,31.06,123.90,0.00,-26.00,-17.00,0,,,100,100,0,2,0,0,0,2,2,,,,,0.0,0.0,0.0,0.0,0.0,0.0,0
55.940915,-4.406396,5.70,5.30,3.11,12.56,5.70,5.70,3.11,12.56,4495,2022-09-13 11:28:05.180,2022-09-13 12:28:05.180,20,0,0,16.282,55.940907,-4.406263,0.00,-2.60,-1.70,-2.80,-8.60,4.60,0,1,0,98,100,-7685,3209,16282,3007.50,11,P-GPS,1,0,0,-331,469,0,0,1663068485180,4129,4095,4100,4129,0,0,27,,,,,,,0,0,0,28.00,-86.00,46.00,0.00,0.00,-35.00,6,57.00,31.06,125.60,0.00,-26.00,-17.00,0,,,100,100,0,2,0,0,0,2,2,,,,,0.0,0.0,0.0,0.0,0.0,0.0,0
55.940915,-4.406400,5.90,5.50,3.16,12.70,5.90,5.90,3.16,12.70,4597,2022-09-13 11:28:05.283,2022-09-13 12:28:05.282,20,0,0,16.282,55.940907,-4.406263,0.00,-2.60,-1.80,-3.30,-8.40,4.60,0,1,0,98,100,-7685,3209,16282,3007.50,11,P-GPS,1,0,0,-332,474,0,0,1663068485282,4129,4095,4100,4129,0,0,27,,,,,,,0,0,0,33.00,-84.00,46.00,0.00,0.00,-35.00,6,59.00,31.62,126.98,0.00,-26.00,-18.00,0,,,100,100,0,2,0,0,0,2,2,,,,,0.0,0.0,0.0,0.0,0.0,0.0,0
55.940915,-4.406404,6.10,5.70,3.22,12.87,6.10,6.10,3.22,12.87,4701,2022-09-13 11:28:05.387,2022-09-13 12:28:05.387,20,0,0,16.282,55.940907,-4.406263,0.00,-2.60,-1.90,-3.20,-9.10,4.60,0,1,0,98,100,-7685,3209,16282,3007.50,11,P-GPS,1,0,0,-332,475,0,0,1663068485386,4129,4095,4100,4129,0,0,27,,,,,,,0,0,0,32.00,-91.00,46.00,0.00,0.00,-35.00,6,61.00,32.20,128.74,0.00,-26.00,-19.00,0,,,100,100,0,2,0,0,0,2,2,,,,,0.0,0.0,0.0,0.0,0.0,0.0,0
55.940915,-4.406409,6.30,5.90,3.16,13.05,6.30,6.30,3.22,13.05,4795,2022-09-13 11:28:05.480,2022-09-13 12:28:05.480,20,0,0,16.282,55.940907,-4.406263,0.00,-2.60,-1.80,-2.20,-9.30,4.50,0,1,0,98,100,-7685,3209,16282,3007.50,11,P-GPS,1,0,0,-332,477,0,0,1663068485480,4129,4095,4100,4129,0,0,27,,,,,,,0,0,0,22.00,-93.00,45.00,0.00,0.00,-35.00,6,63.00,31.62,130.53,0.00,-26.00,-18.00,0,,,100,100,0,2,0,0,0,2,2,,,,,0.0,0.0,0.0,0.0,0.0,0.0,0
55.940915,-4.406413,6.50,6.00,3.22,13.24,6.50,6.50,3.22,13.24,4897,2022-09-13 11:28:05.583,2022-09-13 12:28:05.582,20,0,0,16.282,55.940907,-4.406263,0.00,-2.60,-1.90,-1.90,-8.90,4.30,0,1,0,98,100,-7685,3209,16282,3007.50,11,P-GPS,1,0,0,-332,477,0,0,1663068485582,4129,4095,4100,4129,0,0,27,,,,,,,0,0,0,19.00,-89.00,43.00,0.00,0.00,-35.00,6,65.00,32.20,132.42,0.00,-26.00,-19.00,0,,,100,100,0,2,0,0,0,2,2,,,,,0.0,0.0,0.0,0.0,0.0,0.0,0
55.940915,-4.406418,6.70,6.20,3.36,13.43,6.70,6.70,3.36,13.43,4996,2022-09-13 11:28:05.681,2022-09-13 12:28:05.681,20,0,0,16.271,55.940907,-4.406263,0.10,-2.70,-2.00,-1.20,-8.50,4.30,0,1,0,98,100,-7596,3207,16271,3008.50,11,P-GPS,1,0,0,-333,477,0,0,1663068485681,4129,4095,4100,4129,0,0,27,,,,,,,0,0,0,12.00,-85.00,43.00,0.00,0.00,-35.00,6,67.00,33.62,134.35,1.00,-27.00,-20.00,0,,,100,100,0,2,0,0,0,2,2,,,,,0.0,0.0,0.0,0.0,0.0,0.0,0
55.940915,-4.406422,6.90,6.40,3.36,13.64,6.90,6.90,3.36,13.64,5096,2022-09-13 11:28:05.782,2022-09-13 12:28:05.781,20,0,0,16.271,55.940907,-4.406263,0.10,-2.70,-2.00,-0.70,-8.90,4.40,0,1,0,98,100,-7596,3207,16271,3008.50,11,P-GPS,1,0,0,-333,478,0,0,1663068485781,4129,4095,4100,4129,0,0,27,,,,,,,0,0,0,7.00,-89.00,44.00,0.00,0.00,-35.00,6,69.00,33.62,136.37,1.00,-27.00,-20.00,0,,,100,100,0,2,0,0,0,2,2,,,,,0.0,0.0,0.0,0.0,0.0,0.0,0
55.940915,-4.406426,7.10,6.60,3.36,13.81,7.10,7.10,3.36,13.81,5203,2022-09-13 11:28:05.888,2022-09-13 12:28:05.888,20,0,0,16.271,55.940907,-4.406263,0.10,-2.70,-2.00,0.00,-8.70,4.20,0,1,0,98,100,-7596,3207,16271,3008.50,11,P-GPS,1,0,0,-333,481,0,0,1663068485888,4129,4095,4100,4129,0,0,27,,,,,,,0,0,0,-0.00,-87.00,42.00,0.00,0.00,-35.00,6,71.00,33.62,138.08,1.00,-27.00,-20.00,0,,,100,100,0,2,0,0,0,2,2,,,,,0.0,0.0,0.0,0.0,0.0,0.0,0
55.940915,-4.406430,7.30,6.80,3.36,14.01,7.30,7.30,3.36,14.01,5297,2022-09-13 11:28:05.982,2022-09-13 12:28:05.982,20,0,0,16.271,55.940907,-4.406263,0.10,-2.70,-2.00,0.20,-8.60,4.20,0,1,0,98,100,-7596,3207,16271,3008.50,11,P-GPS,1,0,0,-333,484,0,0,1663068485982,4129,4095,4100,4129,0,0,27,,,,,,,0,0,0,-2.00,-86.00,42.00,0.00,0.00,-35.00,6,73.00,33.62,140.14,1.00,-27.00,-20.00,0,,,100,100,0,2,0,0,0,2,2,,,,,0.0,0.0,0.0,0.0,0.0,0.0,0
55.940915,-4.406435,7.50,7.00,3.36,14.22,7.50,7.50,3.36,14.22,5401,2022-09-13 11:28:06.087,2022-09-13 12:28:06.086,20,0,0,16.271,55.940907,-4.406263,0.00,-2.70,-2.00,0.10,-8.60,4.20,0,1,0,98,100,-7596,3207,16271,3008.50,11,P-GPS,1,0,0,-332,489,0,0,1663068486086,4129,4095,4100,4129,0,0,27,,,,,,,0,0,0,-1.00,-86.00,42.00,0.00,0.00,-35.00,6,75.00,33.60,142.23,0.00,-27.00,-20.00,0,,,100,100,0,2,0,0,0,2,2,,,,,0.0,0.0,0.0,0.0,0.0,0.0,0
55.940915,-4.406439,7.70,7.10,3.42,14.43,7.70,7.70,3.42,14.43,5499,2022-09-13 11:28:06.185,2022-09-13 12:28:06.184,20,0,0,16.271,55.940907,-4.406263,0.00,-2.70,-2.10,-0.80,-8.50,4.30,0,1,0,98,100,-7596,3207,16271,3008.50,11,P-GPS,1,0,0,-333,499,0,0,1663068486184,4129,4095,4100,4129,0,0,27,,,,,,,0,0,0,8.00,-85.00,43.00,0.00,0.00,-35.00,6,77.00,34.21,144.29,0.00,-27.00,-21.00,0,,,100,100,0,2,0,0,0,2,2,,,,,0.0,0.0,0.0,0.0,0.0,0.0,0
55.940915,-4.406443,7.90,7.30,3.42,14.64,7.90,7.90,3.42,14.64,5599,2022-09-13 11:28:06.284,2022-09-13 12:28:06.284,20,0,0,16.271,55.940907,-4.406263,0.00,-2.70,-2.10,-1.90,-8.70,4.30,0,1,0,98,100,-7596,3207,16271,3008.50,11,P-GPS,1,0,0,-333,507,0,0,1663068486284,4129,4095,4100,4129,0,0,27,,,,,,,0,0,0,19.00,-87.00,43.00,0.00,0.00,-35.00,6,79.00,34.21,146.39,0.00,-27.00,-21.00,0,,,100,100,0,2,0,0,0,2,2,,,,,0.0,0.0,0.0,0.0,0.0,0.0,0
55.940915,-4.406448,8.10,7.50,3.48,14.85,8.10,8.10,3.48,14.85,5715,2022-09-13 11:28:06.400,2022-09-13 12:28:06.400,20,0,0,16.271,55.940907,-4.406263,0.00,-2.70,-2.20,-3.00,-8.20,4.70,0,1,0,98,100,-7596,3207,16271,3008.50,11,P-GPS,1,0,0,-333,524,-2,0,1663068486400,4129,4095,4100,4129,0,0,27,,,,,,,0,0,0,30.00,-82.00,47.00,0.00,0.00,-35.00,6,81.00,34.83,148.47,0.00,-27.00,-22.00,0,,,100,100,0,2,0,0,0,2,2,,,,,0.0,0.0,0.0,0.0,0.0,0.0,0
55.940915,-4.406457,8.60,7.90,3.62,15.27,8.60,8.60,3.62,15.27,5900,2022-09-13 11:28:06.586,2022-09-13 12:28:06.586,20,0,0,16.271,55.940907,-4.406263,0.00,-2.80,-2.30,-2.70,-9.10,4.50,0,1,0,98,100,-7596,3207,16271,3008.50,11,P-GPS,1,0,0,-333,528,-11,0,1663068486585,4129,4095,4100,4129,0,0,27,,,,,,,0,0,0,27.00,-91.00,45.00,0.00,0.00,-35.00,6,86.00,36.24,152.74,0.00,-28.00,-23.00,0,,,100,100,0,2,0,0,0,2,2,,,,,0.0,0.0,0.0,0.0,0.0,0.0,0
55.940915,-4.406461,8.80,8.20,3.69,15.50,8.80,8.80,3.69,15.50,5995,2022-09-13 11:28:06.681,2022-09-13 12:28:06.680,20,0,0,16.177,55.940907,-4.406263,0.00,-2.80,-2.40,-2.90,-8.80,4.50,0,1,0,97,100,-8071,3204,16177,3008.50,11,P-GPS,1,0,0,-332,536,-17,0,1663068486680,4129,4095,4100,4129,0,0,27,,,,,,,0,0,0,29.00,-88.00,45.00,0.00,0.00,-35.00,6,88.00,36.88,155.02,0.00,-28.00,-24.00,0,,,100,100,0,2,0,0,0,2,2,,,,,0.0,0.0,0.0,0.0,0.0,0.0,0
55.940915,-4.406466,9.10,8.40,3.69,15.72,9.10,9.10,3.69,15.72,6098,2022-09-13 11:28:06.784,2022-09-13 12:28:06.784,20,0,0,16.177,55.940907,-4.406263,0.00,-2.80,-2.40,-3.20,-8.50,4.60,0,1,0,97,100,-8071,3204,16177,3008.50,11,P-GPS,1,0,0,-333,542,-29,0,1663068486783,4129,4095,4100,4129,0,0,27,,,,,,,0,0,0,32.00,-85.00,46.00,0.00,0.00,-35.00,6,91.00,36.88,157.24,0.00,-28.00,-24.00,0,,,100,100,0,2,0,0,0,2,2,,,,,0.0,0.0,0.0,0.0,0.0,0.0,0
55.940915,-4.406470,9.30,8.60,3.75,15.95,9.30,9.30,3.75,15.95,6195,2022-09-13 11:28:06.881,2022-09-13 12:28:06.880,20,0,0,16.177,55.940907,-4.406263,0.00,-2.80,-2.50,-3.20,-8.50,4.50,0,1,0,97,100,-8071,3204,16177,3008.50,11,P-GPS,1,0,0,-333,546,-41,0,1663068486880,4129,4095,4100,4129,0,0,27,,,,,,,0,0,0,32.00,-85.00,45.00,0.00,0.00,-35.00,6,93.00,37.54,159.49,0.00,-28.00,-25.00,0,,,100,100,0,2,0,0,0,2,2,,,,,0.0,0.0,0.0,0.0,0.0,0.0,0
55.940915,-4.406475,9.60,8.80,3.75,16.18,9.60,9.60,3.75,16.18,6296,2022-09-13 11:28:06.981,2022-09-13 12:28:06.981,20,0,0,16.177,55.940907,-4.406263,0.00,-2.80,-2.50,-3.20,-8.30,4.40,0,1,0,97,100,-8071,3204,16177,3008.50,11,P-GPS,1,0,0,-333,546,-47,0,1663068486981,4129,4095,4100,4129,0,0,27,,,,,,,0,0,0,32.00,-83.00,44.00,0.00,0.00,-35.00,6,96.00,37.54,161.78,0.00,-28.00,-25.00,0,,,100,100,0,2,0,0,0,2,2,,,,,0.0,0.0,0.0,0.0,0.0,0.0,0
55.940915,-4.406480,9.90,9.10,3.82,16.41,9.90,9.90,3.82,16.41,6395,2022-09-13 11:28:07.081,2022-09-13 12:28:07.080,20,0,0,16.177,55.940907,-4.406263,0.00,-2.80,-2.60,-2.90,-8.40,4.40,0,1,0,97,100,-8071,3204,16177,3008.50,11,P-GPS,1,0,0,-333,548,-56,0,1663068487080,4129,4095,4100,4129,0,0,27,,,,,,,0,0,0,29.00,-84.00,44.00,0.00,0.00,-35.00,6,99.00,38.21,164.07,0.00,-28.00,-26.00,0,,,100,100,0,2,0,0,0,2,2,,,,,0.0,0.0,0.0,0.0,0.0,0.0,0
55.940915,-4.406484,10.10,9.30,3.82,16.64,10.10,10.10,3.82,16.64,6498,2022-09-13 11:28:07.183,2022-09-13 12:28:07.183,20,0,0,16.177,55.940907,-4.406263,0.00,-2.80,-2.60,-2.50,-8.50,4.30,0,1,0,97,100,-8071,3204,16177,3008.50,11,P-GPS,1,0,0,-335,553,-79,0,1663068487183,4129,4095,4100,4129,0,0,27,,,,,,,0,0,0,25.00,-85.00,43.00,0.00,0.00,-36.00,6,101.00,38.21,166.42,0.00,-28.00,-26.00,0,,,100,100,0,2,0,0,0,2,2,,,,,0.0,0.0,0.0,0.0,0.0,0.0,0
55.940915,-4.406489,10.40,9.60,3.82,16.87,10.40,10.40,3.82,16.87,6596,2022-09-13 11:28:07.282,2022-09-13 12:28:07.281,20,0,0,16.177,55.940907,-4.406263,0.00,-2.80,-2.60,-2.40,-8.50,4.20,0,1,0,97,100,-8071,3204,16177,3008.50,11,P-GPS,1,0,0,-334,556,-97,0,1663068487281,4129,4095,4100,4129,0,0,27,,,,,,,0,0,0,24.00,-85.00,42.00,0.00,0.00,-36.00,6,104.00,38.21,168.70,0.00,-28.00,-26.00,0,,,100,100,0,2,0,0,0,2,2,,,,,0.0,0.0,0.0,0.0,0.0,0.0,0
55.940915,-4.406493,10.60,9.80,3.89,17.11,10.60,10.60,3.89,17.11,6699,2022-09-13 11:28:07.385,2022-09-13 12:28:07.384,20,0,0,16.177,55.940907,-4.406263,0.00,-2.80,-2.70,-2.30,-8.60,4.10,0,1,0,97,100,-8071,3204,16177,3008.50,11,P-GPS,1,0,0,-334,557,-97,0,1663068487384,4129,4095,4100,4129,0,0,27,,,,,,,0,0,0,23.00,-86.00,41.00,0.00,0.00,-37.00,6,106.00,38.90,171.08,0.00,-28.00,-27.00,0,,,100,100,0,2,0,0,0,2,2,,,,,0.0,0.0,0.0,0.0,0.0,0.0,0
55.940915,-4.406498,10.90,10.10,3.89,17.33,10.90,10.90,3.89,17.33,6795,2022-09-13 11:28:07.481,2022-09-13 12:28:07.480,20,0,0,16.177,55.940907,-4.406263,0.00,-2.80,-2.70,-1.90,-9.10,4.00,0,1,0,97,100,-8071,3204,16177,3008.50,11,P-GPS,1,0,0,-335,559,-102,0,1663068487480,4129,4095,4100,4129,0,0,27,,,,,,,0,0,0,19.00,-91.00,40.00,0.00,0.00,-37.00,6,109.00,38.90,173.32,0.00,-28.00,-27.00,0,,,100,100,0,2,0,0,0,2,2,,,,,0.0,0.0,0.0,0.0,0.0,0.0,0
55.940915,-4.406502,11.20,10.30,3.89,17.57,11.20,11.20,3.89,17.57,6899,2022-09-13 11:28:07.585,2022-09-13 12:28:07.584,20,0,0,16.177,55.940907,-4.406263,0.10,-2.80,-2.70,-1.80,-9.50,3.80,0,1,0,97,100,-8071,3204,16177,3008.50,11,P-GPS,1,0,0,-335,563,-110,0,1663068487584,4129,4095,4100,4129,0,0,27,,,,,,,0,0,0,18.00,-95.00,38.00,0.00,0.00,-38.00,6,112.00,38.91,175.68,1.00,-28.00,-27.00,0,,,100,100,0,2,0,0,0,2,2,,,,,0.0,0.0,0.0,0.0,0.0,0.0,0
55.940916,-4.406507,11.50,10.60,3.89,17.83,11.50,11.50,3.89,17.83,6996,2022-09-13 11:28:07.682,2022-09-13 12:28:07.681,20,0,0,16.091,55.940907,-4.406263,0.00,-2.80,-2.70,-1.60,-10.00,3.70,0,1,0,97,100,-8288,3202,16091,3008.50,11,P-GPS,1,0,0,-335,567,-126,0,1663068487681,4129,4095,4100,4129,0,0,27,,,,,,,0,0,0,16.00,-100.00,37.00,0.00,0.00,-39.00,6,115.00,38.90,178.33,0.00,-28.00,-27.00,0,,,100,100,0,2,0,0,0,2,2,,,,,0.0,0.0,0.0,0.0,0.0,0.0,0
55.940916,-4.406511,11.70,10.80,3.89,18.07,11.70,11.70,3.89,18.07,7098,2022-09-13 11:28:07.783,2022-09-13 12:28:07.783,20,0,0,16.091,55.940907,-4.406263,0.00,-2.80,-2.70,-1.80,-10.00,3.50,0,1,0,97,100,-8288,3202,16091,3008.50,11,P-GPS,1,0,0,-335,574,-159,0,1663068487783,4129,4095,4100,4129,0,0,27,,,,,,,0,0,0,18.00,-100.00,35.00,0.00,0.00,-40.00,6,117.00,38.90,180.75,0.00,-28.00,-27.00,0,,,100,100,0,2,0,0,0,2,2,,,,,0.0,0.0,0.0,0.0,0.0,0.0,0
55.940916,-4.406516,12.00,11.10,3.96,18.31,12.00,12.00,3.96,18.31,7214,2022-09-13 11:28:07.899,2022-09-13 12:28:07.899,20,0,0,16.091,55.940907,-4.406263,0.00,-2.80,-2.80,-1.90,-9.70,3.40,0,1,0,97,100,-8288,3202,16091,3008.50,11,P-GPS,1,0,0,-335,574,-161,0,1663068487899,4129,4095,4100,4129,0,0,27,,,,,,,0,0,0,19.00,-97.00,34.00,0.00,0.00,-41.00,6,120.00,39.60,183.05,0.00,-28.00,-28.00,0,,,100,100,0,2,0,0,0,2,2,,,,,0.0,0.0,0.0,0.0,0.0,0.0,0
55.940916,-4.406520,12.30,0.00,4.03,18.55,12.30,12.30,4.03,18.55,7336,2022-09-13 11:28:08.021,2022-09-13 12:28:08.021,20,0,0,16.091,55.940907,-4.406263,0.00,-2.80,-2.90,-1.70,-9.90,3.30,0,1,0,97,100,-8288,3202,16091,3008.50,11,P-GPS,1,0,0,-335,578,-195,0,1663068488021,4129,4095,4100,4129,0,0,27,,,,,,,0,0,0,17.00,-99.00,33.00,0.00,0.00,-46.00,6,123.00,40.31,185.48,0.00,-28.00,-29.00,0,,,100,100,0,2,0,0,0,2,2,,,,,0.0,0.0,0.0,0.0,0.0,0.0,0
55.940916,-4.406529,12.90,0.00,4.03,19.04,12.90,12.90,4.03,19.04,7507,2022-09-13 11:28:08.192,2022-09-13 12:28:08.192,20,0,0,16.091,55.940907,-4.406263,0.00,-2.80,-2.90,-1.90,-10.20,2.60,0,1,0,97,100,-8288,3202,16091,3008.50,11,P-GPS,1,0,0,-334,582,-204,0,1663068488192,4129,4095,4100,4129,0,0,27,,,,,,,0,0,0,19.00,-102.00,26.00,0.00,0.00,-49.00,6,129.00,40.31,190.43,0.00,-28.00,-29.00,0,,,100,100,0,2,0,0,0,2,2,,,,,0.0,0.0,0.0,0.0,0.0,0.0,0
55.940916,-4.406534,13.20,0.00,4.03,19.29,13.20,13.20,4.03,19.29,7596,2022-09-13 11:28:08.281,2022-09-13 12:28:08.281,20,0,0,16.091,55.940907,-4.406263,0.00,-2.80,-2.90,-2.10,-10.00,2.30,0,1,0,97,100,-8288,3202,16091,3008.50,11,P-GPS,1,0,0,-335,588,-212,0,1663068488281,4129,4095,4100,4129,0,0,27,,,,,,,0,0,0,21.00,-100.00,23.00,0.00,0.00,-52.00,6,132.00,40.31,192.85,0.00,-28.00,-29.00,0,,,100,100,0,2,0,0,0,2,2,,,,,0.0,0.0,0.0,0.0,0.0,0.0,0
55.940916,-4.406538,13.50,0.00,4.10,19.53,13.50,13.50,4.10,19.53,7696,2022-09-13 11:28:08.382,2022-09-13 12:28:08.381,20,0,0,16.091,55.940907,-4.406263,0.00,-2.80,-3.00,-2.10,-9.80,1.90,0,1,0,97,100,-8288,3202,16091,3008.50,11,P-GPS,1,0,0,-335,595,-224,0,1663068488381,4129,4095,4100,4129,0,0,27,,,,,,,0,0,0,21.00,-98.00,19.00,0.00,0.00,-56.00,6,135.00,41.04,195.34,0.00,-28.00,-30.00,0,,,100,100,0,2,0,0,0,2,2,,,,,0.0,0.0,0.0,0.0,0.0,0.0,0
55.940916,-4.406543,13.80,0.00,4.18,19.80,13.80,13.80,4.18,19.80,7796,2022-09-13 11:28:08.481,2022-09-13 12:28:08.481,20,0,0,16.091,55.940907,-4.406263,0.00,-2.80,-3.10,-2.20,-9.70,1.50,0,1,0,97,100,-8288,3202,16091,3008.50,11,P-GPS,1,0,0,-335,603,-236,0,1663068488481,4129,4095,4100,4129,0,0,27,,,,,,,0,0,0,22.00,-97.00,15.00,0.00,0.00,-60.00,6,138.00,41.77,197.96,0.00,-28.00,-31.00,0,,,100,100,0,2,0,0,0,2,2,,,,,0.0,0.0,0.0,0.0,0.0,0.0,0
55.940916,-4.406548,14.10,0.00,4.32,20.05,14.10,14.10,4.32,20.05,7897,2022-09-13 11:28:08.583,2022-09-13 12:28:08.582,20,0,0,16.091,55.940907,-4.406263,0.00,-2.90,-3.20,-2.10,-9.50,1.00,0,1,0,97,100,-8288,3202,16091,3008.50,11,P-GPS,1,0,0,-334,608,-238,0,1663068488582,4129,4095,4100,4129,0,0,27,,,,,,,0,0,0,21.00,-95.00,10.00,0.00,0.00,-65.00,6,141.00,43.19,200.49,0.00,-29.00,-32.00,0,,,100,100,0,2,0,0,0,2,2,,,,,0.0,0.0,0.0,0.0,0.0,0.0,0
55.940916,-4.406552,14.50,0.00,4.39,20.31,14.50,14.50,4.39,20.31,7998,2022-09-13 11:28:08.683,2022-09-13 12:28:08.683,20,0,0,15.908,55.940907,-4.406263,0.00,-2.90,-3.30,-2.30,-9.60,0.60,0,1,0,97,100,-9677,3200,15908,3008.50,11,P-GPS,1,0,0,-332,603,-189,0,1663068488683,4129,4095,4100,4129,0,0,27,,,,,,,0,0,0,23.00,-96.00,6.00,0.00,0.00,-70.00,6,145.00,43.93,203.09,0.00,-29.00,-33.00,0,,,100,100,0,2,0,0,0,2,2,,,,,0.0,0.0,0.0,0.0,0.0,0.0,0
55.940917,-4.406557,14.80,0.00,4.25,20.56,14.80,14.80,4.39,20.56,8094,2022-09-13 11:28:08.780,2022-09-13 12:28:08.779,20,0,0,15.908,55.940907,-4.406263,0.00,-2.80,-3.20,-2.20,-9.90,0.50,0,1,0,97,100,-9677,3200,15908,3008.50,11,P-GPS,1,0,0,-243,481,0,0,1663068488779,4129,4095,4100,4129,0,0,27,,,,,,,0,0,0,22.00,-99.00,5.00,0.00,0.00,-74.00,6,148.00,42.52,205.64,0.00,-28.00,-32.00,0,,,100,100,0,2,0,0,0,2,2,,,,,0.0,0.0,0.0,0.0,0.0,0.0,0
55.940916,-4.406561,15.10,0.00,4.10,20.81,15.10,15.10,4.39,20.81,8209,2022-09-13 11:28:08.895,2022-09-13 12:28:08.894,20,0,0,15.908,55.940907,-4.406263,0.00,-2.80,-3.00,-2.30,-9.00,0.40,0,1,0,97,100,-9677,3200,15908,3008.50,11,P-GPS,1,0,0,-185,419,0,0,1663068488894,4129,4095,4100,4129,0,0,27,,,,,,,0,0,0,23.00,-90.00,4.00,0.00,0.00,-74.00,6,151.00,41.04,208.09,0.00,-28.00,-30.00,0,,,100,100,0,2,0,0,0,2,2,,,,,0.0,0.0,0.0,0.0,0.0,0.0,0
55.940917,-4.406566,15.40,0.00,3.89,21.06,15.40,15.40,4.39,21.06,8297,2022-09-13 11:28:08.983,2022-09-13 12:28:08.982,20,0,0,15.908,55.940907,-4.406263,0.00,-2.80,-2.70,-2.60,-7.30,0.40,0,1,0,97,100,-9677,3200,15908,3008.50,11,P-GPS,1,0,0,-126,146,0,0,1663068488982,4129,4095,4100,4129,0,0,27,,,,,,,0,0,0,26.00,-73.00,4.00,0.00,0.00,-74.00,6,154.00,38.90,210.58,0.00,-28.00,-27.00,0,,,100,100,0,2,0,0,0,2,2,,,,,0.0,0.0,0.0,0.0,0.0,0.0,0
55.940917,-4.406570,15.70,0.00,3.55,21.31,15.70,15.70,4.39,21.31,8412,2022-09-13 11:28:09.097,2022-09-13 12:28:09.097,20,0,0,15.908,55.940907,-4.406263,0.00,-2.70,-2.30,-3.10,-5.50,0.40,0,1,0,97,100,-9677,3200,15908,3008.50,11,P-GPS,1,0,0,-46,0,0,0,1663068489097,4129,4095,4100,4129,0,0,27,,,,,,,0,0,0,31.00,-55.00,4.00,0.00,0.00,-74.00,6,157.00,35.47,213.07,0.00,-27.00,-23.00,0,,,100,100,0,2,0,0,0,2,2,,,,,0.0,0.0,0.0,0.0,0.0,0.0,0
55.940917,-4.406574,15.90,0.00,3.28,21.54,15.90,15.90,4.39,21.54,8503,2022-09-13 11:28:09.189,2022-09-13 12:28:09.188,20,0,0,15.908,55.940907,-4.406263,0.00,-2.60,-2.00,-3.10,1.10,0.30,0,1,0,97,100,-9677,3200,15908,3008.50,11,P-GPS,1,0,0,0,0,0,0,1663068489188,4129,4095,4100,4129,0,0,27,,,,,,,0,0,0,31.00,11.00,3.00,0.00,0.00,-74.00,6,159.00,32.80,215.42,0.00,-26.00,-20.00,0,,,100,100,0,2,0,0,0,2,2,,,,,0.0,0.0,0.0,0.0,0.0,0.0,0
55.940916,-4.406579,16.10,0.00,2.94,21.76,16.10,16.10,4.39,21.76,8613,2022-09-13 11:28:09.298,2022-09-13 12:28:09.298,20,0,0,15.908,55.940907,-4.406263,0.00,-2.40,-1.70,-2.80,11.90,0.10,0,1,0,97,100,-9677,3200,15908,3008.50,11,P-GPS,1,0,0,0,0,0,0,1663068489298,4129,4095,4100,4129,0,0,27,,,,,,,0,0,0,28.00,119.00,1.00,0.00,0.00,-74.00,6,161.00,29.41,217.65,0.00,-24.00,-17.00,0,,,100,100,0,2,0,0,0,2,2,,,,,0.0,0.0,0.0,0.0,0.0,0.0,0
55.940916,-4.406585,16.30,0.00,1.97,22.12,16.30,16.30,4.39,22.12,8795,2022-09-13 11:28:09.481,2022-09-13 12:28:09.480,20,0,0,15.908,55.940907,-4.406263,0.00,-1.70,-1.00,-2.90,17.50,0.10,0,1,0,97,100,-9677,3200,15908,3008.50,11,P-GPS,1,0,0,0,0,0,0,1663068489480,4129,4095,4100,4129,0,0,27,,,,,,,0,0,0,29.00,175.00,1.00,0.00,0.00,-74.00,6,163.00,19.72,221.22,0.00,-17.00,-10.00,0,,,100,100,0,2,0,0,0,2,2,,,,,0.0,0.0,0.0,0.0,0.0,0.0,0
55.940916,-4.406588,16.40,0.00,1.52,22.26,16.40,16.40,4.39,22.26,8899,2022-09-13 11:28:09.584,2022-09-13 12:28:09.584,20,0,0,15.908,55.940907,-4.406263,0.00,-1.40,-0.60,-2.80,16.80,0.10,0,1,0,97,100,-9677,3200,15908,3008.50,11,P-GPS,1,0,0,0,0,0,0,1663068489584,4129,4095,4100,4129,0,0,27,,,,,,,0,0,0,28.00,168.00,1.00,0.00,0.00,-74.00,6,164.00,15.23,222.56,0.00,-14.00,-6.00,0,,,100,100,0,2,0,0,0,2,2,,,,,0.0,0.0,0.0,0.0,0.0,0.0,0
55.940916,-4.406590,16.50,0.00,1.04,22.38,16.50,16.50,4.39,22.38,8995,2022-09-13 11:28:09.681,2022-09-13 12:28:09.681,20,0,0,16.166,55.940907,-4.406263,0.00,-1.00,-0.30,-2.70,14.90,0.10,0,1,0,97,100,-9465,3197,16166,3008.50,11,P-GPS,1,0,0,0,0,0,0,1663068489680,4129,4095,4100,4129,0,0,27,,,,,,,0,0,0,27.00,149.00,1.00,0.00,0.00,-74.00,6,165.00,10.44,223.77,0.00,-10.00,-3.00,0,,,100,100,0,2,0,0,0,2,2,,,,,0.0,0.0,0.0,0.0,0.0,0.0,0
55.940916,-4.406591,16.50,0.00,0.71,22.45,16.50,16.50,4.39,22.45,9097,2022-09-13 11:28:09.783,2022-09-13 12:28:09.782,20,0,0,16.166,55.940907,-4.406263,0.00,-0.70,-0.10,-2.80,11.50,0.20,0,1,0,97,100,-9465,3197,16166,3008.50,11,P-GPS,1,0,0,0,0,0,0,1663068489782,4129,4095,4100,4129,0,0,27,,,,,,,0,0,0,28.00,115.00,2.00,0.00,0.00,-74.00,6,165.00,7.07,224.54,0.00,-7.00,-1.00,0,,,100,100,0,2,0,0,0,2,2,,,,,0.0,0.0,0.0,0.0,0.0,0.0,0
55.940916,-4.406593,16.50,0.00,0.40,22.52,16.50,16.50,4.39,22.52,9195,2022-09-13 11:28:09.881,2022-09-13 12:28:09.880,20,0,0,16.166,55.940907,-4.406263,0.00,-0.40,0.00,-2.70,7.40,0.40,0,1,0,97,100,-9465,3197,16166,3008.50,11,P-GPS,1,0,0,0,0,0,0,1663068489880,4129,4095,4100,4129,0,0,27,,,,,,,0,0,0,27.00,74.00,4.00,0.00,0.00,-74.00,6,165.00,4.00,225.23,0.00,-4.00,0.00,0,,,100,100,0,2,0,0,0,2,2,,,,,0.0,0.0,0.0,0.0,0.0,0.0,0
55.940916,-4.406593,16.50,0.00,0.20,22.55,16.50,16.50,4.39,22.55,9295,2022-09-13 11:28:09.980,2022-09-13 12:28:09.980,20,0,0,16.166,55.940907,-4.406263,0.00,-0.20,0.00,-2.00,3.80,0.50,0,1,0,97,100,-9465,3197,16166,3008.50,11,P-GPS,1,0,0,0,0,0,0,1663068489980,4129,4095,4100,4129,0,0,27,,,,,,,0,0,0,20.00,38.00,5.00,0.00,0.00,-74.00,6,165.00,2.00,225.52,0.00,-2.00,0.00,0,,,100,100,0,2,0,0,0,2,2,,,,,0.0,0.0,0.0,0.0,0.0,0.0,0
55.940916,-4.406594,16.50,0.00,0.10,22.57,16.50,16.50,4.39,22.57,9396,2022-09-13 11:28:10.082,2022-09-13 12:28:10.081,20,0,0,16.166,55.940907,-4.406263,0.00,0.00,0.10,-2.50,0.90,0.50,0,1,0,97,100,-9465,3197,16166,3008.50,11,P-GPS,1,0,0,0,0,0,0,1663068490081,4129,4095,4100,4129,0,0,27,,,,,,,0,0,0,25.00,9.00,5.00,0.00,0.00,-74.00,6,165.00,1.00,225.70,0.00,0.00,1.00,0,,,100,100,0,2,0,0,0,2,2,,,,,0.0,0.0,0.0,0.0,0.0,0.0,0
55.940915,-4.406594,16.50,0.00,0.14,22.57,16.50,16.50,4.39,22.57,9501,2022-09-13 11:28:10.187,2022-09-13 12:28:10.186,20,0,0,16.166,55.940907,-4.406263,-0.10,0.00,0.10,-3.10,-1.70,0.60,0,1,0,97,100,-9465,3197,16166,3008.50,11,P-GPS,1,0,0,0,0,0,0,1663068490186,4129,4095,4100,4129,0,0,27,,,,,,,0,0,0,31.00,-17.00,6.00,0.00,0.00,-74.00,6,165.00,1.41,225.67,-1.00,0.00,1.00,0,,,100,100,0,2,0,0,0,2,2,,,,,0.0,0.0,0.0,0.0,0.0,0.0,0
55.940915,-4.406594,16.50,0.00,0.17,22.55,16.50,16.50,4.39,22.57,9613,2022-09-13 11:28:10.299,2022-09-13 12:28:10.298,20,0,0,16.166,55.940907,-4.406263,-0.10,0.10,0.10,-3.30,-3.70,0.80,0,1,0,97,100,-9465,3197,16166,3008.50,11,P-GPS,1,0,0,0,0,0,0,1663068490298,4129,4095,4100,4129,0,0,27,,,,,,,0,0,0,33.00,-37.00,8.00,0.00,0.00,-74.00,6,165.00,1.73,225.49,-1.00,1.00,1.00,0,,,100,100,0,2,0,0,0,2,2,,,,,0.0,0.0,0.0,0.0,0.0,0.0,0
55.940914,-4.406593,16.50,0.00,0.32,22.50,16.50,16.50,4.39,22.57,9797,2022-09-13 11:28:10.483,2022-09-13 12:28:10.482,20,0,0,16.166,55.940907,-4.406263,-0.10,0.30,0.00,-3.40,-5.40,1.10,0,1,0,97,100,-9465,3197,16166,3008.50,11,P-GPS,1,0,0,0,160,0,0,1663068490482,4053,4022,4039,4080,0,0,27,,,,,,,0,0,0,34.00,-54.00,11.00,0.00,0.00,-74.00,6,165.00,3.16,225.05,-1.00,3.00,0.00,0,,,100,100,0,2,0,0,0,2,2,,,,,0.0,0.0,0.0,0.0,0.0,0.0,0
55.940914,-4.406593,16.50,0.00,0.33,22.48,16.50,16.50,4.39,22.57,9896,2022-09-13 11:28:10.581,2022-09-13 12:28:10.581,20,0,0,16.166,55.940907,-4.406263,-0.10,0.30,-0.10,-3.70,-6.60,0.90,0,1,0,97,100,-9465,3197,16166,3008.50,11,P-GPS,1,0,0,0,298,0,0,1663068490581,4053,4022,4039,4080,0,0,27,,,,,,,0,0,0,37.00,-66.00,9.00,0.00,0.00,-74.00,6,165.00,3.32,224.78,-1.00,3.00,-1.00,0,,,100,100,0,2,0,0,0,2,2,,,,,0.0,0.0,0.0,0.0,0.0,0.0,0
55.940914,-4.406593,16.50,0.00,0.50,22.44,16.50,16.50,4.39,22.57,9996,2022-09-13 11:28:10.681,2022-09-13 12:28:10.681,20,0,0,16.319,55.940907,-4.406263,0.00,0.30,-0.40,-2.90,-6.90,0.60,0,1,0,97,100,-5340,3195,16319,3009.50,11,P-GPS,1,0,0,0,368,0,0,1663068490681,4053,4022,4039,4080,0,0,27,,,,,,,0,0,0,29.00,-69.00,6.00,0.00,0.00,-74.00,6,165.00,5.00,224.42,0.00,3.00,-4.00,0,,,100,100,0,2,0,0,0,2,2,,,,,0.0,0.0,0.0,0.0,0.0,0.0,0
55.940914,-4.406592,16.60,0.00,0.76,22.42,16.60,16.60,4.39,22.57,10098,2022-09-13 11:28:10.784,2022-09-13 12:28:10.783,20,0,0,16.319,55.940907,-4.406263,0.00,0.30,-0.70,-2.10,-6.70,0.40,0,1,0,97,100,-5340,3195,16319,3009.50,11,P-GPS,1,0,0,0,423,0,0,1663068490783,4053,4022,4039,4080,0,0,27,,,,,,,0,0,0,21.00,-67.00,4.00,0.00,0.00,-74.00,6,166.00,7.62,224.18,0.00,3.00,-7.00,0,,,100,100,0,2,0,0,0,2,2,,,,,0.0,0.0,0.0,0.0,0.0,0.0,0
55.940914,-4.406592,16.70,0.00,1.12,22.39,16.70,16.70,4.39,22.57,10214,2022-09-13 11:28:10.899,2022-09-13 12:28:10.899,20,0,0,16.319,55.940907,-4.406263,0.00,0.20,-1.10,-1.80,-6.60,0.50,0,1,0,97,100,-5340,3195,16319,3009.50,11,P-GPS,1,0,0,0,487,0,0,1663068490899,4053,4022,4039,4080,0,0,27,,,,,,,0,0,0,18.00,-66.00,5.00,0.00,0.00,-74.00,6,167.00,11.18,223.94,0.00,2.00,-11.00,0,,,100,100,0,2,0,0,0,2,2,,,,,0.0,0.0,0.0,0.0,0.0,0.0,0
55.940914,-4.406592,16.80,0.00,1.51,22.38,16.80,16.80,4.39,22.57,10338,2022-09-13 11:28:11.082,2022-09-13 12:28:11.023,20,0,0,16.319,55.940907,-4.406263,0.00,0.20,-1.50,-2.00,-6.10,0.50,0,1,0,97,100,-5340,3195,16319,3009.50,11,P-GPS,1,0,0,0,524,0,0,1663068491023,4053,4022,4039,4080,0,0,27,,,,,,,0,0,0,20.00,-61.00,5.00,0.00,0.00,-74.00,6,168.00,15.13,223.76,0.00,2.00,-15.00,0,,,100,100,0,2,0,0,0,2,2,,,,,0.0,0.0,0.0,0.0,0.0,0.0,0
55.940913,-4.406591,17.20,0.00,2.20,22.33,17.20,17.20,4.39,22.57,10504,2022-09-13 11:28:11.189,2022-09-13 12:28:11.189,20,0,0,16.319,55.940907,-4.406263,0.00,0.10,-2.20,-2.30,-5.70,0.50,0,1,0,97,100,-5340,3195,16319,3009.50,11,P-GPS,1,0,0,0,529,0,0,1663068491189,4053,4022,4039,4080,0,0,27,,,,,,,0,0,0,23.00,-57.00,5.00,0.00,0.00,-74.00,6,172.00,22.02,223.30,0.00,1.00,-22.00,0,,,100,100,0,2,0,0,0,2,2,,,,,0.0,0.0,0.0,0.0,0.0,0.0,0
55.940913,-4.406591,17.40,0.00,2.40,22.29,17.40,17.40,4.39,22.57,10611,2022-09-13 11:28:11.296,2022-09-13 12:28:11.296,20,0,0,16.319,55.940907,-4.406263,0.00,0.10,-2.40,-2.00,-5.90,0.60,0,1,0,97,100,-5340,3195,16319,3009.50,11,P-GPS,1,0,0,0,531,0,0,1663068491296,4053,4022,4039,4080,0,0,27,,,,,,,0,0,0,20.00,-59.00,6.00,0.00,0.00,-74.00,6,174.00,24.02,222.92,0.00,1.00,-24.00,0,,,100,100,0,2,0,0,0,2,2,,,,,0.0,0.0,0.0,0.0,0.0,0.0,0
55.940913,-4.406590,17.90,0.00,2.60,22.25,17.90,17.90,4.39,22.57,10805,2022-09-13 11:28:11.490,2022-09-13 12:28:11.490,20,0,0,16.319,55.940907,-4.406263,-0.10,0.10,-2.60,-2.20,-5.50,0.40,0,1,0,97,100,-5340,3195,16319,3009.50,11,P-GPS,1,0,0,0,553,0,0,1663068491490,4053,4022,4039,4080,0,0,27,,,,,,,0,0,0,22.00,-55.00,4.00,0.00,0.00,-74.00,6,179.00,26.04,222.53,-1.00,1.00,-26.00,0,,,100,100,0,2,0,0,0,2,2,,,,,0.0,0.0,0.0,0.0,0.0,0.0,0
55.940913,-4.406590,18.10,0.00,2.70,22.24,18.10,18.10,4.39,22.57,10898,2022-09-13 11:28:11.584,2022-09-13 12:28:11.583,20,0,0,16.319,55.940907,-4.406263,-0.10,0.10,-2.70,-2.10,-6.10,0.50,0,1,0,97,100,-5340,3195,16319,3009.50,11,P-GPS,1,0,0,0,557,0,0,1663068491583,4053,4022,4039,4080,0,0,27,,,,,,,0,0,0,21.00,-61.00,5.00,0.00,0.00,-74.00,6,181.00,27.04,222.36,-1.00,1.00,-27.00,0,,,100,100,0,2,0,0,0,2,2,,,,,0.0,0.0,0.0,0.0,0.0,0.0,0
55.940912,-4.406590,18.40,0.00,2.70,22.22,18.40,18.40,4.39,22.57,10997,2022-09-13 11:28:11.683,2022-09-13 12:28:11.682,20,0,0,15.812,55.940907,-4.406263,-0.10,0.00,-2.70,-2.10,-6.00,0.40,0,1,0,97,100,-10362,3193,15812,3009.50,11,P-GPS,1,0,0,0,559,0,0,1663068491682,4053,4022,4039,4080,0,0,27,,,,,,,0,0,0,21.00,-60.00,4.00,0.00,0.00,-74.00,6,184.00,27.02,222.21,-1.00,0.00,-27.00,0,,,100,100,0,2,0,0,0,2,2,,,,,0.0,0.0,0.0,0.0,0.0,0.0,0
55.940912,-4.406590,18.60,0.00,2.70,22.20,18.60,18.60,4.39,22.57,11099,2022-09-13 11:28:11.785,2022-09-13 12:28:11.784,20,0,0,15.812,55.940907,-4.406263,-0.10,0.00,-2.70,-2.70,-5.30,0.40,0,1,0,97,100,-10362,3193,15812,3009.50,11,P-GPS,1,0,0,0,563,0,0,1663068491784,4053,4022,4039,4080,0,0,27,,,,,,,0,0,0,27.00,-53.00,4.00,0.00,0.00,-74.00,6,186.00,27.02,222.04,-1.00,0.00,-27.00,0,,,100,100,0,2,0,0,0,2,2,,,,,0.0,0.0,0.0,0.0,0.0,0.0,0
55.940912,-4.406590,18.90,0.00,2.81,22.18,18.90,18.90,4.39,22.57,11197,2022-09-13 11:28:11.883,2022-09-13 12:28:11.882,20,0,0,15.812,55.940907,-4.406263,-0.20,0.00,-2.80,-3.60,-4.70,0.60,0,1,0,97,100,-10362,3193,15812,3009.50,11,P-GPS,1,0,0,0,563,0,0,1663068491882,4053,4022,4039,4080,0,0,27,,,,,,,0,0,0,36.00,-47.00,6.00,0.00,0.00,-74.00,6,189.00,28.07,221.78,-2.00,0.00,-28.00,0,,,100,100,0,2,0,0,0,2,2,,,,,0.0,0.0,0.0,0.0,0.0,0.0,0
55.940912,-4.406589,19.20,0.00,2.81,22.16,19.20,19.20,4.39,22.57,11296,2022-09-13 11:28:11.981,2022-09-13 12:28:11.981,20,0,0,15.812,55.940907,-4.406263,-0.20,0.00,-2.80,-4.60,-4.50,0.70,0,1,0,97,100,-10362,3193,15812,3009.50,11,P-GPS,1,0,0,0,564,0,0,1663068491981,4053,4022,4039,4080,0,0,27,,,,,,,0,0,0,46.00,-45.00,7.00,0.00,0.00,-74.00,6,192.00,28.07,221.59,-2.00,0.00,-28.00,0,,,100,100,0,2,0,0,0,2,2,,,,,0.0,0.0,0.0,0.0,0.0,0.0,0
55.940912,-4.406589,19.50,0.00,2.81,22.13,19.50,19.50,4.39,22.57,11399,2022-09-13 11:28:12.084,2022-09-13 12:28:12.084,20,0,0,15.812,55.940907,-4.406263,-0.20,0.00,-2.80,-5.30,-4.50,0.60,0,1,0,97,100,-10362,3193,15812,3009.50,11,P-GPS,1,0,0,0,565,0,0,1663068492084,4053,4022,4039,4080,0,0,27,,,,,,,0,0,0,53.00,-45.00,6.00,0.00,0.00,-74.00,6,195.00,28.07,221.29,-2.00,0.00,-28.00,0,,,100,100,0,2,0,0,0,2,2,,,,,0.0,0.0,0.0,0.0,0.0,0.0,0
55.940912,-4.406589,19.70,0.00,2.80,22.11,19.70,19.70,4.39,22.57,11501,2022-09-13 11:28:12.186,2022-09-13 12:28:12.186,20,0,0,15.812,55.940907,-4.406263,-0.10,0.00,-2.80,-5.60,-4.50,0.60,0,1,0,97,100,-10362,3193,15812,3009.50,11,P-GPS,1,0,0,0,566,0,0,1663068492186,4053,4022,4039,4080,0,0,27,,,,,,,0,0,0,56.00,-45.00,6.00,0.00,0.00,-74.00,6,197.00,28.02,221.07,-1.00,0.00,-28.00,0,,,100,100,0,2,0,0,0,2,2,,,,,0.0,0.0,0.0,0.0,0.0,0.0,0
55.940912,-4.406589,20.00,0.00,2.70,22.10,20.00,20.00,4.39,22.57,11610,2022-09-13 11:28:12.296,2022-09-13 12:28:12.295,20,0,0,15.812,55.940907,-4.406263,-0.10,0.00,-2.70,-5.60,-4.50,0.70,0,1,0,97,100,-10362,3193,15812,3009.50,11,P-GPS,1,0,0,0,572,0,0,1663068492295,4053,4022,4039,4080,0,0,27,,,,,,,0,0,0,56.00,-45.00,7.00,0.00,0.00,-74.00,6,200.00,27.02,220.96,-1.00,0.00,-27.00,0,,,100,100,0,2,0,0,0,2,2,,,,,0.0,0.0,0.0,0.0,0.0,0.0,0
55.940911,-4.406588,20.30,0.00,2.80,22.08,20.30,20.30,4.39,22.57,11700,2022-09-13 11:28:12.386,2022-09-13 12:28:12.385,20,0,0,15.812,55.940907,-4.406263,0.00,0.10,-2.80,-5.10,-4.70,0.50,0,1,0,97,100,-10362,3193,15812,3009.50,11,P-GPS,1,0,0,0,575,0,0,1663068492385,4053,4022,4039,4080,0,0,27,,,,,,,0,0,0,51.00,-47.00,5.00,0.00,0.00,-74.00,6,203.00,28.02,220.75,0.00,1.00,-28.00,0,,,100,100,0,2,0,0,0,2,2,,,,,0.0,0.0,0.0,0.0,0.0,0.0,0
55.940911,-4.406588,20.60,0.00,2.80,22.04,20.60,20.60,4.39,22.57,11796,2022-09-13 11:28:12.481,2022-09-13 12:28:12.481,20,0,0,15.812,55.940907,-4.406263,0.00,0.10,-2.80,-4.60,-5.00,0.50,0,1,0,97,100,-10362,3193,15812,3009.50,11,P-GPS,1,0,0,0,579,0,0,1663068492481,4053,4022,4039,4080,0,0,27,,,,,,,0,0,0,46.00,-50.00,5.00,0.00,0.00,-74.00,6,206.00,28.02,220.43,0.00,1.00,-28.00,0,,,100,100,0,2,0,0,0,2,2,,,,,0.0,0.0,0.0,0.0,0.0,0.0,0
55.940911,-4.406588,20.90,0.00,2.90,22.02,20.90,20.90,4.39,22.57,11899,2022-09-13 11:28:12.584,2022-09-13 12:28:12.584,20,0,0,16.101,55.940907,-4.406263,0.00,0.10,-2.90,-4.20,-5.60,0.60,0,1,0,97,100,-7793,3190,16101,3008.50,11,P-GPS,1,0,0,0,580,0,0,1663068492584,4053,4022,4039,4080,0,0,27,,,,,,,0,0,0,42.00,-56.00,6.00,0.00,0.00,-74.00,6,209.00,29.02,220.21,0.00,1.00,-29.00,0,,,100,100,0,2,0,0,0,2,2,,,,,0.0,0.0,0.0,0.0,0.0,0.0,0
55.940911,-4.406587,21.10,0.00,2.90,22.00,21.10,21.10,4.39,22.57,12003,2022-09-13 11:28:12.688,2022-09-13 12:28:12.688,20,0,0,16.101,55.940907,-4.406263,0.00,0.10,-2.90,-3.90,-6.00,0.60,0,1,0,97,100,-7793,3190,16101,3008.50,11,P-GPS,1,0,0,0,590,0,0,1663068492688,4053,4022,4039,4080,0,0,27,,,,,,,0,0,0,39.00,-60.00,6.00,0.00,0.00,-74.00,6,211.00,29.02,219.95,0.00,1.00,-29.00,0,,,100,100,0,2,0,0,0,2,2,,,,,0.0,0.0,0.0,0.0,0.0,0.0,0
55.940911,-4.406587,21.40,0.00,3.00,21.97,21.40,21.40,4.39,22.57,12108,2022-09-13 11:28:12.793,2022-09-13 12:28:12.793,20,0,0,16.101,55.940907,-4.406263,0.00,0.10,-3.00,-3.80,-6.50,0.60,0,1,0,97,100,-7793,3190,16101,3008.50,11,P-GPS,1,0,0,0,606,0,0,1663068492793,4053,4022,4039,4080,0,0,27,,,,,,,0,0,0,38.00,-65.00,6.00,0.00,0.00,-74.00,6,214.00,30.02,219.73,0.00,1.00,-30.00,0,,,100,100,0,2,0,0,0,2,2,,,,,0.0,0.0,0.0,0.0,0.0,0.0,0
55.940911,-4.406586,21.70,0.00,3.00,21.94,21.70,21.70,4.39,22.57,12196,2022-09-13 11:28:12.881,2022-09-13 12:28:12.881,20,0,0,16.101,55.940907,-4.406263,0.00,0.10,-3.00,-3.60,-6.40,0.60,0,1,0,97,100,-7793,3190,16101,3008.50,11,P-GPS,1,0,0,0,635,0,0,1663068492881,4053,4022,4039,4080,0,0,27,,,,,,,0,0,0,36.00,-64.00,6.00,0.00,0.00,-74.00,6,217.00,30.02,219.42,0.00,1.00,-30.00,0,,,100,100,0,2,0,0,0,2,2,,,,,0.0,0.0,0.0,0.0,0.0,0.0,0
55.940911,-4.406586,22.00,0.00,3.30,21.92,22.00,22.00,4.39,22.57,12297,2022-09-13 11:28:12.983,2022-09-13 12:28:12.982,20,0,0,16.101,55.940907,-4.406263,0.00,0.10,-3.30,-3.60,-6.60,0.60,0,1,0,97,100,-7793,3190,16101,3008.50,11,P-GPS,1,0,0,0,652,0,0,1663068492982,4053,4022,4039,4080,0,0,27,,,,,,,0,0,0,36.00,-66.00,6.00,0.00,0.00,-74.00,6,220.00,33.02,219.19,0.00,1.00,-33.00,0,,,100,100,0,2,0,0,0,2,2,,,,,0.0,0.0,0.0,0.0,0.0,0.0,0
55.940911,-4.406586,22.00,0.00,3.30,21.92,22.00,22.00,4.39,22.57,12387,2022-09-13 11:28:13.072,2022-09-13 12:28:13.072,20,0,0,16.101,55.940907,-4.406263,0.00,0.10,-3.30,-3.60,-6.60,0.60,0,1,0,97,100,-7793,3190,16101,3008.50,11,P-GPS,1,0,0,0,660,0,0,1663068493072,4053,4022,4039,4080,0,0,27,,,,,,,0,0,0,36.00,-66.00,6.00,0.00,0.00,-74.00,6,220.00,33.02,219.19,0.00,1.00,-33.00,0,,,100,100,0,2,0,0,0,2,2,,,,,0.0,0.0,0.0,0.0,0.0,0.0,0
55.940911,-4.406585,22.80,0.00,3.70,21.89,22.80,22.80,4.39,22.57,12494,2022-09-13 11:28:13.180,2022-09-13 12:28:13.180,20,0,0,16.101,55.940907,-4.406263,0.00,0.10,-3.70,-3.40,-7.10,0.50,0,1,0,97,100,-7793,3190,16101,3008.50,11,P-GPS,1,0,0,0,660,0,0,1663068493179,4053,4022,4039,4080,0,0,27,,,,,,,0,0,0,34.00,-71.00,5.00,0.00,0.00,-74.00,6,228.00,37.01,218.89,0.00,1.00,-37.00,0,,,100,100,0,2,0,0,0,2,2,,,,,0.0,0.0,0.0,0.0,0.0,0.0,0
55.940911,-4.406585,23.10,0.00,3.80,21.87,23.10,23.10,4.39,22.57,12596,2022-09-13 11:28:13.282,2022-09-13 12:28:13.281,20,0,0,16.101,55.940907,-4.406263,0.00,0.10,-3.80,-3.10,-7.30,0.40,0,1,0,97,100,-7793,3190,16101,3008.50,11,P-GPS,1,0,0,0,660,0,0,1663068493281,4053,4022,4039,4080,0,0,27,,,,,,,0,0,0,31.00,-73.00,4.00,0.00,0.00,-74.00,6,231.00,38.01,218.67,0.00,1.00,-38.00,0,,,100,100,0,2,0,0,0,2,2,,,,,0.0,0.0,0.0,0.0,0.0,0.0,0
55.940911,-4.406585,23.50,0.00,3.90,21.86,23.50,23.50,4.39,22.57,12698,2022-09-13 11:28:13.384,2022-09-13 12:28:13.383,20,0,0,16.101,55.940907,-4.406263,0.00,0.00,-3.90,-2.90,-7.40,0.40,0,1,0,97,100,-7793,3190,16101,3008.50,11,P-GPS,1,0,0,0,660,0,0,1663068493383,4053,4022,4039,4080,0,0,27,,,,,,,0,0,0,29.00,-74.00,4.00,0.00,0.00,-74.00,6,235.00,39.00,218.55,0.00,0.00,-39.00,0,,,100,100,0,2,0,0,0,2,2,,,,,0.0,0.0,0.0,0.0,0.0,0.0,0
55.940911,-4.406584,23.90,0.00,3.90,21.84,23.90,23.90,4.39,22.57,12801,2022-09-13 11:28:13.487,2022-09-13 12:28:13.486,20,0,0,16.101,55.940907,-4.406263,0.00,0.00,-3.90,-3.00,-7.20,0.50,0,1,0,97,100,-7793,3190,16101,3008.50,11,P-GPS,1,0,0,0,660,0,0,1663068493486,4053,4022,4039,4080,0,0,27,,,,,,,0,0,0,30.00,-72.00,5.00,0.00,0.00,-74.00,6,239.00,39.00,218.43,0.00,0.00,-39.00,0,,,100,100,0,2,0,0,0,2,2,,,,,0.0,0.0,0.0,0.0,0.0,0.0,0
55.940911,-4.406584,24.30,0.00,3.90,21.83,24.30,24.30,4.39,22.57,12898,2022-09-13 11:28:13.583,2022-09-13 12:28:13.583,20,0,0,16.101,55.940907,-4.406263,0.00,0.00,-3.90,-3.10,-7.00,0.40,0,1,0,97,100,-7793,3190,16101,3008.50,11,P-GPS,1,0,0,0,660,0,0,1663068493583,4053,4022,4039,4080,0,0,27,,,,,,,0,0,0,31.00,-70.00,4.00,0.00,0.00,-74.00,6,243.00,39.00,218.35,0.00,0.00,-39.00,0,,,100,100,0,2,0,0,0,2,2,,,,,0.0,0.0,0.0,0.0,0.0,0.0,0
55.940911,-4.406584,24.70,0.00,3.90,21.84,24.70,24.70,4.39,22.57,13011,2022-09-13 11:28:13.697,2022-09-13 12:28:13.696,20,0,0,15.729,55.940907,-4.406263,0.00,0.00,-3.90,-3.20,-6.30,0.40,0,1,0,97,100,-10472,3188,15729,3008.50,11,P-GPS,1,0,0,0,660,0,0,1663068493696,4053,4022,4039,4080,0,0,27,,,,,,,0,0,0,32.00,-63.00,4.00,0.00,0.00,-74.00,6,247.00,39.00,218.43,0.00,0.00,-39.00,0,,,100,100,0,2,0,0,0,2,2,,,,,0.0,0.0,0.0,0.0,0.0,0.0,0
55.940911,-4.406584,25.10,0.00,3.90,21.84,25.10,25.10,4.39,22.57,13098,2022-09-13 11:28:13.783,2022-09-13 12:28:13.783,20,0,0,15.729,55.940907,-4.406263,0.00,0.00,-3.90,-3.30,-6.10,0.40,0,1,0,97,100,-10472,3188,15729,3008.50,11,P-GPS,1,0,0,0,660,0,0,1663068493783,4053,4022,4039,4080,0,0,27,,,,,,,0,0,0,33.00,-61.00,4.00,0.00,0.00,-74.00,6,251.00,39.00,218.37,0.00,0.00,-39.00,0,,,100,100,0,2,0,0,0,2,2,,,,,0.0,0.0,0.0,0.0,0.0,0.0,0
55.940912,-4.406584,25.50,0.00,3.90,21.82,25.50,25.50,4.39,22.57,13200,2022-09-13 11:28:13.886,2022-09-13 12:28:13.885,20,0,0,15.729,55.940907,-4.406263,0.00,0.00,-3.90,-3.20,-6.60,0.50,0,1,0,97,100,-10472,3188,15729,3008.50,11,P-GPS,1,0,0,0,660,0,0,1663068493885,4053,4022,4039,4080,0,0,27,,,,,,,0,0,0,32.00,-66.00,5.00,0.00,0.00,-74.00,6,255.00,39.00,218.19,0.00,0.00,-39.00,0,,,100,100,0,2,0,0,0,2,2,,,,,0.0,0.0,0.0,0.0,0.0,0.0,0
55.940912,-4.406584,25.90,0.00,3.90,21.81,25.90,25.90,4.39,22.57,13295,2022-09-13 11:28:13.981,2022-09-13 12:28:13.980,20,0,0,15.729,55.940907,-4.406263,0.00,0.00,-3.90,-2.60,-6.90,0.40,0,1,0,97,100,-10472,3188,15729,3008.50,11,P-GPS,1,0,0,0,660,0,0,1663068493980,4053,4022,4039,4080,0,0,27,,,,,,,0,0,0,26.00,-69.00,4.00,0.00,0.00,-74.00,6,259.00,39.00,218.11,0.00,0.00,-39.00,0,,,100,100,0,2,0,0,0,2,2,,,,,0.0,0.0,0.0,0.0,0.0,0.0,0
55.940912,-4.406583,26.30,0.00,3.90,21.80,26.30,26.30,4.39,22.57,13401,2022-09-13 11:28:14.086,2022-09-13 12:28:14.086,20,0,0,15.729,55.940907,-4.406263,0.00,0.00,-3.90,-2.50,-7.30,0.30,0,1,0,97,100,-10472,3188,15729,3008.50,11,P-GPS,1,0,0,0,660,0,0,1663068494086,4053,4022,4039,4080,0,0,27,,,,,,,0,0,0,25.00,-73.00,3.00,0.00,0.00,-74.00,6,263.00,39.00,218.03,0.00,0.00,-39.00,0,,,100,100,0,2,0,0,0,2,2,,,,,0.0,0.0,0.0,0.0,0.0,0.0,0
55.940912,-4.406583,26.80,0.00,3.90,21.79,26.80,26.80,4.39,22.57,13505,2022-09-13 11:28:14.190,2022-09-13 12:28:14.190,20,0,0,15.729,55.940907,-4.406263,0.00,0.00,-3.90,-2.30,-7.30,0.30,0,1,0,97,100,-10472,3188,15729,3008.50,11,P-GPS,1,0,0,0,660,0,0,1663068494190,4053,4022,4039,4080,0,0,27,,,,,,,0,0,0,23.00,-73.00,3.00,0.00,0.00,-74.00,6,268.00,39.00,217.95,0.00,0.00,-39.00,0,,,100,100,0,2,0,0,0,2,2,,,,,0.0,0.0,0.0,0.0,0.0,0.0,0
55.940912,-4.406583,27.10,0.00,4.00,21.78,27.10,27.10,4.39,22.57,13601,2022-09-13 11:28:14.286,2022-09-13 12:28:14.286,20,0,0,15.729,55.940907,-4.406263,0.00,0.00,-4.00,-1.60,-7.80,0.20,0,1,0,97,100,-10472,3188,15729,3008.50,11,P-GPS,1,0,0,0,660,0,0,1663068494286,4053,4022,4039,4080,0,0,27,,,,,,,0,0,0,16.00,-78.00,2.00,0.00,0.00,-74.00,6,271.00,40.00,217.82,0.00,0.00,-40.00,0,,,100,100,0,2,0,0,0,2,2,,,,,0.0,0.0,0.0,0.0,0.0,0.0,0
55.940912,-4.406583,27.50,0.00,3.90,21.77,27.50,27.50,4.39,22.57,13705,2022-09-13 11:28:14.391,2022-09-13 12:28:14.390,20,0,0,15.729,55.940907,-4.406263,0.00,0.00,-3.90,-2.30,-7.80,0.20,0,1,0,97,100,-10472,3188,15729,3008.50,11,P-GPS,1,0,0,0,632,0,0,1663068494390,4053,4022,4039,4080,0,0,27,,,,,,,0,0,0,23.00,-78.00,2.00,0.00,0.00,-74.00,6,275.00,39.00,217.74,0.00,0.00,-39.00,0,,,100,100,0,2,0,0,0,2,2,,,,,0.0,0.0,0.0,0.0,0.0,0.0,0
55.940912,-4.406583,27.90,0.00,3.80,21.77,27.90,27.90,4.39,22.57,13796,2022-09-13 11:28:14.481,2022-09-13 12:28:14.481,20,0,0,15.729,55.940907,-4.406263,0.00,0.00,-3.80,-3.40,-7.60,0.50,0,1,0,97,100,-10472,3188,15729,3008.50,11,P-GPS,1,0,0,0,579,0,0,1663068494481,4053,4022,4039,4080,0,0,27,,,,,,,0,0,0,34.00,-76.00,5.00,0.00,0.00,-74.00,6,279.00,38.00,217.66,0.00,0.00,-38.00,0,,,100,100,0,2,0,0,0,2,2,,,,,0.0,0.0,0.0,0.0,0.0,0.0,0
55.940912,-4.406582,28.30,0.00,3.50,21.76,28.30,28.30,4.39,22.57,13899,2022-09-13 11:28:14.584,2022-09-13 12:28:14.584,20,0,0,15.729,55.940907,-4.406263,0.00,0.00,-3.50,-4.00,-8.10,0.60,0,1,0,97,100,-10472,3188,15729,3008.50,11,P-GPS,1,0,0,0,477,0,0,1663068494584,4053,4022,4039,4080,0,0,27,,,,,,,0,0,0,40.00,-81.00,6.00,0.00,0.00,-74.00,6,283.00,35.00,217.57,0.00,0.00,-35.00,0,,,100,100,0,2,0,0,0,2,2,,,,,0.0,0.0,0.0,0.0,0.0,0.0,0
55.940912,-4.406583,28.60,0.00,3.10,21.76,28.60,28.60,4.39,22.57,13998,2022-09-13 11:28:14.683,2022-09-13 12:28:14.683,20,0,0,15.733,55.940907,-4.406263,0.00,0.00,-3.10,-4.00,-8.50,0.60,0,1,0,97,100,-10755,3185,15733,3009.50,11,P-GPS,1,0,0,0,306,0,0,1663068494683,4053,4022,4039,4080,0,0,27,,,,,,,0,0,0,40.00,-85.00,6.00,0.00,0.00,-74.00,6,286.00,31.00,217.63,0.00,0.00,-31.00,0,,,100,100,0,2,0,0,0,2,2,,,,,0.0,0.0,0.0,0.0,0.0,0.0,0
55.940912,-4.406582,28.90,0.00,2.70,21.75,28.90,28.90,4.39,22.57,14096,2022-09-13 11:28:14.782,2022-09-13 12:28:14.781,20,0,0,15.733,55.940907,-4.406263,0.00,0.00,-2.70,-4.10,-9.10,0.70,0,1,0,97,100,-10755,3185,15733,3009.50,11,P-GPS,1,0,0,0,0,0,0,1663068494781,4053,4022,4039,4080,0,0,27,,,,,,,0,0,0,41.00,-91.00,7.00,0.00,0.00,-74.00,6,289.00,27.00,217.51,0.00,0.00,-27.00,0,,,100,100,0,2,0,0,0,2,2,,,,,0.0,0.0,0.0,0.0,0.0,0.0,0
