latitude,longitude,altitude(m),ultrasonicHeight(m),speed(mps),distance(m),max_altitude(m),max_ascent(m),max_speed(mps),max_distance(m),time(millisecond),datetime(utc),datetime(local),satellites,pressure(Pa),temperature(F),voltage(v),home_latitude,home_longitude,velocityX(mps),velocityY(mps),velocityZ(mps),pitch(deg),roll(deg),yaw(deg),powerlevel,isflying,istakingphoto,remainPowerPercent,remainLifePercent,currentCurrent,currentElectricity,currentVoltage,batteryTemperature,dischargeCount,flightmode,isMotorsOn,isTakingVideo,Rc_elevator,Rc_aileron,Rc_throttle,Rc_rudder,Rc_gyro,timestamp,Battery_Cell1,Battery_Cell2,Battery_Cell3,Battery_Cell4,Battery_Cell5,Battery_Cell6,Dronetype,AppVersion,Planename,FlyControllerSerialNumber,RemoteSerialNumber,BatterySerialNumber,CENTER_BATTERY.productDate,CENTER_BATTERY.serialNo,CENTER_BATTERY.fullCapacity,CENTER_BATTERY.productDateRaw,pitchRaw,rollRaw,yawRaw,gimbalPitchRaw,gimbalRollRaw,gimbalYawRaw,flyState,altitudeRaw,speedRaw,distanceRaw,velocityXRaw,velocityYRaw,velocityZRaw,data_reuse,App_Tip,App_Warning,downlinkSignalQuality,uplinkSignalQuality,transmissionChannel,rcModeSwitch,rcHome,rcPause,rcTransform,rcJoystickMode,appMode,FlyControllerSerialNumber_legacy,RemoteSerialNumber_legacy,BatterySerialNumber_legacy,Battery2SerialNumber,frontAvoidDist,backAvoidDist,rightAvoidDist,leftAvoidDist,upAvoidDist,downAvoidDist,isBrakingToAvoid
55.953381,-4.402961,0.40,0.50,0.81,0.17,0.40,0.40,0.81,0.17,0,2022-09-24 11:16:40.741,2022-09-24 12:16:40.741,17,0,0,17.000,55.953382,-4.402960,-0.10,0.00,-0.80,1.60,0.90,-104.40,0,1,0,94,100,-1940,3086,17000,3014.50,12,P-GPS,1,0,0,0,487,0,0,1664018200741,4252,4243,4263,4263,0,0,27,Litchi_4.24.1-g,CJTMAVIC,163DFAS001K45C,0VECFAK0072T52,0P2AFAL5340E87,,0,0,0,-16.00,9.00,-1044.00,-1.00,0.00,-1044.00,6,4.00,8.06,1.68,-1.00,0.00,-8.00,0,,,100,100,0,2,0,0,0,2,0,,,,null,0.0,2.3,0.0,0.0,0.0,0.0,0
55.953381,-4.402961,0.50,0.60,1.00,0.15,0.50,0.50,1.00,0.17,102,2022-09-24 11:16:40.843,2022-09-24 12:16:40.843,17,0,0,17.000,55.953382,-4.402960,-0.10,0.00,-1.00,1.40,0.60,-104.60,0,1,0,94,100,-1940,3086,17000,3014.50,12,P-GPS,1,0,0,0,505,0,0,1664018200843,4252,4243,4263,4263,0,0,27,,,,,,,0,0,0,-14.00,6.00,-1046.00,-1.00,0.00,-1044.00,6,5.00,10.05,1.54,-1.00,0.00,-10.00,0,,,100,100,0,2,0,0,0,2,0,,,,,0.0,2.3,0.0,0.0,0.0,0.0,0
55.953381,-4.402961,0.60,0.70,1.30,0.16,0.60,0.60,1.30,0.17,203,2022-09-24 11:16:40.945,2022-09-24 12:16:40.944,17,0,0,17.000,55.953382,-4.402960,-0.10,0.00,-1.30,0.80,1.00,-104.80,0,1,0,94,100,-1940,3086,17000,3014.50,12,P-GPS,1,0,0,0,511,0,0,1664018200944,4252,4243,4263,4263,0,0,27,,,,,,,0,0,0,-8.00,10.00,-1048.00,-1.00,0.00,-1044.00,6,6.00,13.04,1.61,-1.00,0.00,-13.00,0,,,100,100,0,2,0,0,0,2,0,,,,,0.0,2.3,0.0,0.0,0.0,0.0,0
55.953381,-4.402960,0.80,0.80,1.70,0.20,0.80,0.80,1.70,0.20,300,2022-09-24 11:16:41.041,2022-09-24 12:16:41.041,17,0,0,17.000,55.953382,-4.402960,0.00,0.00,-1.70,0.60,1.80,-105.00,0,1,0,94,100,-1940,3086,17000,3014.50,12,P-GPS,1,0,0,0,518,0,0,1664018201041,4252,4243,4263,4263,0,0,27,,,,,,,0,0,0,-6.00,18.00,-1050.00,-1.00,0.00,-1044.00,6,8.00,17.00,1.97,0.00,0.00,-17.00,0,,,100,100,0,2,0,0,0,2,0,,,,,0.0,2.3,0.0,0.0,0.0,0.0,0
55.953380,-4.402960,0.90,1.00,2.00,0.21,0.90,0.90,2.00,0.21,398,2022-09-24 11:16:41.139,2022-09-24 12:16:41.139,17,0,0,16.450,55.953382,-4.402960,0.00,0.00,-2.00,1.00,2.00,-105.00,0,1,0,94,100,-6814,3085,16450,3014.50,12,P-GPS,1,0,0,0,518,0,0,1664018201139,4252,4243,4263,4263,0,0,27,,,,,,,0,0,0,-10.00,20.00,-1050.00,-1.00,0.00,-1044.00,6,9.00,20.00,2.07,0.00,0.00,-20.00,0,,,100,100,0,2,0,0,0,2,0,,,,,0.0,2.3,0.0,0.0,0.0,0.0,0
55.953381,-4.402960,1.20,1.20,2.20,0.19,1.20,1.20,2.20,0.21,502,2022-09-24 11:16:41.245,2022-09-24 12:16:41.243,17,0,0,16.450,55.953382,-4.402960,0.00,0.00,-2.20,0.50,2.40,-105.20,0,1,0,94,100,-6814,3085,16450,3014.50,12,P-GPS,1,0,0,0,518,0,0,1664018201243,4252,4243,4263,4263,0,0,27,,,,,,,0,0,0,-5.00,24.00,-1052.00,-1.00,0.00,-1044.00,6,12.00,22.00,1.95,0.00,0.00,-22.00,0,,,100,100,0,2,0,0,0,2,0,,,,,0.0,2.3,0.0,0.0,0.0,0.0,0
55.953381,-4.402960,1.40,1.50,2.40,0.20,1.40,1.40,2.40,0.21,600,2022-09-24 11:16:41.342,2022-09-24 12:16:41.341,17,0,0,16.450,55.953382,-4.402960,0.00,0.00,-2.40,0.70,1.60,-105.10,0,1,0,94,100,-6814,3085,16450,3014.50,12,P-GPS,1,0,0,0,524,0,0,1664018201341,4252,4243,4263,4263,0,0,27,,,,,,,0,0,0,-7.00,16.00,-1051.00,-1.00,0.00,-1044.00,6,14.00,24.00,1.97,0.00,0.00,-24.00,0,,,100,100,0,2,0,0,0,2,0,,,,,0.0,2.3,0.0,0.0,0.0,0.0,0
55.953381,-4.402960,1.60,1.70,2.50,0.20,1.60,1.60,2.50,0.21,699,2022-09-24 11:16:41.441,2022-09-24 12:16:41.441,17,0,0,16.450,55.953382,-4.402960,0.00,0.00,-2.50,1.50,0.70,-104.90,0,1,0,94,100,-6814,3085,16450,3014.50,12,P-GPS,1,0,0,0,541,0,0,1664018201440,4252,4243,4263,4263,0,0,27,,,,,,,0,0,0,-15.00,7.00,-1049.00,-1.00,0.00,-1044.00,6,16.00,25.00,2.00,0.00,0.00,-25.00,0,,,100,100,0,2,0,0,0,2,0,,,,,0.0,2.3,0.0,0.0,0.0,0.0,0
55.953381,-4.402960,1.90,2.00,2.50,0.20,1.90,1.90,2.50,0.21,798,2022-09-24 11:16:41.539,2022-09-24 12:16:41.539,17,0,0,16.450,55.953382,-4.402960,0.00,0.00,-2.50,2.00,-0.20,-104.70,0,1,0,94,100,-6814,3085,16450,3014.50,12,P-GPS,1,0,0,0,548,0,0,1664018201539,4252,4243,4263,4263,0,0,27,,,,,,,0,0,0,-20.00,-2.00,-1047.00,-1.00,0.00,-1044.00,6,19.00,25.00,2.00,0.00,0.00,-25.00,0,,,100,100,0,2,0,0,0,2,0,,,,,0.0,2.3,0.0,0.0,0.0,0.0,0
55.953380,-4.402960,2.20,2.20,2.60,0.21,2.20,2.20,2.60,0.21,898,2022-09-24 11:16:41.639,2022-09-24 12:16:41.639,17,0,0,16.450,55.953382,-4.402960,0.00,0.00,-2.60,1.90,0.00,-104.60,0,1,0,94,100,-6814,3085,16450,3014.50,12,P-GPS,1,0,38,10,548,0,0,1664018201639,4252,4243,4263,4263,0,0,27,,,,,,,0,0,0,-19.00,0.00,-1046.00,-1.00,0.00,-1044.00,6,22.00,26.00,2.11,0.00,0.00,-26.00,0,,,100,100,0,2,0,0,0,2,0,,,,,0.0,2.3,0.0,0.0,0.0,0.0,0
55.953380,-4.402960,2.40,2.50,2.60,0.22,2.40,2.40,2.60,0.22,999,2022-09-24 11:16:41.741,2022-09-24 12:16:41.740,17,0,0,16.450,55.953382,-4.402960,0.00,0.00,-2.60,1.30,0.70,-104.60,0,1,0,94,100,-6814,3085,16450,3014.50,12,P-GPS,1,0,185,34,547,0,0,1664018201740,4252,4243,4263,4263,0,0,27,,,,,,,0,0,0,-13.00,7.00,-1046.00,-1.00,0.00,-1044.00,6,24.00,26.00,2.17,0.00,0.00,-26.00,0,,,100,100,0,2,0,0,0,2,0,,,,,0.0,2.3,0.0,0.0,0.0,0.0,0
55.953380,-4.402960,2.70,2.80,2.70,0.22,2.70,2.70,2.70,0.22,1106,2022-09-24 11:16:41.847,2022-09-24 12:16:41.847,17,0,0,16.450,55.953382,-4.402960,0.00,0.00,-2.70,0.00,1.00,-104.50,0,1,0,94,100,-6814,3085,16450,3014.50,12,P-GPS,1,0,220,34,548,0,0,1664018201847,4252,4243,4263,4263,0,0,27,,,,,,,0,0,0,-0.00,10.00,-1045.00,-1.00,0.00,-1044.00,6,27.00,27.00,2.20,0.00,0.00,-27.00,0,,,100,100,0,2,0,0,0,2,0,,,,,0.0,2.3,0.0,0.0,0.0,0.0,0
55.953380,-4.402960,3.00,3.00,2.70,0.23,3.00,3.00,2.70,0.23,1198,2022-09-24 11:16:41.940,2022-09-24 12:16:41.939,17,0,0,16.450,55.953382,-4.402960,0.00,0.00,-2.70,-1.10,1.50,-104.50,0,1,0,94,100,-6814,3085,16450,3014.50,12,P-GPS,1,0,246,23,548,0,0,1664018201939,4252,4243,4263,4263,0,0,27,,,,,,,0,0,0,11.00,15.00,-1045.00,-1.00,0.00,-1044.00,6,30.00,27.00,2.29,0.00,0.00,-27.00,0,,,100,100,0,2,0,0,0,2,0,,,,,0.0,2.3,0.0,0.0,0.0,0.0,0
55.953380,-4.402961,3.30,3.30,2.70,0.24,3.30,3.30,2.70,0.24,1304,2022-09-24 11:16:42.045,2022-09-24 12:16:42.045,17,0,0,16.450,55.953382,-4.402960,0.00,-0.10,-2.70,-2.20,2.00,-104.60,0,1,0,94,100,-6814,3085,16450,3014.50,12,P-GPS,1,0,344,62,547,0,0,1664018202045,4252,4243,4263,4263,0,0,27,,,,,,,0,0,0,22.00,20.00,-1046.00,-1.00,0.00,-1044.00,6,33.00,27.02,2.36,0.00,-1.00,-27.00,0,,,100,100,0,2,0,0,0,2,0,,,,,0.0,2.3,0.0,0.0,0.0,0.0,0
55.953380,-4.402961,3.50,3.60,2.70,0.25,3.50,3.50,2.70,0.25,1400,2022-09-24 11:16:42.141,2022-09-24 12:16:42.141,17,0,0,16.450,55.953382,-4.402960,-0.10,-0.10,-2.70,-4.20,1.90,-104.80,0,1,0,94,100,-9588,3082,16450,3014.50,12,P-GPS,1,0,441,153,547,0,0,1664018202141,4252,4243,4263,4263,0,0,27,,,,,,,0,0,0,42.00,19.00,-1048.00,-1.00,0.00,-1044.00,6,35.00,27.04,2.51,-1.00,-1.00,-27.00,0,,,100,100,0,2,0,0,0,2,0,,,,,0.0,2.3,0.0,0.0,0.0,0.0,0
55.953380,-4.402961,3.80,3.80,2.71,0.25,3.80,3.80,2.71,0.25,1500,2022-09-24 11:16:42.241,2022-09-24 12:16:42.241,17,0,0,16.450,55.953382,-4.402960,-0.10,-0.20,-2.70,-7.80,2.60,-105.00,0,1,0,94,100,-9588,3082,16450,3014.50,12,P-GPS,1,0,510,257,547,0,0,1664018202241,4252,4243,4263,4263,0,0,27,,,,,,,0,0,0,78.00,26.00,-1050.00,-1.00,0.00,-1044.00,6,38.00,27.09,2.53,-1.00,-2.00,-27.00,0,,,100,100,0,2,0,0,0,2,0,,,,,0.0,2.3,0.0,0.0,0.0,0.0,0
55.953380,-4.402961,4.10,4.10,2.73,0.28,4.10,4.10,2.73,0.28,1602,2022-09-24 11:16:42.343,2022-09-24 12:16:42.343,17,0,0,16.450,55.953382,-4.402960,-0.10,-0.40,-2.70,-10.40,3.90,-105.20,0,1,0,94,100,-9588,3082,16450,3014.50,12,P-GPS,1,0,607,371,548,0,0,1664018202343,4252,4243,4263,4263,0,0,27,,,,,,,0,0,0,104.00,39.00,-1052.00,-1.00,0.00,-1044.00,6,41.00,27.31,2.81,-1.00,-4.00,-27.00,0,,,100,100,0,2,0,0,0,2,0,,,,,0.0,9.9,0.0,0.0,0.0,0.0,0
55.953380,-4.402962,4.40,4.30,2.77,0.32,4.40,4.40,2.77,0.32,1703,2022-09-24 11:16:42.445,2022-09-24 12:16:42.444,17,0,0,16.450,55.953382,-4.402960,-0.10,-0.60,-2.70,-11.60,5.70,-105.30,0,1,0,94,100,-9588,3082,16450,3014.50,12,P-GPS,1,0,660,482,548,0,0,1664018202444,4252,4243,4263,4263,0,0,27,,,,,,,0,0,0,116.00,57.00,-1053.00,-1.00,0.00,-1044.00,6,44.00,27.68,3.22,-1.00,-6.00,-27.00,0,,,100,100,0,2,0,0,0,2,0,,,,,0.0,9.9,0.0,0.0,0.0,0.0,0
55.953380,-4.402964,4.60,4.60,2.82,0.38,4.60,4.60,2.82,0.38,1800,2022-09-24 11:16:42.542,2022-09-24 12:16:42.541,17,0,0,16.450,55.953382,-4.402960,-0.10,-0.80,-2.70,-11.40,7.40,-105.50,0,1,0,94,100,-9588,3082,16450,3014.50,12,P-GPS,1,0,660,526,547,0,0,1664018202541,4252,4243,4263,4263,0,0,27,,,,,,,0,0,0,114.00,74.00,-1055.00,-1.00,0.00,-1044.00,6,46.00,28.18,3.85,-1.00,-8.00,-27.00,0,,,100,100,0,2,0,0,0,2,0,,,,,0.0,10.6,0.0,0.0,0.0,0.0,0
55.953380,-4.402965,4.90,4.80,2.92,0.46,4.90,4.90,2.92,0.46,1898,2022-09-24 11:16:42.640,2022-09-24 12:16:42.639,17,0,0,16.277,55.953382,-4.402960,-0.10,-1.10,-2.70,-10.60,9.10,-105.60,0,1,0,94,100,-9588,3082,16277,3014.50,12,P-GPS,1,0,660,526,548,0,0,1664018202639,4252,4243,4263,4263,0,0,27,,,,,,,0,0,0,106.00,91.00,-1056.00,-1.00,0.00,-1044.00,6,49.00,29.17,4.58,-1.00,-11.00,-27.00,0,,,100,100,0,2,0,0,0,2,0,,,,,0.0,10.6,0.0,0.0,0.0,0.0,0
55.953379,-4.402967,5.20,5.10,2.91,0.56,5.20,5.20,2.92,0.56,2001,2022-09-24 11:16:42.742,2022-09-24 12:16:42.742,17,0,0,16.277,55.953382,-4.402960,0.00,-1.30,-2.60,-10.00,9.80,-105.70,0,1,0,94,100,-9588,3082,16277,3014.50,12,P-GPS,1,0,660,510,548,0,0,1664018202742,4252,4243,4263,4263,0,0,27,,,,,,,0,0,0,100.00,98.00,-1057.00,-1.00,0.00,-1044.00,6,52.00,29.07,5.59,0.00,-13.00,-26.00,0,,,100,100,0,2,0,0,0,2,0,,,,,0.0,0.0,0.0,0.0,0.0,0.0,0
55.953379,-4.402969,5.40,5.40,3.00,0.67,5.40,5.40,3.00,0.67,2102,2022-09-24 11:16:42.844,2022-09-24 12:16:42.844,17,0,0,16.277,55.953382,-4.402960,0.00,-1.50,-2.60,-10.10,9.90,-105.90,0,1,0,94,100,-9588,3082,16277,3014.50,12,P-GPS,1,0,660,498,547,0,0,1664018202843,4252,4243,4263,4263,0,0,27,,,,,,,0,0,0,101.00,99.00,-1059.00,-1.00,0.00,-1044.00,6,54.00,30.02,6.66,0.00,-15.00,-26.00,0,,,100,100,0,2,0,0,0,2,0,,,,,0.0,0.0,0.0,0.0,0.0,0.0,0
55.953379,-4.402971,5.70,5.60,3.11,0.81,5.70,5.70,3.11,0.81,2200,2022-09-24 11:16:42.942,2022-09-24 12:16:42.941,17,0,0,16.277,55.953382,-4.402960,0.00,-1.70,-2.60,-10.50,9.60,-106.00,0,1,0,94,100,-9588,3082,16277,3014.50,12,P-GPS,1,0,660,467,548,0,0,1664018202941,4252,4243,4263,4263,0,0,27,,,,,,,0,0,0,105.00,96.00,-1060.00,-1.00,0.00,-1044.00,6,57.00,31.06,8.10,0.00,-17.00,-26.00,0,,,100,100,0,2,0,0,0,2,0,,,,,0.0,0.0,0.0,0.0,0.0,0.0,0
55.953379,-4.402974,6.00,5.90,3.28,0.98,6.00,6.00,3.28,0.98,2303,2022-09-24 11:16:43.044,2022-09-24 12:16:43.044,17,0,0,16.277,55.953382,-4.402960,0.10,-2.00,-2.60,-10.50,8.70,-106.30,0,1,0,94,100,-9588,3082,16277,3014.50,12,P-GPS,1,0,660,438,559,0,0,1664018203044,4252,4243,4263,4263,0,0,27,,,,,,,0,0,0,105.00,87.00,-1063.00,-1.00,0.00,-1044.00,6,60.00,32.82,9.82,1.00,-20.00,-26.00,0,,,100,100,0,2,0,0,0,2,0,,,,,0.0,0.0,0.0,0.0,0.0,0.0,0
55.953380,-4.402978,6.20,6.10,3.48,1.18,6.20,6.20,3.48,1.18,2400,2022-09-24 11:16:43.142,2022-09-24 12:16:43.141,17,0,0,16.277,55.953382,-4.402960,0.10,-2.20,-2.70,-9.90,7.90,-106.50,0,1,0,94,100,-9588,3082,16277,3014.50,12,P-GPS,1,0,660,415,583,0,0,1664018203141,4252,4243,4263,4263,0,0,27,,,,,,,0,0,0,99.00,79.00,-1065.00,-1.00,0.00,-1044.00,6,62.00,34.84,11.79,1.00,-22.00,-27.00,0,,,100,100,0,2,0,0,0,2,0,,,,,0.0,0.0,0.0,0.0,0.0,0.0,0
55.953380,-4.402982,6.50,6.40,3.75,1.41,6.50,6.50,3.75,1.41,2505,2022-09-24 11:16:43.247,2022-09-24 12:16:43.246,17,0,0,16.277,55.953382,-4.402960,0.10,-2.50,-2.80,-9.10,7.10,-106.30,0,1,0,94,100,-9588,3082,16277,3014.50,12,P-GPS,1,0,660,415,660,0,0,1664018203246,4252,4243,4263,4263,0,0,27,,,,,,,0,0,0,91.00,71.00,-1063.00,-1.00,0.00,-1044.00,6,65.00,37.55,14.09,1.00,-25.00,-28.00,0,,,100,100,0,2,0,0,0,2,0,,,,,0.0,0.0,0.0,0.0,0.0,0.0,0
55.953380,-4.402986,6.80,6.70,4.11,1.66,6.80,6.80,4.11,1.66,2600,2022-09-24 11:16:43.341,2022-09-24 12:16:43.341,17,0,0,16.277,55.953382,-4.402960,0.10,-2.70,-3.10,-7.90,6.30,-106.10,0,1,0,94,100,-9588,3082,16277,3014.50,12,P-GPS,1,0,660,415,660,0,0,1664018203341,4252,4243,4263,4263,0,0,27,,,,,,,0,0,0,79.00,63.00,-1061.00,-1.00,0.00,-1044.00,6,68.00,41.12,16.61,1.00,-27.00,-31.00,0,,,100,100,0,2,0,0,0,2,0,,,,,0.0,0.0,0.0,0.0,0.0,0.0,0
55.953380,-4.402990,7.20,7.00,4.47,1.93,7.20,7.20,4.47,1.93,2701,2022-09-24 11:16:43.443,2022-09-24 12:16:43.443,17,0,0,16.277,55.953382,-4.402960,0.20,-2.90,-3.40,-6.50,6.30,-105.90,0,1,0,94,100,-9588,3082,16277,3014.50,12,P-GPS,1,0,660,415,660,0,0,1664018203442,4252,4243,4263,4263,0,0,27,,,,,,,0,0,0,65.00,63.00,-1059.00,-1.00,0.00,-1044.00,6,72.00,44.73,19.32,2.00,-29.00,-34.00,0,,,100,100,0,2,0,0,0,2,0,,,,,0.0,0.0,0.0,0.0,0.0,0.0,0
55.953380,-4.402995,7.50,7.40,4.75,2.23,7.50,7.50,4.75,2.23,2801,2022-09-24 11:16:43.543,2022-09-24 12:16:43.542,17,0,0,16.277,55.953382,-4.402960,0.20,-3.10,-3.60,-5.70,6.10,-105.90,0,1,0,94,100,-9588,3082,16277,3014.50,12,P-GPS,1,0,660,415,660,0,0,1664018203542,4252,4243,4263,4263,0,0,27,,,,,,,0,0,0,57.00,61.00,-1059.00,-1.00,0.00,-1044.00,6,75.00,47.55,22.26,2.00,-31.00,-36.00,0,,,100,100,0,2,0,0,0,2,0,,,,,0.0,0.0,0.0,0.0,0.0,0.0,0
55.953380,-4.403000,7.90,7.70,5.04,2.54,7.90,7.90,5.04,2.54,2902,2022-09-24 11:16:43.644,2022-09-24 12:16:43.643,17,0,0,16.336,55.953382,-4.402960,0.20,-3.30,-3.80,-5.90,6.00,-106.30,0,1,0,94,100,-8049,3080,16336,3014.50,12,P-GPS,1,0,660,414,660,0,0,1664018203643,4252,4243,4263,4263,0,0,27,,,,,,,0,0,0,59.00,60.00,-1063.00,-1.00,0.00,-1044.00,6,79.00,50.37,25.42,2.00,-33.00,-38.00,0,,,100,100,0,2,0,0,0,2,0,,,,,0.0,0.0,0.0,0.0,0.0,0.0,0
55.953380,-4.403005,8.30,8.10,5.10,2.87,8.30,8.30,5.10,2.87,3006,2022-09-24 11:16:43.748,2022-09-24 12:16:43.747,17,0,0,16.336,55.953382,-4.402960,0.20,-3.40,-3.80,-6.40,6.00,-106.80,0,1,0,94,100,-8049,3080,16336,3014.50,12,P-GPS,1,0,660,382,660,0,0,1664018203747,4252,4243,4263,4263,0,0,27,,,,,,,0,0,0,64.00,60.00,-1068.00,-1.00,0.00,-1044.00,6,83.00,51.03,28.66,2.00,-34.00,-38.00,0,,,100,100,0,2,0,0,0,2,0,,,,,0.0,0.0,0.0,0.0,0.0,0.0,0
55.953380,-4.403011,8.60,8.40,5.24,3.22,8.60,8.60,5.24,3.22,3098,2022-09-24 11:16:43.842,2022-09-24 12:16:43.839,17,0,0,16.336,55.953382,-4.402960,0.20,-3.50,-3.90,-7.00,5.50,-107.10,0,1,0,94,100,-8049,3080,16336,3014.50,12,P-GPS,1,0,660,265,660,0,0,1664018203839,4252,4243,4263,4263,0,0,27,,,,,,,0,0,0,70.00,55.00,-1071.00,-1.00,0.00,-1044.00,6,86.00,52.44,32.15,2.00,-35.00,-39.00,0,,,100,100,0,2,0,0,0,2,0,,,,,0.0,0.0,0.0,0.0,0.0,0.0,0
55.953380,-4.403017,9.00,8.80,5.38,3.57,9.00,9.00,5.38,3.57,3205,2022-09-24 11:16:43.947,2022-09-24 12:16:43.946,17,0,0,16.336,55.953382,-4.402960,0.20,-3.70,-3.90,-7.60,4.20,-107.30,0,1,0,94,100,-8049,3080,16336,3014.50,12,P-GPS,1,0,660,247,660,0,0,1664018203946,4252,4243,4263,4263,0,0,27,,,,,,,0,0,0,76.00,42.00,-1073.00,-1.00,0.00,-1044.00,6,90.00,53.80,35.68,2.00,-37.00,-39.00,0,,,100,100,0,2,0,0,0,2,0,,,,,0.0,0.0,0.0,0.0,0.0,0.0,0
55.953381,-4.403022,9.40,9.20,5.45,3.92,9.40,9.40,5.45,3.92,3301,2022-09-24 11:16:44.043,2022-09-24 12:16:44.042,17,0,0,16.336,55.953382,-4.402960,0.20,-3.80,-3.90,-8.10,3.10,-107.30,0,1,0,94,100,-8049,3080,16336,3014.50,12,P-GPS,1,0,660,246,660,0,0,1664018204042,4252,4243,4263,4263,0,0,27,,,,,,,0,0,0,81.00,31.00,-1073.00,-1.00,0.00,-1044.00,6,94.00,54.49,39.21,2.00,-38.00,-39.00,0,,,100,100,0,2,0,0,0,2,0,,,,,0.0,0.0,0.0,0.0,0.0,0.0,0
55.953381,-4.403028,9.80,9.60,5.59,4.30,9.80,9.80,5.59,4.30,3404,2022-09-24 11:16:44.146,2022-09-24 12:16:44.145,17,0,0,16.336,55.953382,-4.402960,0.10,-3.90,-4.00,-8.60,2.30,-107.40,0,1,0,94,100,-8049,3080,16336,3014.50,12,P-GPS,1,0,660,247,660,0,0,1664018204145,4252,4243,4263,4263,0,0,27,,,,,,,0,0,0,86.00,23.00,-1074.00,-1.00,0.00,-1044.00,6,98.00,55.87,42.97,1.00,-39.00,-40.00,0,,,100,100,0,2,0,0,0,2,0,,,,,0.0,0.0,0.0,0.0,0.0,0.0,0
55.953381,-4.403035,10.20,10.00,5.73,4.72,10.20,10.20,5.73,4.72,3509,2022-09-24 11:16:44.250,2022-09-24 12:16:44.250,17,0,0,16.336,55.953382,-4.402960,0.10,-4.10,-4.00,-8.70,2.20,-107.40,0,1,0,94,100,-8049,3080,16336,3014.50,12,P-GPS,1,0,660,247,660,0,0,1664018204250,4252,4243,4263,4263,0,0,27,,,,,,,0,0,0,87.00,22.00,-1074.00,-1.00,0.00,-1044.00,6,102.00,57.29,47.25,1.00,-41.00,-40.00,0,,,100,100,0,2,0,0,0,2,0,,,,,0.0,0.0,0.0,0.0,0.0,0.0,0
55.953381,-4.403042,10.60,10.40,5.80,5.13,10.60,10.60,5.80,5.13,3604,2022-09-24 11:16:44.345,2022-09-24 12:16:44.345,17,0,0,16.336,55.953382,-4.402960,0.00,-4.20,-4.00,-8.60,2.30,-108.10,0,1,0,94,100,-8049,3080,16336,3014.50,12,P-GPS,1,0,660,247,660,0,0,1664018204345,4252,4243,4263,4263,0,0,27,,,,,,,0,0,0,86.00,23.00,-1081.00,-1.00,0.00,-1044.00,6,106.00,58.00,51.28,0.00,-42.00,-40.00,0,,,100,100,0,2,0,0,0,2,0,,,,,0.0,0.0,0.0,0.0,0.0,0.0,0
55.953381,-4.403048,11.00,10.80,5.81,5.55,11.00,11.00,5.81,5.55,3700,2022-09-24 11:16:44.441,2022-09-24 12:16:44.441,17,0,0,16.336,55.953382,-4.402960,-0.10,-4.30,-3.90,-8.60,2.60,-107.80,0,1,0,94,100,-8049,3080,16336,3014.50,12,P-GPS,1,0,660,247,660,0,0,1664018204441,4252,4243,4263,4263,0,0,27,,,,,,,0,0,0,86.00,26.00,-1078.00,-1.00,0.00,-1044.00,6,110.00,58.06,55.48,-1.00,-43.00,-39.00,0,,,100,100,0,2,0,0,0,2,0,,,,,0.0,0.0,0.0,0.0,0.0,0.0,0
55.953381,-4.403055,11.40,11.20,5.88,5.97,11.40,11.40,5.88,5.97,3799,2022-09-24 11:16:44.540,2022-09-24 12:16:44.540,17,0,0,16.336,55.953382,-4.402960,-0.10,-4.40,-3.90,-8.60,2.80,-107.80,0,1,0,94,100,-8049,3080,16336,3014.50,12,P-GPS,1,0,660,245,660,0,0,1664018204540,3969,3952,3992,4038,0,0,27,,,,,,,0,0,0,86.00,28.00,-1078.00,-1.00,0.00,-1044.00,6,114.00,58.80,59.75,-1.00,-44.00,-39.00,0,,,100,100,0,2,0,0,0,2,0,,,,,0.0,0.0,0.0,0.0,0.0,0.0,0
55.953380,-4.403062,11.80,11.50,5.96,6.42,11.80,11.80,5.96,6.42,3899,2022-09-24 11:16:44.640,2022-09-24 12:16:44.640,17,0,0,15.950,55.953382,-4.402960,-0.20,-4.50,-3.90,-8.60,3.00,-107.60,0,1,0,94,100,-8049,3080,15950,3014.50,12,P-GPS,1,0,660,240,660,0,0,1664018204640,3969,3952,3992,4038,0,0,27,,,,,,,0,0,0,86.00,30.00,-1076.00,-1.00,0.00,-1044.00,6,118.00,59.58,64.20,-2.00,-45.00,-39.00,0,,,100,100,0,2,0,0,0,2,0,,,,,0.0,0.0,0.0,0.0,0.0,0.0,0
55.953380,-4.403069,12.20,11.90,6.03,6.87,12.20,12.20,6.03,6.87,4000,2022-09-24 11:16:44.742,2022-09-24 12:16:44.741,17,0,0,15.950,55.953382,-4.402960,-0.20,-4.60,-3.90,-8.30,3.10,-107.50,0,1,0,94,100,-8049,3080,15950,3014.50,12,P-GPS,1,0,660,226,660,0,0,1664018204741,3969,3952,3992,4038,0,0,27,,,,,,,0,0,0,83.00,31.00,-1075.00,-1.00,0.00,-1044.00,6,122.00,60.34,68.71,-2.00,-46.00,-39.00,0,,,100,100,0,2,0,0,0,2,0,,,,,0.0,0.0,0.0,0.0,0.0,0.0,0
55.953380,-4.403077,12.60,0.00,6.11,7.34,12.60,12.60,6.11,7.34,4102,2022-09-24 11:16:44.843,2022-09-24 12:16:44.843,17,0,0,15.950,55.953382,-4.402960,-0.30,-4.70,-3.90,-8.30,3.20,-107.40,0,1,0,94,100,-8049,3080,15950,3014.50,12,P-GPS,1,0,660,213,660,0,0,1664018204843,3969,3952,3992,4038,0,0,27,,,,,,,0,0,0,83.00,32.00,-1074.00,-1.00,0.00,-1044.00,6,126.00,61.15,73.41,-3.00,-47.00,-39.00,0,,,100,100,0,2,0,0,0,2,0,,,,,0.0,0.0,0.0,0.0,0.0,0.0,0
55.953380,-4.403077,12.60,0.00,6.11,7.34,12.60,12.60,6.11,7.34,4196,2022-09-24 11:16:44.938,2022-09-24 12:16:44.937,17,0,0,15.950,55.953382,-4.402960,-0.30,-4.70,-3.90,-8.30,3.20,-107.40,0,1,0,94,100,-8049,3080,15950,3014.50,12,P-GPS,1,0,660,205,660,0,0,1664018204937,3969,3952,3992,4038,0,0,27,,,,,,,0,0,0,83.00,32.00,-1074.00,-1.00,0.00,-1044.00,6,126.00,61.15,73.41,-3.00,-47.00,-39.00,0,,,100,100,0,2,0,0,0,2,0,,,,,0.0,0.0,0.0,0.0,0.0,0.0,0
55.953379,-4.403092,13.40,0.00,6.28,8.30,13.40,13.40,6.28,8.30,4298,2022-09-24 11:16:45.040,2022-09-24 12:16:45.039,17,0,0,15.950,55.953382,-4.402960,-0.40,-4.90,-3.90,-8.30,2.80,-107.40,0,1,0,94,100,-8049,3080,15950,3014.50,12,P-GPS,1,0,660,195,660,0,0,1664018205039,3969,3952,3992,4038,0,0,27,,,,,,,0,0,0,83.00,28.00,-1074.00,-1.00,0.00,-1044.00,6,134.00,62.75,83.00,-4.00,-49.00,-39.00,0,,,100,100,0,2,0,0,0,2,0,,,,,0.0,0.0,0.0,0.0,0.0,0.0,0
55.953379,-4.403100,13.80,0.00,6.42,8.79,13.80,13.80,6.42,8.79,4400,2022-09-24 11:16:45.141,2022-09-24 12:16:45.141,16,0,0,16.160,55.953382,-4.402960,-0.40,-5.00,-4.00,-8.10,2.80,-107.40,0,1,0,94,100,-9509,3075,16160,3014.50,12,P-GPS,1,0,660,190,660,0,0,1664018205141,3969,3952,3992,4038,0,0,27,,,,,,,0,0,0,81.00,28.00,-1074.00,-1.00,0.00,-1044.00,6,138.00,64.16,87.95,-4.00,-50.00,-40.00,0,,,100,100,0,2,0,0,0,2,0,,,,,0.0,0.0,0.0,0.0,0.0,0.0,0
55.953379,-4.403108,14.20,0.00,6.50,9.29,14.20,14.20,6.50,9.29,4502,2022-09-24 11:16:45.243,2022-09-24 12:16:45.243,16,0,0,16.160,55.953382,-4.402960,-0.50,-5.10,-4.00,-8.00,2.90,-107.40,0,1,0,94,100,-9509,3075,16160,3014.50,12,P-GPS,1,0,660,189,660,0,0,1664018205243,3969,3952,3992,4038,0,0,27,,,,,,,0,0,0,80.00,29.00,-1074.00,-1.00,0.00,-1044.00,6,142.00,65.01,92.89,-5.00,-51.00,-40.00,0,,,100,100,0,2,0,0,0,2,0,,,,,0.0,0.0,0.0,0.0,0.0,0.0,0
55.953378,-4.403116,14.60,0.00,6.58,9.80,14.60,14.60,6.58,9.80,4598,2022-09-24 11:16:45.340,2022-09-24 12:16:45.339,17,0,0,16.160,55.953382,-4.402960,-0.50,-5.20,-4.00,-7.90,3.10,-107.40,0,1,0,94,100,-9509,3075,16160,3014.50,12,P-GPS,1,0,660,184,660,0,0,1664018205339,3969,3952,3992,4038,0,0,27,,,,,,,0,0,0,79.00,31.00,-1074.00,-1.00,0.00,-1044.00,6,146.00,65.80,98.00,-5.00,-52.00,-40.00,0,,,100,100,0,2,0,0,0,2,0,,,,,0.0,0.0,0.0,0.0,0.0,0.0,0
55.953378,-4.403125,15.00,0.00,6.67,10.33,15.00,15.00,6.67,10.33,4697,2022-09-24 11:16:45.439,2022-09-24 12:16:45.438,17,0,0,16.160,55.953382,-4.402960,-0.60,-5.30,-4.00,-8.00,3.00,-107.30,0,1,0,94,100,-9509,3075,16160,3014.50,12,P-GPS,1,0,660,175,660,0,0,1664018205438,3969,3952,3992,4038,0,0,27,,,,,,,0,0,0,80.00,30.00,-1073.00,-1.00,0.00,-1044.00,6,150.00,66.67,103.28,-6.00,-53.00,-40.00,0,,,100,100,0,2,0,0,0,2,0,,,,,0.0,0.0,0.0,0.0,0.0,0.0,0
55.953377,-4.403133,15.40,0.00,6.69,10.86,15.40,15.40,6.69,10.86,4801,2022-09-24 11:16:45.543,2022-09-24 12:16:45.542,17,0,0,16.160,55.953382,-4.402960,-0.60,-5.40,-3.90,-8.00,2.90,-107.40,0,1,0,94,100,-9509,3075,16160,3014.50,12,P-GPS,1,0,660,159,660,0,0,1664018205542,3969,3952,3992,4038,0,0,27,,,,,,,0,0,0,80.00,29.00,-1074.00,-1.00,0.00,-1044.00,6,154.00,66.88,108.57,-6.00,-54.00,-39.00,0,,,100,100,0,2,0,0,0,2,0,,,,,0.0,0.0,0.0,0.0,0.0,0.0,0
55.953376,-4.403142,15.80,0.00,6.78,11.39,15.80,15.80,6.78,11.39,4900,2022-09-24 11:16:45.641,2022-09-24 12:16:45.641,17,0,0,16.160,55.953382,-4.402960,-0.70,-5.50,-3.90,-8.00,2.70,-107.30,0,1,0,94,100,-9509,3075,16160,3014.50,12,P-GPS,1,0,660,157,660,0,0,1664018205641,3969,3952,3992,4038,0,0,27,,,,,,,0,0,0,80.00,27.00,-1073.00,-1.00,0.00,-1044.00,6,158.00,67.79,113.90,-7.00,-55.00,-39.00,0,,,100,100,0,2,0,0,0,2,0,,,,,0.0,0.0,0.0,0.0,0.0,0.0,0
55.953376,-4.403150,16.20,0.00,6.78,11.94,16.20,16.20,6.78,11.94,5001,2022-09-24 11:16:45.742,2022-09-24 12:16:45.742,17,0,0,16.160,55.953382,-4.402960,-0.70,-5.50,-3.90,-7.90,2.60,-107.30,0,1,0,94,100,-9509,3075,16160,3014.50,12,P-GPS,1,0,660,157,660,0,0,1664018205742,3969,3952,3992,4038,0,0,27,,,,,,,0,0,0,79.00,26.00,-1073.00,-1.00,0.00,-1044.00,6,162.00,67.79,119.37,-7.00,-55.00,-39.00,0,,,100,100,0,2,0,0,0,2,0,,,,,0.0,0.0,0.0,0.0,0.0,0.0,0
55.953375,-4.403160,16.60,0.00,6.86,12.53,16.60,16.60,6.86,12.53,5104,2022-09-24 11:16:45.846,2022-09-24 12:16:45.845,17,0,0,16.160,55.953382,-4.402960,-0.70,-5.60,-3.90,-8.00,2.50,-107.30,0,1,0,94,100,-9509,3075,16160,3014.50,12,P-GPS,1,0,660,150,660,0,0,1664018205845,3969,3952,3992,4038,0,0,27,,,,,,,0,0,0,80.00,25.00,-1073.00,-1.00,0.00,-1044.00,6,166.00,68.60,125.30,-7.00,-56.00,-39.00,0,,,100,100,0,2,0,0,0,2,0,,,,,0.0,0.0,0.0,0.0,0.0,0.0,0
55.953375,-4.403169,17.00,0.00,6.87,13.10,17.00,17.00,6.87,13.10,5197,2022-09-24 11:16:45.938,2022-09-24 12:16:45.938,17,0,0,16.160,55.953382,-4.402960,-0.80,-5.60,-3.90,-8.00,2.50,-107.30,0,1,0,94,100,-9509,3075,16160,3014.50,12,P-GPS,1,0,660,150,660,0,0,1664018205938,3969,3952,3992,4038,0,0,27,,,,,,,0,0,0,80.00,25.00,-1073.00,-1.00,0.00,-1044.00,6,170.00,68.71,130.97,-8.00,-56.00,-39.00,0,,,100,100,0,2,0,0,0,2,0,,,,,0.0,0.0,0.0,0.0,0.0,0.0,0
55.953374,-4.403177,17.40,0.00,6.95,13.61,17.40,17.40,6.95,13.61,5296,2022-09-24 11:16:46.037,2022-09-24 12:16:46.037,17,0,0,16.160,55.953382,-4.402960,-0.80,-5.70,-3.90,-8.00,2.50,-107.30,0,1,0,94,100,-9509,3075,16160,3014.50,12,P-GPS,1,0,660,150,660,0,0,1664018206037,3969,3952,3992,4038,0,0,27,,,,,,,0,0,0,80.00,25.00,-1073.00,-1.00,0.00,-1044.00,6,174.00,69.53,136.15,-8.00,-57.00,-39.00,0,,,100,100,0,2,0,0,0,2,0,,,,,0.0,0.0,0.0,0.0,0.0,0.0,0
55.953373,-4.403186,17.80,0.00,7.05,14.19,17.80,17.80,7.05,14.19,5406,2022-09-24 11:16:46.147,2022-09-24 12:16:46.147,17,0,0,16.161,55.953382,-4.402960,-0.90,-5.80,-3.90,-8.00,2.40,-107.30,0,1,0,94,100,-9158,3072,16161,3015.50,12,P-GPS,1,0,660,150,660,0,0,1664018206147,3969,3952,3992,4038,0,0,27,,,,,,,0,0,0,80.00,24.00,-1073.00,-1.00,0.00,-1044.00,6,178.00,70.47,141.92,-9.00,-58.00,-39.00,0,,,100,100,0,2,0,0,0,2,0,,,,,0.0,0.0,0.0,0.0,0.0,0.0,0
55.953372,-4.403195,18.20,0.00,7.05,14.78,18.20,18.20,7.05,14.78,5501,2022-09-24 11:16:46.243,2022-09-24 12:16:46.242,17,0,0,16.161,55.953382,-4.402960,-0.90,-5.80,-3.90,-8.00,2.30,-107.30,0,1,0,94,100,-9158,3072,16161,3015.50,12,P-GPS,1,0,660,149,660,0,0,1664018206242,3969,3952,3992,4038,0,0,27,,,,,,,0,0,0,80.00,23.00,-1073.00,-1.00,0.00,-1044.00,6,182.00,70.47,147.81,-9.00,-58.00,-39.00,0,,,100,100,0,2,0,0,0,2,0,,,,,0.0,0.0,0.0,0.0,0.0,0.0,0
55.953372,-4.403205,18.60,0.00,7.13,15.37,18.60,18.60,7.13,15.37,5600,2022-09-24 11:16:46.341,2022-09-24 12:16:46.341,17,0,0,16.161,55.953382,-4.402960,-0.90,-5.90,-3.90,-8.10,2.40,-107.30,0,1,0,94,100,-9158,3072,16161,3015.50,12,P-GPS,1,0,660,146,660,0,0,1664018206341,3969,3952,3992,4038,0,0,27,,,,,,,0,0,0,81.00,24.00,-1073.00,-1.00,0.00,-1044.00,6,186.00,71.30,153.74,-9.00,-59.00,-39.00,0,,,100,100,0,2,0,0,0,2,0,,,,,0.0,0.0,0.0,0.0,0.0,0.0,0
55.953371,-4.403214,19.00,0.00,7.23,15.97,19.00,19.00,7.23,15.97,5700,2022-09-24 11:16:46.442,2022-09-24 12:16:46.442,17,0,0,16.161,55.953382,-4.402960,-1.00,-6.00,-3.90,-8.20,2.50,-107.30,0,1,0,94,100,-9158,3072,16161,3015.50,12,P-GPS,1,0,660,143,660,0,0,1664018206441,3969,3952,3992,4038,0,0,27,,,,,,,0,0,0,82.00,25.00,-1073.00,-1.00,0.00,-1044.00,6,190.00,72.26,159.71,-10.00,-60.00,-39.00,0,,,100,100,0,2,0,0,0,2,0,,,,,0.0,0.0,0.0,0.0,0.0,0.0,0
55.953370,-4.403224,19.40,0.00,7.23,16.58,19.40,19.40,7.23,16.58,5801,2022-09-24 11:16:46.542,2022-09-24 12:16:46.542,17,0,0,16.161,55.953382,-4.402960,-1.00,-6.00,-3.90,-8.30,2.40,-107.30,0,1,0,94,100,-9158,3072,16161,3015.50,12,P-GPS,1,0,660,140,660,0,0,1664018206542,3969,3952,3992,4038,0,0,27,,,,,,,0,0,0,83.00,24.00,-1073.00,-1.00,0.00,-1044.00,6,194.00,72.26,165.77,-10.00,-60.00,-39.00,0,,,100,100,0,2,0,0,0,2,0,,,,,0.0,0.0,0.0,0.0,0.0,0.0,0
55.953369,-4.403234,19.80,0.00,7.32,17.19,19.80,19.80,7.32,17.19,5901,2022-09-24 11:16:46.643,2022-09-24 12:16:46.642,17,0,0,16.161,55.953382,-4.402960,-1.10,-6.10,-3.90,-8.40,2.40,-107.30,0,1,0,94,100,-9158,3072,16161,3015.50,12,P-GPS,1,0,660,136,660,0,0,1664018206642,3969,3952,3992,4038,0,0,27,,,,,,,0,0,0,84.00,24.00,-1073.00,-1.00,0.00,-1044.00,6,198.00,73.23,171.91,-11.00,-61.00,-39.00,0,,,100,100,0,2,0,0,0,2,0,,,,,0.0,0.0,0.0,0.0,0.0,0.0,0
55.953368,-4.403243,20.20,0.00,7.32,17.81,20.20,20.20,7.32,17.81,5999,2022-09-24 11:16:46.740,2022-09-24 12:16:46.740,17,0,0,16.161,55.953382,-4.402960,-1.10,-6.10,-3.90,-8.60,2.10,-107.40,0,1,0,94,100,-9158,3072,16161,3015.50,12,P-GPS,1,0,660,131,660,0,0,1664018206740,3969,3952,3992,4038,0,0,27,,,,,,,0,0,0,86.00,21.00,-1074.00,-1.00,0.00,-1044.00,6,202.00,73.23,178.11,-11.00,-61.00,-39.00,0,,,100,100,0,2,0,0,0,2,0,,,,,0.0,0.0,0.0,0.0,0.0,0.0,0
55.953367,-4.403253,20.60,0.00,7.42,18.43,20.60,20.60,7.42,18.43,6099,2022-09-24 11:16:46.840,2022-09-24 12:16:46.840,17,0,0,16.161,55.953382,-4.402960,-1.20,-6.20,-3.90,-8.40,2.50,-107.40,0,1,0,94,100,-9158,3072,16161,3015.50,12,P-GPS,1,0,660,114,660,0,0,1664018206840,3969,3952,3992,4038,0,0,27,,,,,,,0,0,0,84.00,25.00,-1074.00,-1.00,0.00,-1044.00,6,206.00,74.22,184.28,-12.00,-62.00,-39.00,0,,,100,100,0,2,0,0,0,2,0,,,,,0.0,0.0,0.0,0.0,0.0,0.0,0
55.953366,-4.403263,21.00,0.00,7.51,19.06,21.00,21.00,7.51,19.06,6199,2022-09-24 11:16:46.940,2022-09-24 12:16:46.940,17,0,0,16.161,55.953382,-4.402960,-1.20,-6.30,-3.90,-8.10,2.70,-107.40,0,1,0,94,100,-9158,3072,16161,3015.50,12,P-GPS,1,0,660,39,660,0,0,1664018206940,3969,3952,3992,4038,0,0,27,,,,,,,0,0,0,81.00,27.00,-1074.00,-1.00,0.00,-1044.00,6,210.00,75.06,190.63,-12.00,-63.00,-39.00,0,,,100,100,0,2,0,0,0,2,0,,,,,0.0,0.0,0.0,0.0,0.0,0.0,0
55.953364,-4.403273,21.30,0.00,7.51,19.70,21.30,21.30,7.51,19.70,6296,2022-09-24 11:16:47.038,2022-09-24 12:16:47.037,17,0,0,16.161,55.953382,-4.402960,-1.20,-6.30,-3.90,-8.20,2.40,-107.30,0,1,0,94,100,-9158,3072,16161,3015.50,12,P-GPS,1,0,477,0,499,0,0,1664018207037,3969,3952,3992,4038,0,0,27,,,,,,,0,0,0,82.00,24.00,-1073.00,-1.00,0.00,-1044.00,6,213.00,75.06,197.03,-12.00,-63.00,-39.00,0,,,100,100,0,2,0,0,0,2,0,,,,,0.0,0.0,0.0,0.0,0.0,0.0,0
55.953363,-4.403284,21.70,0.00,7.51,20.35,21.70,21.70,7.51,20.35,6395,2022-09-24 11:16:47.136,2022-09-24 12:16:47.136,17,0,0,16.130,55.953382,-4.402960,-1.30,-6.40,-3.70,-8.00,2.50,-107.30,0,1,0,93,100,-9188,3069,16130,3015.50,12,P-GPS,1,0,263,0,26,0,0,1664018207136,3969,3952,3992,4038,0,0,27,,,,,,,0,0,0,80.00,25.00,-1073.00,-1.00,0.00,-1044.00,6,217.00,75.06,203.51,-13.00,-64.00,-37.00,0,,,100,100,0,2,0,0,0,2,0,,,,,0.0,0.0,0.0,0.0,0.0,0.0,0
55.953362,-4.403294,22.10,0.00,7.36,21.01,22.10,22.10,7.51,21.01,6503,2022-09-24 11:16:47.244,2022-09-24 12:16:47.244,17,0,0,16.130,55.953382,-4.402960,-1.30,-6.40,-3.40,-3.30,2.40,-107.30,0,1,0,93,100,-9188,3069,16130,3015.50,12,P-GPS,1,0,0,0,0,0,0,1664018207244,3969,3952,3992,4038,0,0,27,,,,,,,0,0,0,33.00,24.00,-1073.00,-1.00,0.00,-1044.00,6,221.00,73.63,210.08,-13.00,-64.00,-34.00,0,,,100,100,0,2,0,0,0,2,0,,,,,0.0,0.0,0.0,0.0,0.0,0.0,0
55.953361,-4.403304,22.40,0.00,7.10,21.66,22.40,22.40,7.51,21.66,6603,2022-09-24 11:16:47.344,2022-09-24 12:16:47.344,17,0,0,16.130,55.953382,-4.402960,-1.30,-6.30,-3.00,14.20,0.30,-107.40,0,1,0,93,100,-9188,3069,16130,3015.50,12,P-GPS,1,0,0,0,0,0,0,1664018207344,3969,3952,3992,4038,0,0,27,,,,,,,0,0,0,-142.00,3.00,-1074.00,-1.00,0.00,-1044.00,6,224.00,70.98,216.57,-13.00,-63.00,-30.00,0,,,100,100,0,2,0,0,0,2,0,,,,,0.0,0.0,0.0,0.0,0.0,0.0,0
55.953360,-4.403314,22.70,0.00,6.75,22.28,22.70,22.70,7.51,22.28,6695,2022-09-24 11:16:47.437,2022-09-24 12:16:47.436,17,0,0,16.130,55.953382,-4.402960,-1.30,-6.00,-2.80,22.80,-0.70,-107.40,0,1,0,93,100,-9188,3069,16130,3015.50,12,P-GPS,1,0,0,0,0,0,0,1664018207436,3969,3952,3992,4038,0,0,27,,,,,,,0,0,0,-228.00,-7.00,-1074.00,-1.00,0.00,-1044.00,6,227.00,67.48,222.76,-13.00,-60.00,-28.00,0,,,100,100,0,2,0,0,0,2,0,,,,,0.0,0.0,0.0,0.0,0.0,0.0,0
55.953359,-4.403323,22.90,0.00,6.30,22.87,22.90,22.90,7.51,22.87,6798,2022-09-24 11:16:47.539,2022-09-24 12:16:47.539,17,0,0,16.130,55.953382,-4.402960,-1.20,-5.70,-2.40,24.70,-0.80,-107.40,0,1,0,93,100,-9188,3069,16130,3015.50,12,P-GPS,1,0,0,0,0,0,0,1664018207539,3969,3952,3992,4038,0,0,27,,,,,,,0,0,0,-247.00,-8.00,-1074.00,-1.00,0.00,-1044.00,6,229.00,63.00,228.71,-12.00,-57.00,-24.00,0,,,100,100,0,2,0,0,0,2,0,,,,,0.0,0.0,0.0,0.0,0.0,0.0,0
55.953357,-4.403332,23.20,0.00,5.85,23.44,23.20,23.20,7.51,23.44,6894,2022-09-24 11:16:47.636,2022-09-24 12:16:47.635,17,0,0,16.130,55.953382,-4.402960,-1.20,-5.40,-1.90,24.80,-0.80,-107.50,0,1,0,93,100,-9188,3069,16130,3015.50,12,P-GPS,1,0,0,0,0,0,0,1664018207635,3969,3952,3992,4038,0,0,27,,,,,,,0,0,0,-248.00,-8.00,-1075.00,-1.00,0.00,-1044.00,6,232.00,58.49,234.40,-12.00,-54.00,-19.00,0,,,100,100,0,2,0,0,0,2,0,,,,,0.0,0.0,0.0,0.0,0.0,0.0,0
55.953356,-4.403340,23.30,0.00,5.43,23.98,23.30,23.30,7.51,23.98,6997,2022-09-24 11:16:47.739,2022-09-24 12:16:47.738,17,0,0,16.130,55.953382,-4.402960,-1.10,-5.10,-1.50,24.60,-0.80,-107.40,0,1,0,93,100,-9188,3069,16130,3015.50,12,P-GPS,1,0,0,0,0,0,0,1664018207738,3969,3952,3992,4038,0,0,27,,,,,,,0,0,0,-246.00,-8.00,-1074.00,-1.00,0.00,-1044.00,6,233.00,54.29,239.75,-11.00,-51.00,-15.00,0,,,100,100,0,2,0,0,0,2,0,,,,,0.0,0.0,0.0,0.0,0.0,0.0,0
55.953355,-4.403349,23.40,0.00,5.02,24.50,23.40,23.40,7.51,24.50,7105,2022-09-24 11:16:47.846,2022-09-24 12:16:47.846,17,0,0,16.130,55.953382,-4.402960,-1.10,-4.80,-1.00,24.50,-0.90,-107.50,0,1,0,93,100,-9188,3069,16130,3015.50,12,P-GPS,1,0,0,0,0,0,0,1664018207846,3969,3952,3992,4038,0,0,27,,,,,,,0,0,0,-245.00,-9.00,-1075.00,-1.00,0.00,-1044.00,6,234.00,50.25,244.98,-11.00,-48.00,-10.00,0,,,100,100,0,2,0,0,0,2,0,,,,,0.0,0.0,0.0,0.0,0.0,0.0,0
55.953354,-4.403356,23.50,0.00,4.73,24.98,23.50,23.50,7.51,24.98,7196,2022-09-24 11:16:47.937,2022-09-24 12:16:47.937,17,0,0,16.130,55.953382,-4.402960,-1.00,-4.60,-0.50,24.40,-1.00,-107.50,0,1,0,93,100,-9188,3069,16130,3015.50,12,P-GPS,1,0,0,0,0,0,-15,1664018207937,3969,3952,3992,4038,0,0,27,,,,,,,0,0,0,-244.00,-10.00,-1075.00,-1.00,0.00,-1044.00,6,235.00,47.34,249.80,-10.00,-46.00,-5.00,0,,,100,100,0,2,0,0,0,2,0,,,,,0.0,0.0,0.0,0.0,0.0,0.0,0
55.953353,-4.403364,23.50,0.00,4.32,25.46,23.50,23.50,7.51,25.46,7302,2022-09-24 11:16:48.043,2022-09-24 12:16:48.043,17,0,0,16.130,55.953382,-4.402960,-1.00,-4.20,-0.20,24.90,-1.20,-107.40,0,1,0,93,100,-9188,3069,16130,3015.50,12,P-GPS,1,0,0,0,0,0,-260,1664018208043,3969,3952,3992,4038,0,0,27,,,,,,,0,0,0,-249.00,-12.00,-1074.00,-2.00,0.00,-1044.00,6,235.00,43.22,254.62,-10.00,-42.00,-2.00,0,,,100,100,0,2,0,0,0,2,0,,,,,0.0,0.0,0.0,0.0,0.0,0.0,0
55.953352,-4.403370,23.50,0.00,4.00,25.88,23.50,23.50,7.51,25.88,7403,2022-09-24 11:16:48.144,2022-09-24 12:16:48.144,17,0,0,16.130,55.953382,-4.402960,-0.90,-3.90,0.00,25.50,-1.60,-107.30,0,1,0,93,100,-9188,3069,16130,3015.50,12,P-GPS,1,0,0,0,0,0,-534,1664018208144,3969,3952,3992,4038,0,0,27,,,,,,,0,0,0,-255.00,-16.00,-1073.00,-9.00,0.00,-1044.00,6,235.00,40.02,258.80,-9.00,-39.00,0.00,0,,,100,100,0,2,0,0,0,2,0,,,,,0.0,0.0,0.0,0.0,0.0,0.0,0
55.953351,-4.403377,23.60,0.00,3.49,26.30,23.60,23.60,7.51,26.30,7496,2022-09-24 11:16:48.237,2022-09-24 12:16:48.237,17,0,0,16.130,55.953382,-4.402960,-0.80,-3.40,0.00,25.30,-1.50,-107.10,0,1,0,93,100,-9188,3069,16130,3015.50,12,P-GPS,1,0,0,0,0,0,-660,1664018208237,3969,3952,3992,4038,0,0,27,,,,,,,0,0,0,-253.00,-15.00,-1071.00,-20.00,0.00,-1044.00,6,236.00,34.93,262.98,-8.00,-34.00,0.00,0,,,100,100,0,2,0,0,0,2,0,,,,,0.0,0.0,0.0,0.0,0.0,0.0,0
55.953350,-4.403382,23.60,0.00,3.08,26.63,23.60,23.60,7.51,26.63,7600,2022-09-24 11:16:48.341,2022-09-24 12:16:48.341,17,0,0,16.130,55.953382,-4.402960,-0.70,-3.00,0.00,24.50,-0.80,-107.10,0,1,0,93,100,-9188,3069,16130,3015.50,12,P-GPS,1,0,0,0,0,0,-660,1664018208341,3969,3952,3992,4038,0,0,27,,,,,,,0,0,0,-245.00,-8.00,-1071.00,-38.00,0.00,-1044.00,6,236.00,30.81,266.33,-7.00,-30.00,0.00,0,,,100,100,0,2,0,0,0,2,0,,,,,0.0,0.0,0.0,0.0,0.0,0.0,0
55.953350,-4.403387,23.60,0.00,2.57,26.95,23.60,23.60,7.51,26.95,7698,2022-09-24 11:16:48.439,2022-09-24 12:16:48.439,17,0,0,16.130,55.953382,-4.402960,-0.60,-2.50,0.00,23.80,0.20,-106.90,0,1,0,93,100,-9188,3069,16130,3015.50,12,P-GPS,1,0,0,0,0,0,-660,1664018208439,3969,3952,3992,4038,0,0,27,,,,,,,0,0,0,-238.00,2.00,-1069.00,-60.00,0.00,-1044.00,6,236.00,25.71,269.48,-6.00,-25.00,0.00,0,,,100,100,0,2,0,0,0,2,0,,,,,0.0,0.0,0.0,0.0,0.0,0.0,0
55.953349,-4.403391,23.60,0.00,2.16,27.19,23.60,23.60,7.51,27.19,7799,2022-09-24 11:16:48.540,2022-09-24 12:16:48.540,17,0,0,16.130,55.953382,-4.402960,-0.50,-2.10,0.00,23.20,1.40,-107.00,0,1,0,93,100,-9188,3069,16130,3015.50,12,P-GPS,1,0,0,0,0,0,-660,1664018208540,3969,3952,3992,4038,0,0,27,,,,,,,0,0,0,-232.00,14.00,-1070.00,-84.00,0.00,-1044.00,6,236.00,21.59,271.94,-5.00,-21.00,0.00,0,,,100,100,0,2,0,0,0,2,0,,,,,0.0,0.0,0.0,0.0,0.0,0.0,0
55.953348,-4.403394,23.60,0.00,1.75,27.40,23.60,23.60,7.51,27.40,7904,2022-09-24 11:16:48.645,2022-09-24 12:16:48.645,17,0,0,16.513,55.953382,-4.402960,-0.40,-1.70,0.00,22.90,2.40,-106.90,0,1,0,93,100,-5975,3067,16513,3015.50,12,P-GPS,1,0,0,0,0,0,-660,1664018208645,3969,3952,3992,4038,0,0,27,,,,,,,0,0,0,-229.00,24.00,-1069.00,-108.00,0.00,-1044.00,6,236.00,17.46,274.03,-4.00,-17.00,0.00,0,,,100,100,0,2,0,0,0,2,0,,,,,0.0,0.0,0.0,0.0,0.0,0.0,0
55.953348,-4.403396,23.70,0.00,1.33,27.57,23.70,23.70,7.51,27.57,7998,2022-09-24 11:16:48.740,2022-09-24 12:16:48.739,17,0,0,16.513,55.953382,-4.402960,-0.30,-1.30,0.00,22.70,3.20,-106.80,0,1,0,93,100,-5975,3067,16513,3015.50,12,P-GPS,1,0,0,0,0,0,-660,1664018208739,3969,3952,3992,4038,0,0,27,,,,,,,0,0,0,-227.00,32.00,-1068.00,-131.00,0.00,-1044.00,6,237.00,13.34,275.66,-3.00,-13.00,0.00,0,,,100,100,0,2,0,0,0,2,0,,,,,0.0,0.0,0.0,0.0,0.0,0.0,0
55.953347,-4.403398,23.60,0.00,1.02,27.70,23.70,23.70,7.51,27.70,8101,2022-09-24 11:16:48.842,2022-09-24 12:16:48.842,17,0,0,16.513,55.953382,-4.402960,-0.20,-1.00,0.00,19.40,3.20,-106.90,0,1,0,93,100,-5975,3067,16513,3015.50,12,P-GPS,1,0,0,0,0,0,-660,1664018208842,3969,3952,3992,4038,0,0,27,,,,,,,0,0,0,-194.00,32.00,-1069.00,-155.00,0.00,-1044.00,6,236.00,10.20,277.02,-2.00,-10.00,0.00,0,,,100,100,0,2,0,0,0,2,0,,,,,0.0,0.0,0.0,0.0,0.0,0.0,0
55.953346,-4.403400,23.60,0.00,0.71,27.80,23.70,23.70,7.51,27.80,8209,2022-09-24 11:16:48.950,2022-09-24 12:16:48.950,17,0,0,16.513,55.953382,-4.402960,-0.10,-0.70,0.00,15.10,2.90,-107.10,0,1,0,93,100,-5975,3067,16513,3015.50,12,P-GPS,1,0,0,0,0,0,-660,1664018208950,3969,3952,3992,4038,0,0,27,,,,,,,0,0,0,-151.00,29.00,-1071.00,-179.00,0.00,-1044.00,6,236.00,7.07,277.97,-1.00,-7.00,0.00,0,,,100,100,0,2,0,0,0,2,0,,,,,0.0,0.0,0.0,0.0,0.0,0.0,0
55.953346,-4.403401,23.60,0.00,0.51,27.86,23.70,23.70,7.51,27.86,8308,2022-09-24 11:16:49.049,2022-09-24 12:16:49.049,17,0,0,16.513,55.953382,-4.402960,-0.10,-0.50,0.00,11.50,2.60,-107.20,0,1,0,93,100,-5975,3067,16513,3015.50,12,P-GPS,1,0,0,0,0,0,-660,1664018209049,3969,3952,3992,4038,0,0,27,,,,,,,0,0,0,-115.00,26.00,-1072.00,-202.00,0.00,-1044.00,6,236.00,5.10,278.63,-1.00,-5.00,0.00,0,,,100,100,0,2,0,0,0,2,0,,,,,0.0,0.0,0.0,0.0,0.0,0.0,0
55.953346,-4.403402,23.60,0.00,0.41,27.92,23.70,23.70,7.51,27.92,8403,2022-09-24 11:16:49.144,2022-09-24 12:16:49.144,17,0,0,16.513,55.953382,-4.402960,-0.10,-0.40,0.00,9.00,2.60,-107.10,0,1,0,93,100,-5975,3067,16513,3015.50,12,P-GPS,1,0,0,0,0,0,-660,1664018209144,3969,3952,3992,4038,0,0,27,,,,,,,0,0,0,-90.00,26.00,-1071.00,-226.00,0.00,-1044.00,6,236.00,4.12,279.17,-1.00,-4.00,0.00,0,,,100,100,0,2,0,0,0,2,0,,,,,0.0,0.0,0.0,0.0,0.0,0.0,0
55.953345,-4.403402,23.50,0.00,0.32,27.96,23.70,23.70,7.51,27.96,8500,2022-09-24 11:16:49.241,2022-09-24 12:16:49.241,17,0,0,16.513,55.953382,-4.402960,-0.10,-0.30,0.00,7.30,2.70,-107.20,0,1,0,93,100,-5975,3067,16513,3015.50,12,P-GPS,1,0,0,0,0,0,-660,1664018209241,3969,3952,3992,4038,0,0,27,,,,,,,0,0,0,-73.00,27.00,-1072.00,-250.00,0.00,-1044.00,6,235.00,3.16,279.63,-1.00,-3.00,0.00,0,,,100,100,0,2,0,0,0,2,0,,,,,0.0,0.0,0.0,0.0,0.0,0.0,0
55.953345,-4.403403,23.50,0.00,0.22,28.00,23.70,23.70,7.51,28.00,8606,2022-09-24 11:16:49.347,2022-09-24 12:16:49.347,17,0,0,16.513,55.953382,-4.402960,-0.10,-0.20,0.00,6.10,2.80,-107.10,0,1,0,93,100,-5975,3067,16513,3015.50,12,P-GPS,1,0,0,0,0,0,-660,1664018209347,3969,3952,3992,4038,0,0,27,,,,,,,0,0,0,-61.00,28.00,-1071.00,-273.00,0.00,-1044.00,6,235.00,2.24,279.98,-1.00,-2.00,0.00,0,,,100,100,0,2,0,0,0,2,0,,,,,0.0,0.0,0.0,0.0,0.0,0.0,0
55.953344,-4.403403,23.50,0.00,0.14,28.01,23.70,23.70,7.51,28.01,8696,2022-09-24 11:16:49.437,2022-09-24 12:16:49.437,17,0,0,16.513,55.953382,-4.402960,-0.10,-0.10,0.00,5.40,3.00,-107.20,0,1,0,93,100,-5975,3067,16513,3015.50,12,P-GPS,1,0,0,0,0,0,-660,1664018209437,3969,3952,3992,4038,0,0,27,,,,,,,0,0,0,-54.00,30.00,-1072.00,-297.00,0.00,-1044.00,6,235.00,1.41,280.12,-1.00,-1.00,0.00,0,,,100,100,0,2,0,0,0,2,0,,,,,0.0,0.0,0.0,0.0,0.0,0.0,0
55.953344,-4.403403,23.40,0.00,0.14,28.03,23.70,23.70,7.51,28.03,8800,2022-09-24 11:16:49.542,2022-09-24 12:16:49.541,17,0,0,16.232,55.953382,-4.402960,-0.10,-0.10,0.00,4.80,3.20,-107.10,0,1,0,93,100,-7140,3066,16232,3015.50,12,P-GPS,1,0,0,0,0,0,-660,1664018209541,3969,3952,3992,4038,0,0,27,,,,,,,0,0,0,-48.00,32.00,-1071.00,-320.00,0.00,-1044.00,6,234.00,1.41,280.34,-1.00,-1.00,0.00,0,,,100,100,0,2,0,0,0,2,0,,,,,0.0,0.0,0.0,0.0,0.0,0.0,0
55.953343,-4.403403,23.40,0.00,0.10,28.03,23.70,23.70,7.51,28.03,8900,2022-09-24 11:16:49.641,2022-09-24 12:16:49.641,17,0,0,16.232,55.953382,-4.402960,-0.10,0.00,0.00,4.30,3.30,-107.20,0,1,0,93,100,-7140,3066,16232,3015.50,12,P-GPS,1,0,0,0,0,0,-660,1664018209641,3969,3952,3992,4038,0,0,27,,,,,,,0,0,0,-43.00,33.00,-1072.00,-344.00,0.00,-1044.00,6,234.00,1.00,280.35,-1.00,0.00,0.00,0,,,100,100,0,2,0,0,0,2,0,,,,,0.0,0.0,0.0,0.0,0.0,0.0,0
55.953343,-4.403403,23.40,0.00,0.10,28.05,23.70,23.70,7.51,28.05,9008,2022-09-24 11:16:49.750,2022-09-24 12:16:49.749,17,0,0,16.232,55.953382,-4.402960,-0.10,0.00,0.00,3.90,3.50,-107.10,0,1,0,93,100,-7140,3066,16232,3015.50,12,P-GPS,1,0,0,0,0,0,-660,1664018209749,3969,3952,3992,4038,0,0,27,,,,,,,0,0,0,-39.00,35.00,-1071.00,-368.00,0.00,-1044.00,6,234.00,1.00,280.49,-1.00,0.00,0.00,0,,,100,100,0,2,0,0,0,2,0,,,,,0.0,0.0,0.0,0.0,0.0,0.0,0
55.953343,-4.403402,23.30,0.00,0.10,28.02,23.70,23.70,7.51,28.05,9105,2022-09-24 11:16:49.846,2022-09-24 12:16:49.846,17,0,0,16.232,55.953382,-4.402960,-0.10,0.00,0.00,3.50,3.60,-107.10,0,1,0,93,100,-7140,3066,16232,3015.50,12,P-GPS,1,0,0,0,0,0,-660,1664018209846,3969,3952,3992,4038,0,0,27,,,,,,,0,0,0,-35.00,36.00,-1071.00,-391.00,0.00,-1044.00,6,233.00,1.00,280.21,-1.00,0.00,0.00,0,,,100,100,0,2,0,0,0,2,0,,,,,0.0,0.0,0.0,0.0,0.0,0.0,0
55.953342,-4.403403,23.30,0.00,0.10,28.03,23.70,23.70,7.51,28.05,9203,2022-09-24 11:16:49.944,2022-09-24 12:16:49.944,17,0,0,16.232,55.953382,-4.402960,-0.10,0.00,0.00,3.20,3.60,-107.20,0,1,0,93,100,-7140,3066,16232,3015.50,12,P-GPS,1,0,0,0,0,0,-660,1664018209944,3969,3952,3992,4038,0,0,27,,,,,,,0,0,0,-32.00,36.00,-1072.00,-415.00,0.00,-1044.00,6,233.00,1.00,280.28,-1.00,0.00,0.00,0,,,100,100,0,2,0,0,0,2,0,,,,,0.0,0.0,0.0,0.0,0.0,0.0,0
55.953342,-4.403402,23.30,0.00,0.10,28.01,23.70,23.70,7.51,28.05,9302,2022-09-24 11:16:50.043,2022-09-24 12:16:50.043,17,0,0,16.232,55.953382,-4.402960,-0.10,0.00,0.00,2.90,4.00,-107.20,0,1,0,93,100,-7140,3066,16232,3015.50,12,P-GPS,1,0,0,0,0,0,-660,1664018210043,3969,3952,3992,4038,0,0,27,,,,,,,0,0,0,-29.00,40.00,-1072.00,-439.00,0.00,-1044.00,6,233.00,1.00,280.12,-1.00,0.00,0.00,0,,,100,100,0,2,0,0,0,2,0,,,,,0.0,0.0,0.0,0.0,0.0,0.0,0
55.953342,-4.403402,23.20,0.00,0.10,28.02,23.70,23.70,7.51,28.05,9405,2022-09-24 11:16:50.146,2022-09-24 12:16:50.146,17,0,0,16.232,55.953382,-4.402960,-0.10,0.00,0.00,2.70,4.40,-107.20,0,1,0,93,100,-7140,3066,16232,3015.50,12,P-GPS,1,0,0,0,0,0,-660,1664018210146,3969,3952,3992,4038,0,0,27,,,,,,,0,0,0,-27.00,44.00,-1072.00,-462.00,0.00,-1044.00,6,232.00,1.00,280.17,-1.00,0.00,0.00,0,,,100,100,0,2,0,0,0,2,0,,,,,0.0,0.0,0.0,0.0,0.0,0.0,0
55.953342,-4.403402,23.20,0.00,0.10,28.00,23.70,23.70,7.51,28.05,9500,2022-09-24 11:16:50.242,2022-09-24 12:16:50.241,17,0,0,16.232,55.953382,-4.402960,-0.10,0.00,0.00,2.70,4.80,-107.20,0,1,0,93,100,-7140,3066,16232,3015.50,12,P-GPS,1,0,0,0,0,0,-660,1664018210241,3969,3952,3992,4038,0,0,27,,,,,,,0,0,0,-27.00,48.00,-1072.00,-486.00,0.00,-1044.00,6,232.00,1.00,279.96,-1.00,0.00,0.00,0,,,100,100,0,2,0,0,0,2,0,,,,,0.0,0.0,0.0,0.0,0.0,0.0,0
55.953341,-4.403402,23.20,0.00,0.10,28.00,23.70,23.70,7.51,28.05,9606,2022-09-24 11:16:50.347,2022-09-24 12:16:50.347,17,0,0,16.232,55.953382,-4.402960,-0.10,0.00,0.00,2.70,5.00,-107.20,0,1,0,93,100,-7140,3066,16232,3015.50,12,P-GPS,1,0,0,0,0,0,-660,1664018210347,3969,3952,3992,4038,0,0,27,,,,,,,0,0,0,-27.00,50.00,-1072.00,-509.00,0.00,-1044.00,6,232.00,1.00,279.99,-1.00,0.00,0.00,0,,,100,100,0,2,0,0,0,2,0,,,,,0.0,0.0,0.0,0.0,0.0,0.0,0
55.953341,-4.403401,23.20,0.00,0.14,27.99,23.70,23.70,7.51,28.05,9708,2022-09-24 11:16:50.449,2022-09-24 12:16:50.449,17,0,0,16.232,55.953382,-4.402960,-0.10,0.00,-0.10,2.60,5.20,-107.20,0,1,0,93,100,-7140,3066,16232,3015.50,12,P-GPS,1,0,0,0,0,0,-660,1664018210449,3969,3952,3992,4038,0,0,27,,,,,,,0,0,0,-26.00,52.00,-1072.00,-533.00,0.00,-1044.00,6,232.00,1.41,279.87,-1.00,0.00,-1.00,0,,,100,100,0,2,0,0,0,2,0,,,,,0.0,0.0,0.0,0.0,0.0,0.0,0
55.953341,-4.403401,23.20,0.00,0.14,27.99,23.70,23.70,7.51,28.05,9808,2022-09-24 11:16:50.549,2022-09-24 12:16:50.549,17,0,0,16.271,55.953382,-4.402960,-0.10,0.00,-0.10,2.50,5.20,-107.10,0,1,0,93,100,-7140,3066,16271,3016.50,12,P-GPS,1,0,0,0,0,0,-660,1664018210549,3969,3952,3992,4038,0,0,27,,,,,,,0,0,0,-25.00,52.00,-1071.00,-557.00,0.00,-1044.00,6,232.00,1.41,279.88,-1.00,0.00,-1.00,0,,,100,100,0,2,0,0,0,2,0,,,,,0.0,0.0,0.0,0.0,0.0,0.0,0
55.953341,-4.403401,23.20,0.00,0.10,27.97,23.70,23.70,7.51,28.05,9900,2022-09-24 11:16:50.642,2022-09-24 12:16:50.641,17,0,0,16.271,55.953382,-4.402960,0.00,0.00,-0.10,2.50,5.10,-107.10,0,1,0,93,100,-7140,3066,16271,3016.50,12,P-GPS,1,0,0,0,0,0,-660,1664018210641,3969,3952,3992,4038,0,0,27,,,,,,,0,0,0,-25.00,51.00,-1071.00,-581.00,0.00,-1044.00,6,232.00,1.00,279.71,0.00,0.00,-1.00,0,,,100,100,0,2,0,0,0,2,0,,,,,0.0,0.0,0.0,0.0,0.0,0.0,0
55.953341,-4.403401,23.20,0.00,0.10,27.97,23.70,23.70,7.51,28.05,10001,2022-09-24 11:16:50.742,2022-09-24 12:16:50.742,17,0,0,16.271,55.953382,-4.402960,0.00,0.00,-0.10,2.50,5.20,-107.10,0,1,0,93,100,-7140,3066,16271,3016.50,12,P-GPS,1,0,0,0,0,0,-660,1664018210742,3969,3952,3992,4038,0,0,27,,,,,,,0,0,0,-25.00,52.00,-1071.00,-604.00,0.00,-1044.00,6,232.00,1.00,279.71,0.00,0.00,-1.00,0,,,100,100,0,2,0,0,0,2,0,,,,,0.0,0.0,0.0,0.0,0.0,0.0,0
55.953341,-4.403401,23.20,0.00,0.10,27.96,23.70,23.70,7.51,28.05,10098,2022-09-24 11:16:50.839,2022-09-24 12:16:50.839,17,0,0,16.271,55.953382,-4.402960,0.00,0.00,-0.10,2.40,5.30,-107.10,0,1,0,93,100,-7140,3066,16271,3016.50,12,P-GPS,1,0,0,0,0,0,-660,1664018210839,3969,3952,3992,4038,0,0,27,,,,,,,0,0,0,-24.00,53.00,-1071.00,-628.00,0.00,-1044.00,6,232.00,1.00,279.61,0.00,0.00,-1.00,0,,,100,100,0,2,0,0,0,2,0,,,,,0.0,0.0,0.0,0.0,0.0,0.0,0
55.953341,-4.403401,23.10,0.00,0.10,27.96,23.70,23.70,7.51,28.05,10200,2022-09-24 11:16:50.942,2022-09-24 12:16:50.941,17,0,0,16.271,55.953382,-4.402960,0.00,0.00,-0.10,2.10,5.20,-107.20,0,1,0,93,100,-7140,3066,16271,3016.50,12,P-GPS,1,0,0,0,0,0,-660,1664018210941,3969,3952,3992,4038,0,0,27,,,,,,,0,0,0,-21.00,52.00,-1072.00,-651.00,0.00,-1044.00,6,231.00,1.00,279.61,0.00,0.00,-1.00,0,,,100,100,0,2,0,0,0,2,0,,,,,0.0,0.0,0.0,0.0,0.0,0.0,0
55.953341,-4.403401,23.10,0.00,0.10,27.95,23.70,23.70,7.51,28.05,10301,2022-09-24 11:16:51.042,2022-09-24 12:16:51.042,17,0,0,16.271,55.953382,-4.402960,0.00,0.00,-0.10,1.90,5.20,-107.30,0,1,0,93,100,-7140,3066,16271,3016.50,12,P-GPS,1,0,0,0,0,0,-660,1664018211042,3969,3952,3992,4038,0,0,27,,,,,,,0,0,0,-19.00,52.00,-1073.00,-675.00,0.00,-1044.00,6,231.00,1.00,279.45,0.00,0.00,-1.00,0,,,100,100,0,2,0,0,0,2,0,,,,,0.0,0.0,0.0,0.0,0.0,0.0,0
55.953341,-4.403401,23.10,0.00,0.20,27.95,23.70,23.70,7.51,28.05,10403,2022-09-24 11:16:51.144,2022-09-24 12:16:51.144,17,0,0,16.272,55.953382,-4.402960,0.00,0.00,-0.20,2.20,4.90,-107.30,0,1,0,93,100,-7211,3062,16272,3016.50,12,P-GPS,1,0,0,0,0,0,-660,1664018211144,3969,3952,3992,4038,0,0,27,,,,,,,0,0,0,-22.00,49.00,-1073.00,-699.00,0.00,-1044.00,6,231.00,2.00,279.47,0.00,0.00,-2.00,0,,,100,100,0,2,0,0,0,2,0,,,,,0.0,0.0,0.0,0.0,0.0,0.0,0
55.953341,-4.403401,23.10,0.00,0.10,27.94,23.70,23.70,7.51,28.05,10499,2022-09-24 11:16:51.240,2022-09-24 12:16:51.240,17,0,0,16.272,55.953382,-4.402960,0.00,0.00,-0.10,2.50,4.60,-107.30,0,1,0,93,100,-7211,3062,16272,3016.50,12,P-GPS,1,0,0,0,0,0,-660,1664018211240,3969,3952,3992,4038,0,0,27,,,,,,,0,0,0,-25.00,46.00,-1073.00,-722.00,0.00,-1044.00,6,231.00,1.00,279.41,0.00,0.00,-1.00,0,,,100,100,0,2,0,0,0,2,0,,,,,0.0,0.0,0.0,0.0,0.0,0.0,0
55.953341,-4.403401,23.10,0.00,0.10,27.94,23.70,23.70,7.51,28.05,10600,2022-09-24 11:16:51.341,2022-09-24 12:16:51.341,17,0,0,16.272,55.953382,-4.402960,0.00,0.00,-0.10,2.60,4.50,-107.30,0,1,0,93,100,-7211,3062,16272,3016.50,12,P-GPS,1,0,0,0,0,0,-660,1664018211341,3969,3952,3992,4038,0,0,27,,,,,,,0,0,0,-26.00,45.00,-1073.00,-746.00,0.00,-1044.00,6,231.00,1.00,279.44,0.00,0.00,-1.00,0,,,100,100,0,2,0,0,0,2,0,,,,,0.0,0.0,0.0,0.0,0.0,0.0,0
55.953341,-4.403401,23.10,0.00,0.10,27.95,23.70,23.70,7.51,28.05,10695,2022-09-24 11:16:51.436,2022-09-24 12:16:51.436,17,0,0,16.272,55.953382,-4.402960,0.00,0.00,-0.10,2.80,4.50,-107.30,0,1,0,93,100,-7211,3062,16272,3016.50,12,P-GPS,1,0,0,0,0,0,-660,1664018211436,3969,3952,3992,4038,0,0,27,,,,,,,0,0,0,-28.00,45.00,-1073.00,-770.00,0.00,-1044.00,6,231.00,1.00,279.46,0.00,0.00,-1.00,0,,,100,100,0,2,0,0,0,2,0,,,,,0.0,0.0,0.0,0.0,0.0,0.0,0
55.953341,-4.403401,23.20,0.00,0.20,27.95,23.70,23.70,7.51,28.05,10805,2022-09-24 11:16:51.546,2022-09-24 12:16:51.546,17,0,0,16.272,55.953382,-4.402960,0.00,0.00,-0.20,2.90,4.40,-107.20,0,1,0,93,100,-7211,3062,16272,3016.50,12,P-GPS,1,0,0,0,0,0,-660,1664018211546,3969,3952,3992,4038,0,0,27,,,,,,,0,0,0,-29.00,44.00,-1072.00,-793.00,0.00,-1044.00,6,232.00,2.00,279.48,0.00,0.00,-2.00,0,,,100,100,0,2,0,0,0,2,0,,,,,0.0,0.0,0.0,0.0,0.0,0.0,0
55.953341,-4.403401,23.20,0.00,0.20,27.95,23.70,23.70,7.51,28.05,10898,2022-09-24 11:16:51.639,2022-09-24 12:16:51.639,17,0,0,16.272,55.953382,-4.402960,0.00,0.00,-0.20,2.80,4.20,-107.30,0,1,0,93,100,-7211,3062,16272,3016.50,12,P-GPS,1,0,0,0,0,0,-660,1664018211639,3969,3952,3992,4038,0,0,27,,,,,,,0,0,0,-28.00,42.00,-1073.00,-817.00,0.00,-1044.00,6,232.00,2.00,279.54,0.00,0.00,-2.00,0,,,100,100,0,2,0,0,0,2,0,,,,,0.0,0.0,0.0,0.0,0.0,0.0,0
55.953341,-4.403401,23.20,0.00,0.20,27.96,23.70,23.70,7.51,28.05,11000,2022-09-24 11:16:51.742,2022-09-24 12:16:51.742,17,0,0,16.272,55.953382,-4.402960,0.00,0.00,-0.20,2.80,4.40,-107.30,0,1,0,93,100,-7211,3062,16272,3016.50,12,P-GPS,1,0,0,0,0,0,-660,1664018211741,3969,3952,3992,4038,0,0,27,,,,,,,0,0,0,-28.00,44.00,-1073.00,-840.00,0.00,-1044.00,6,232.00,2.00,279.56,0.00,0.00,-2.00,0,,,100,100,0,2,0,0,0,2,0,,,,,0.0,0.0,0.0,0.0,0.0,0.0,0
55.953341,-4.403401,23.20,0.00,0.10,27.96,23.70,23.70,7.51,28.05,11100,2022-09-24 11:16:51.841,2022-09-24 12:16:51.841,17,0,0,16.272,55.953382,-4.402960,0.00,0.00,-0.10,2.50,4.20,-107.30,0,1,0,93,100,-7211,3062,16272,3016.50,12,P-GPS,1,0,0,0,0,0,-660,1664018211841,3969,3952,3992,4038,0,0,27,,,,,,,0,0,0,-25.00,42.00,-1073.00,-864.00,0.00,-1044.00,6,232.00,1.00,279.63,0.00,0.00,-1.00,0,,,100,100,0,2,0,0,0,2,0,,,,,0.0,0.0,0.0,0.0,0.0,0.0,0
55.953341,-4.403401,23.20,0.00,0.10,27.96,23.70,23.70,7.51,28.05,11200,2022-09-24 11:16:51.942,2022-09-24 12:16:51.941,17,0,0,16.272,55.953382,-4.402960,0.00,0.00,-0.10,2.40,4.00,-107.30,0,1,0,93,100,-7211,3062,16272,3016.50,12,P-GPS,1,0,0,0,0,0,-660,1664018211941,3969,3952,3992,4038,0,0,27,,,,,,,0,0,0,-24.00,40.00,-1073.00,-888.00,0.00,-1044.00,6,232.00,1.00,279.65,0.00,0.00,-1.00,0,,,100,100,0,2,0,0,0,2,0,,,,,0.0,0.0,0.0,0.0,0.0,0.0,0
55.953341,-4.403401,23.20,0.00,0.10,27.96,23.70,23.70,7.51,28.05,11303,2022-09-24 11:16:52.044,2022-09-24 12:16:52.044,17,0,0,16.272,55.953382,-4.402960,0.00,0.00,-0.10,2.40,4.00,-107.30,0,1,0,93,100,-7211,3062,16272,3016.50,12,P-GPS,1,0,0,0,0,0,-660,1664018212044,3969,3952,3992,4038,0,0,27,,,,,,,0,0,0,-24.00,40.00,-1073.00,-899.00,0.00,-1044.00,6,232.00,1.00,279.63,0.00,0.00,-1.00,0,,,100,100,0,2,0,0,0,2,0,,,,,0.0,0.0,0.0,0.0,0.0,0.0,0
55.953341,-4.403401,23.20,0.00,0.14,27.96,23.70,23.70,7.51,28.05,11405,2022-09-24 11:16:52.147,2022-09-24 12:16:52.146,17,0,0,16.292,55.953382,-4.402960,0.10,0.00,-0.10,2.40,4.00,-107.30,0,1,0,93,100,-6939,3060,16292,3016.50,12,P-GPS,1,0,0,0,0,0,-660,1664018212146,3969,3952,3992,4038,0,0,27,,,,,,,0,0,0,-24.00,40.00,-1073.00,-900.00,0.00,-1044.00,6,232.00,1.41,279.64,1.00,0.00,-1.00,0,,,100,100,0,2,0,0,0,2,0,,,,,0.0,0.0,0.0,0.0,0.0,0.0,0
55.953341,-4.403401,23.20,0.00,0.14,27.97,23.70,23.70,7.51,28.05,11501,2022-09-24 11:16:52.243,2022-09-24 12:16:52.242,17,0,0,16.292,55.953382,-4.402960,0.10,0.00,-0.10,2.50,3.70,-107.20,0,1,0,93,100,-6939,3060,16292,3016.50,12,P-GPS,1,0,0,0,0,0,0,1664018212242,3969,3952,3992,4038,0,0,27,,,,,,,0,0,0,-25.00,37.00,-1072.00,-900.00,0.00,-1044.00,6,232.00,1.41,279.68,1.00,0.00,-1.00,0,,,100,100,0,2,0,0,0,2,0,,,,,0.0,0.0,0.0,0.0,0.0,0.0,0
55.953342,-4.403401,23.20,0.00,0.14,27.97,23.70,23.70,7.51,28.05,11600,2022-09-24 11:16:52.341,2022-09-24 12:16:52.341,17,0,0,16.292,55.953382,-4.402960,0.10,0.00,-0.10,2.60,3.50,-107.20,0,1,0,93,100,-6939,3060,16292,3016.50,12,P-GPS,1,0,0,0,0,0,0,1664018212341,3969,3952,3992,4038,0,0,27,,,,,,,0,0,0,-26.00,35.00,-1072.00,-899.00,0.00,-1044.00,6,232.00,1.41,279.70,1.00,0.00,-1.00,0,,,100,100,0,2,0,0,0,2,0,,,,,0.0,0.0,0.0,0.0,0.0,0.0,0
55.953342,-4.403402,23.20,0.00,0.14,27.98,23.70,23.70,7.51,28.05,11699,2022-09-24 11:16:52.440,2022-09-24 12:16:52.440,17,0,0,16.292,55.953382,-4.402960,0.10,0.00,-0.10,2.80,3.40,-107.20,0,1,0,93,100,-6939,3060,16292,3016.50,12,P-GPS,1,0,0,0,0,0,0,1664018212440,3969,3952,3992,4038,0,0,27,,,,,,,0,0,0,-28.00,34.00,-1072.00,-900.00,0.00,-1044.00,6,232.00,1.41,279.82,1.00,0.00,-1.00,0,,,100,100,0,2,0,0,0,2,0,,,,,0.0,0.0,0.0,0.0,0.0,0.0,0
55.953342,-4.403402,23.20,0.00,0.14,27.99,23.70,23.70,7.51,28.05,11805,2022-09-24 11:16:52.546,2022-09-24 12:16:52.546,17,0,0,16.292,55.953382,-4.402960,0.10,0.00,-0.10,3.10,3.70,-107.10,0,1,0,93,100,-6939,3060,16292,3016.50,12,P-GPS,1,0,0,0,0,0,-41,1664018212546,3969,3952,3992,4038,0,0,27,,,,,,,0,0,0,-31.00,37.00,-1071.00,-900.00,0.00,-1044.00,6,232.00,1.41,279.85,1.00,0.00,-1.00,0,,,100,100,0,2,0,0,0,2,0,,,,,0.0,0.0,0.0,0.0,0.0,0.0,0
55.953342,-4.403402,23.20,0.00,0.14,27.98,23.70,23.70,7.51,28.05,11899,2022-09-24 11:16:52.641,2022-09-24 12:16:52.640,17,0,0,16.292,55.953382,-4.402960,0.10,0.00,-0.10,3.30,3.40,-107.10,0,1,0,93,100,-6939,3060,16292,3016.50,12,P-GPS,1,0,0,0,0,0,-367,1664018212640,3969,3952,3992,4038,0,0,27,,,,,,,0,0,0,-33.00,34.00,-1071.00,-900.00,0.00,-1044.00,6,232.00,1.41,279.84,1.00,0.00,-1.00,0,,,100,100,0,2,0,0,0,2,0,,,,,0.0,0.0,0.0,0.0,0.0,0.0,0
55.953342,-4.403402,23.20,0.00,0.14,27.99,23.70,23.70,7.51,28.05,12001,2022-09-24 11:16:52.742,2022-09-24 12:16:52.742,17,0,0,16.292,55.953382,-4.402960,0.10,0.00,-0.10,3.40,2.90,-107.20,0,1,0,93,100,-6939,3060,16292,3016.50,12,P-GPS,1,0,0,0,0,0,-496,1664018212742,3969,3952,3992,4038,0,0,27,,,,,,,0,0,0,-34.00,29.00,-1072.00,-900.00,0.00,-1044.00,6,232.00,1.41,279.87,1.00,0.00,-1.00,0,,,100,100,0,2,0,0,0,2,0,,,,,0.0,0.0,0.0,0.0,0.0,0.0,0
55.953342,-4.403402,23.20,0.00,0.14,27.99,23.70,23.70,7.51,28.05,12098,2022-09-24 11:16:52.839,2022-09-24 12:16:52.839,17,0,0,16.292,55.953382,-4.402960,0.10,0.00,-0.10,3.10,2.90,-107.20,0,1,0,93,100,-6939,3060,16292,3016.50,12,P-GPS,1,0,0,0,0,0,-660,1664018212839,3969,3952,3992,4038,0,0,27,,,,,,,0,0,0,-31.00,29.00,-1072.00,-900.00,0.00,-1044.00,6,232.00,1.41,279.86,1.00,0.00,-1.00,0,,,100,100,0,2,0,0,0,2,0,,,,,0.0,0.0,0.0,0.0,0.0,0.0,0
55.953342,-4.403402,23.20,0.00,0.14,27.99,23.70,23.70,7.51,28.05,12193,2022-09-24 11:16:52.934,2022-09-24 12:16:52.934,17,0,0,16.292,55.953382,-4.402960,0.10,0.00,-0.10,3.00,3.00,-107.20,0,1,0,93,100,-6939,3060,16292,3016.50,12,P-GPS,1,0,0,0,0,0,-660,1664018212934,3969,3952,3992,4038,0,0,27,,,,,,,0,0,0,-30.00,30.00,-1072.00,-900.00,0.00,-1044.00,6,232.00,1.41,279.87,1.00,0.00,-1.00,0,,,100,100,0,2,0,0,0,2,0,,,,,0.0,0.0,0.0,0.0,0.0,0.0,0
55.953342,-4.403402,23.20,0.00,0.10,27.99,23.70,23.70,7.51,28.05,12298,2022-09-24 11:16:53.039,2022-09-24 12:16:53.039,17,0,0,16.292,55.953382,-4.402960,0.00,0.00,-0.10,3.00,3.10,-107.20,0,1,0,93,100,-6939,3060,16292,3016.50,12,P-GPS,1,0,0,0,0,0,-660,1664018213039,3969,3952,3992,4038,0,0,27,,,,,,,0,0,0,-30.00,31.00,-1072.00,-899.00,0.00,-1044.00,6,232.00,1.00,279.94,0.00,0.00,-1.00,0,,,100,100,0,2,0,0,0,2,0,,,,,0.0,0.0,0.0,0.0,0.0,0.0,0
55.953342,-4.403402,23.30,0.00,0.10,28.00,23.70,23.70,7.51,28.05,12400,2022-09-24 11:16:53.141,2022-09-24 12:16:53.141,17,0,0,16.278,55.953382,-4.402960,0.00,0.00,-0.10,3.20,3.00,-107.10,0,1,0,93,100,-6825,3058,16278,3016.50,12,P-GPS,1,0,0,0,0,0,-660,1664018213141,3969,3952,3992,4038,0,0,27,,,,,,,0,0,0,-32.00,30.00,-1071.00,-899.00,0.00,-1044.00,6,233.00,1.00,279.96,0.00,0.00,-1.00,0,,,100,100,0,2,0,0,0,2,0,,,,,0.0,0.0,0.0,0.0,0.0,0.0,0
55.953343,-4.403402,23.30,0.00,0.10,28.00,23.70,23.70,7.51,28.05,12500,2022-09-24 11:16:53.242,2022-09-24 12:16:53.241,17,0,0,16.278,55.953382,-4.402960,0.00,0.00,-0.10,3.30,2.90,-107.10,0,1,0,93,100,-6825,3058,16278,3016.50,12,P-GPS,1,0,0,0,0,0,-660,1664018213241,3969,3952,3992,4038,0,0,27,,,,,,,0,0,0,-33.00,29.00,-1071.00,-899.00,0.00,-1044.00,6,233.00,1.00,280.01,0.00,0.00,-1.00,0,,,100,100,0,2,0,0,0,2,0,,,,,0.0,0.0,0.0,0.0,0.0,0.0,0
55.953343,-4.403402,23.30,0.00,0.10,28.00,23.70,23.70,7.51,28.05,12611,2022-09-24 11:16:53.356,2022-09-24 12:16:53.352,17,0,0,16.278,55.953382,-4.402960,0.00,0.00,-0.10,3.20,3.10,-107.10,0,1,0,93,100,-6825,3058,16278,3016.50,12,P-GPS,1,0,0,0,0,0,-660,1664018213352,3969,3952,3992,4038,0,0,27,,,,,,,0,0,0,-32.00,31.00,-1071.00,-900.00,0.00,-1044.00,6,233.00,1.00,280.03,0.00,0.00,-1.00,0,,,100,100,0,2,0,0,0,2,0,,,,,0.0,0.0,0.0,0.0,0.0,0.0,0
55.953343,-4.403402,23.30,0.00,0.10,28.01,23.70,23.70,7.51,28.05,12699,2022-09-24 11:16:53.440,2022-09-24 12:16:53.440,17,0,0,16.278,55.953382,-4.402960,0.00,0.00,-0.10,2.90,3.20,-107.10,0,1,0,93,100,-6825,3058,16278,3016.50,12,P-GPS,1,0,0,0,0,0,-660,1664018213440,3969,3952,3992,4038,0,0,27,,,,,,,0,0,0,-29.00,32.00,-1071.00,-900.00,0.00,-1044.00,6,233.00,1.00,280.10,0.00,0.00,-1.00,0,,,100,100,0,2,0,0,0,2,0,,,,,0.0,0.0,0.0,0.0,0.0,0.0,0
55.953343,-4.403402,23.30,0.00,0.10,28.01,23.70,23.70,7.51,28.05,12799,2022-09-24 11:16:53.540,2022-09-24 12:16:53.540,17,0,0,16.278,55.953382,-4.402960,0.00,0.00,-0.10,2.80,3.20,-107.10,0,1,0,93,100,-6825,3058,16278,3016.50,12,P-GPS,1,0,0,0,0,0,-660,1664018213540,3969,3952,3992,4038,0,0,27,,,,,,,0,0,0,-28.00,32.00,-1071.00,-900.00,0.00,-1044.00,6,233.00,1.00,280.11,0.00,0.00,-1.00,0,,,100,100,0,2,0,0,0,2,0,,,,,0.0,0.0,0.0,0.0,0.0,0.0,0
55.953343,-4.403402,23.30,0.00,0.10,28.01,23.70,23.70,7.51,28.05,12899,2022-09-24 11:16:53.640,2022-09-24 12:16:53.640,17,0,0,16.278,55.953382,-4.402960,0.00,0.00,-0.10,2.70,3.10,-107.20,0,1,0,93,100,-6825,3058,16278,3016.50,12,P-GPS,1,0,0,0,0,0,-660,1664018213640,3969,3952,3992,4038,0,0,27,,,,,,,0,0,0,-27.00,31.00,-1072.00,-900.00,0.00,-1044.00,6,233.00,1.00,280.07,0.00,0.00,-1.00,0,,,100,100,0,2,0,0,0,2,0,,,,,0.0,0.0,0.0,0.0,0.0,0.0,0
55.953343,-4.403402,23.30,0.00,0.10,28.01,23.70,23.70,7.51,28.05,13006,2022-09-24 11:16:53.747,2022-09-24 12:16:53.747,17,0,0,16.278,55.953382,-4.402960,0.00,0.00,-0.10,2.80,3.00,-107.20,0,1,0,93,100,-6825,3058,16278,3016.50,12,P-GPS,1,0,0,0,0,0,-660,1664018213747,3969,3952,3992,4038,0,0,27,,,,,,,0,0,0,-28.00,30.00,-1072.00,-899.00,0.00,-1044.00,6,233.00,1.00,280.07,0.00,0.00,-1.00,0,,,100,100,0,2,0,0,0,2,0,,,,,0.0,0.0,0.0,0.0,0.0,0.0,0
55.953343,-4.403402,23.30,0.00,0.10,28.01,23.70,23.70,7.51,28.05,13098,2022-09-24 11:16:53.839,2022-09-24 12:16:53.839,17,0,0,16.278,55.953382,-4.402960,0.00,0.00,-0.10,2.90,2.90,-107.20,0,1,0,93,100,-6825,3058,16278,3016.50,12,P-GPS,1,0,0,0,0,0,-660,1664018213839,3969,3952,3992,4038,0,0,27,,,,,,,0,0,0,-29.00,29.00,-1072.00,-900.00,0.00,-1044.00,6,233.00,1.00,280.10,0.00,0.00,-1.00,0,,,100,100,0,2,0,0,0,2,0,,,,,0.0,0.0,0.0,0.0,0.0,0.0,0
