latitude,longitude,altitude(m),ultrasonicHeight(m),speed(mps),distance(m),max_altitude(m),max_ascent(m),max_speed(mps),max_distance(m),time(millisecond),datetime(utc),datetime(local),satellites,pressure(Pa),temperature(F),voltage(v),home_latitude,home_longitude,velocityX(mps),velocityY(mps),velocityZ(mps),pitch(deg),roll(deg),yaw(deg),powerlevel,isflying,istakingphoto,remainPowerPercent,remainLifePercent,currentCurrent,currentElectricity,currentVoltage,batteryTemperature,dischargeCount,flightmode,isMotorsOn,isTakingVideo,Rc_elevator,Rc_aileron,Rc_throttle,Rc_rudder,Rc_gyro,timestamp,Battery_Cell1,Battery_Cell2,Battery_Cell3,Battery_Cell4,Battery_Cell5,Battery_Cell6,Dronetype,AppVersion,Planename,FlyControllerSerialNumber,RemoteSerialNumber,BatterySerialNumber,CENTER_BATTERY.productDate,CENTER_BATTERY.serialNo,CENTER_BATTERY.fullCapacity,CENTER_BATTERY.productDateRaw,pitchRaw,rollRaw,yawRaw,gimbalPitchRaw,gimbalRollRaw,gimbalYawRaw,flyState,altitudeRaw,speedRaw,distanceRaw,velocityXRaw,velocityYRaw,velocityZRaw,data_reuse,App_Tip,App_Warning,downlinkSignalQuality,uplinkSignalQuality,transmissionChannel,rcModeSwitch,rcHome,rcPause,rcTransform,rcJoystickMode,appMode,FlyControllerSerialNumber_legacy,RemoteSerialNumber_legacy,BatterySerialNumber_legacy,Battery2SerialNumber,frontAvoidDist,backAvoidDist,rightAvoidDist,leftAvoidDist,upAvoidDist,downAvoidDist,isBrakingToAvoid
55.953375,-4.402959,0.30,0.40,0.41,0.13,0.30,0.30,0.41,0.13,0,2022-09-24 11:21:33.834,2022-09-24 12:21:33.833,18,0,0,16.263,55.953376,-4.402958,0.00,0.00,-0.50,0.00,2.50,-72.00,0,1,0,78,100,-4079,2549,16263,3072.50,12,TakeOff,1,0,0,0,0,0,0,1664018493833,4110,4103,4114,4104,0,0,27,Litchi_4.24.1-g,CJTMAVIC,163DFAS001K45C,0VECFAK0072T52,0P2AFAL5340E87,,0,0,0,-0.00,25.00,-720.00,0.00,0.00,-687.00,11,3.00,4.12,1.26,0.00,0.00,-5.00,0,,,100,100,0,2,0,0,0,2,0,,,,null,2.5,2.6,0.0,0.0,0.0,0.0,1
55.953375,-4.402959,0.40,0.50,0.50,0.16,0.40,0.40,0.50,0.16,103,2022-09-24 11:21:33.937,2022-09-24 12:21:33.936,18,0,0,16.263,55.953376,-4.402958,0.00,0.00,-0.50,0.30,2.50,-72.10,0,1,0,78,100,-4079,2549,16263,3072.50,12,TakeOff,1,0,0,0,0,0,0,1664018493936,4110,4103,4114,4104,0,0,27,,,,,,,0,0,0,-3.00,25.00,-721.00,0.00,0.00,-687.00,11,4.00,5.00,1.56,0.00,0.00,-5.00,0,,,100,100,0,2,0,0,0,2,0,,,,,2.5,2.6,0.0,0.0,0.0,0.0,0
55.953375,-4.402959,0.50,0.60,0.50,0.17,0.50,0.50,0.50,0.17,204,2022-09-24 11:21:34.038,2022-09-24 12:21:34.037,18,0,0,16.263,55.953376,-4.402958,0.00,0.00,-0.50,0.20,2.10,-72.20,0,1,0,78,100,-4079,2549,16263,3072.50,12,TakeOff,1,0,0,0,0,0,0,1664018494037,4110,4103,4114,4104,0,0,27,,,,,,,0,0,0,-2.00,21.00,-722.00,0.00,0.00,-687.00,11,5.00,5.00,1.72,0.00,0.00,-5.00,0,,,100,100,0,2,0,0,0,2,0,,,,,2.5,2.6,0.0,0.0,0.0,0.0,0
55.953375,-4.402959,0.60,0.60,0.50,0.18,0.60,0.60,0.50,0.18,309,2022-09-24 11:21:34.142,2022-09-24 12:21:34.142,18,0,0,16.263,55.953376,-4.402958,0.00,0.00,-0.50,0.30,2.20,-72.30,0,1,0,78,100,-4079,2549,16263,3072.50,12,TakeOff,1,0,0,0,0,0,0,1664018494142,4110,4103,4114,4104,0,0,27,,,,,,,0,0,0,-3.00,22.00,-723.00,0.00,0.00,-687.00,11,6.00,5.00,1.82,0.00,0.00,-5.00,0,,,100,100,0,2,0,0,0,2,0,,,,,2.5,2.6,0.0,0.0,0.0,0.0,0
55.953374,-4.402959,0.60,0.70,0.50,0.21,0.60,0.60,0.50,0.21,403,2022-09-24 11:21:34.236,2022-09-24 12:21:34.236,18,0,0,16.063,55.953376,-4.402958,0.00,0.00,-0.50,0.30,2.80,-72.30,0,1,0,78,100,-7527,2548,16063,3072.50,12,TakeOff,1,0,0,0,0,0,0,1664018494236,4110,4103,4114,4104,0,0,27,,,,,,,0,0,0,-3.00,28.00,-723.00,0.00,0.00,-687.00,11,6.00,5.00,2.11,0.00,0.00,-5.00,0,,,100,100,0,2,0,0,0,2,0,,,,,2.5,2.6,0.0,0.0,0.0,0.0,0
55.953374,-4.402959,0.70,0.70,0.50,0.22,0.70,0.70,0.50,0.22,510,2022-09-24 11:21:34.343,2022-09-24 12:21:34.343,18,0,0,16.063,55.953376,-4.402958,0.00,0.00,-0.50,0.20,2.90,-72.30,0,1,0,78,100,-7527,2548,16063,3072.50,12,TakeOff,1,0,0,0,0,0,0,1664018494343,4110,4103,4114,4104,0,0,27,,,,,,,0,0,0,-2.00,29.00,-723.00,0.00,0.00,-687.00,11,7.00,5.00,2.21,0.00,0.00,-5.00,0,,,100,100,0,2,0,0,0,2,0,,,,,2.5,2.6,0.0,0.0,0.0,0.0,0
55.953374,-4.402959,0.70,0.80,0.50,0.22,0.70,0.70,0.50,0.22,609,2022-09-24 11:21:34.443,2022-09-24 12:21:34.442,18,0,0,16.063,55.953376,-4.402958,0.00,0.00,-0.50,0.40,2.40,-72.30,0,1,0,78,100,-7527,2548,16063,3072.50,12,TakeOff,1,0,0,0,0,0,0,1664018494442,4110,4103,4114,4104,0,0,27,,,,,,,0,0,0,-4.00,24.00,-723.00,0.00,0.00,-687.00,11,7.00,5.00,2.23,0.00,0.00,-5.00,0,,,100,100,0,2,0,0,0,2,0,,,,,2.5,2.6,0.0,0.0,0.0,0.0,0
55.953374,-4.402959,0.80,0.80,0.50,0.23,0.80,0.80,0.50,0.23,712,2022-09-24 11:21:34.547,2022-09-24 12:21:34.545,18,0,0,16.063,55.953376,-4.402958,0.00,0.00,-0.50,0.80,1.70,-72.20,0,1,0,78,100,-7527,2548,16063,3072.50,12,TakeOff,1,0,0,0,0,0,0,1664018494545,4110,4103,4114,4104,0,0,27,,,,,,,0,0,0,-8.00,17.00,-722.00,0.00,0.00,-687.00,11,8.00,5.00,2.30,0.00,0.00,-5.00,0,,,100,100,0,2,0,0,0,2,0,,,,,2.5,2.6,0.0,0.0,0.0,0.0,0
55.953374,-4.402959,0.80,0.90,0.40,0.22,0.80,0.80,0.50,0.23,802,2022-09-24 11:21:34.635,2022-09-24 12:21:34.635,18,0,0,16.063,55.953376,-4.402958,0.00,0.00,-0.40,1.00,2.00,-72.40,0,1,0,78,100,-7527,2548,16063,3072.50,12,TakeOff,1,0,0,0,0,0,0,1664018494635,4110,4103,4114,4104,0,0,27,,,,,,,0,0,0,-10.00,20.00,-724.00,0.00,0.00,-688.00,11,8.00,4.00,2.22,0.00,0.00,-4.00,0,,,100,100,0,2,0,0,0,2,0,,,,,2.5,2.6,0.0,0.0,0.0,0.0,0
55.953374,-4.402959,0.80,0.90,0.40,0.22,0.80,0.80,0.50,0.23,888,2022-09-24 11:21:34.721,2022-09-24 12:21:34.721,18,0,0,16.063,55.953376,-4.402958,0.00,0.00,-0.40,1.00,2.00,-72.40,0,1,0,78,100,-7527,2548,16063,3072.50,12,TakeOff,1,0,0,0,0,0,0,1664018494721,4110,4103,4114,4104,0,0,27,,,,,,,0,0,0,-10.00,20.00,-724.00,0.00,0.00,-688.00,11,8.00,4.00,2.22,0.00,0.00,-4.00,0,,,100,100,0,2,0,0,0,2,0,,,,,2.5,2.6,0.0,0.0,0.0,0.0,0
55.953374,-4.402959,0.90,1.00,0.40,0.25,0.90,0.90,0.50,0.25,1004,2022-09-24 11:21:34.837,2022-09-24 12:21:34.837,18,0,0,16.063,55.953376,-4.402958,0.00,0.00,-0.40,1.10,2.80,-72.40,0,1,0,78,100,-7527,2548,16063,3072.50,12,TakeOff,1,0,0,0,0,0,0,1664018494837,4110,4103,4114,4104,0,0,27,,,,,,,0,0,0,-11.00,28.00,-724.00,0.00,0.00,-688.00,11,9.00,4.00,2.52,0.00,0.00,-4.00,0,,,100,100,0,2,0,0,0,2,0,,,,,0.0,2.6,0.0,0.0,0.0,0.0,0
55.953374,-4.402959,1.00,1.00,0.50,0.26,1.00,1.00,0.50,0.26,1107,2022-09-24 11:21:34.940,2022-09-24 12:21:34.940,18,0,0,16.063,55.953376,-4.402958,0.00,0.00,-0.50,1.10,2.80,-72.20,0,1,0,78,100,-7527,2548,16063,3072.50,12,TakeOff,1,0,0,0,0,0,0,1664018494940,4025,4012,4020,4010,0,0,27,,,,,,,0,0,0,-11.00,28.00,-722.00,0.00,0.00,-688.00,11,10.00,5.00,2.62,0.00,0.00,-5.00,0,,,100,100,0,2,0,0,0,2,0,,,,,0.0,2.6,0.0,0.0,0.0,0.0,0
55.953374,-4.402959,1.00,1.10,0.40,0.25,1.00,1.00,0.50,0.26,1206,2022-09-24 11:21:35.039,2022-09-24 12:21:35.039,18,0,0,16.063,55.953376,-4.402958,0.00,0.00,-0.40,1.30,2.80,-72.20,0,1,0,78,100,-7527,2548,16063,3072.50,12,TakeOff,1,0,0,0,0,0,0,1664018495039,4025,4012,4020,4010,0,0,27,,,,,,,0,0,0,-13.00,28.00,-722.00,0.00,0.00,-688.00,11,10.00,4.00,2.51,0.00,0.00,-4.00,0,,,100,100,0,2,0,0,0,2,0,,,,,0.0,2.6,0.0,0.0,0.0,0.0,0
55.953374,-4.402959,1.10,1.10,0.40,0.26,1.10,1.10,0.50,0.26,1304,2022-09-24 11:21:35.138,2022-09-24 12:21:35.137,18,0,0,16.063,55.953376,-4.402958,0.00,0.00,-0.40,1.30,2.90,-72.20,0,1,0,78,100,-7527,2548,16063,3072.50,12,TakeOff,1,0,0,0,0,0,0,1664018495137,4025,4012,4020,4010,0,0,27,,,,,,,0,0,0,-13.00,29.00,-722.00,0.00,0.00,-688.00,6,11.00,4.00,2.63,0.00,0.00,-4.00,0,,,100,100,0,2,0,0,0,2,0,,,,,0.0,2.6,0.0,0.0,0.0,0.0,0
55.953374,-4.402960,1.10,1.10,0.20,0.28,1.10,1.10,0.50,0.28,1404,2022-09-24 11:21:35.237,2022-09-24 12:21:35.237,18,0,0,16.067,55.953376,-4.402958,0.00,0.00,-0.20,1.00,3.50,-72.30,0,1,0,78,100,-7199,2546,16067,3072.50,12,P-GPS,1,0,0,0,0,0,0,1664018495237,4025,4012,4020,4010,0,0,27,,,,,,,0,0,0,-10.00,35.00,-723.00,0.00,0.00,-688.00,6,11.00,2.00,2.75,0.00,0.00,-2.00,0,,,100,100,0,2,0,0,0,2,0,,,,,0.0,2.6,0.0,0.0,0.0,0.0,0
55.953374,-4.402960,1.10,1.20,0.10,0.29,1.10,1.10,0.50,0.29,1509,2022-09-24 11:21:35.342,2022-09-24 12:21:35.342,18,0,0,16.067,55.953376,-4.402958,0.00,0.00,-0.10,1.00,4.00,-72.20,0,1,0,78,100,-7199,2546,16067,3072.50,12,P-GPS,1,0,0,0,0,0,0,1664018495342,4025,4012,4020,4010,0,0,27,,,,,,,0,0,0,-10.00,40.00,-722.00,0.00,0.00,-688.00,6,11.00,1.00,2.90,0.00,0.00,-1.00,0,,,100,100,0,2,0,0,0,2,0,,,,,0.0,2.6,0.0,0.0,0.0,0.0,0
55.953374,-4.402960,1.10,1.20,0.00,0.30,1.10,1.10,0.50,0.30,1602,2022-09-24 11:21:35.436,2022-09-24 12:21:35.435,18,0,0,16.067,55.953376,-4.402958,0.00,0.00,0.00,0.90,4.40,-72.20,0,1,0,78,100,-7199,2546,16067,3072.50,12,P-GPS,1,0,0,0,0,0,0,1664018495435,4025,4012,4020,4010,0,0,27,,,,,,,0,0,0,-9.00,44.00,-722.00,0.00,0.00,-688.00,6,11.00,0.00,2.99,0.00,0.00,0.00,0,,,100,100,0,2,0,0,0,2,0,,,,,0.0,2.6,0.0,0.0,0.0,0.0,0
55.953373,-4.402960,1.10,1.20,0.00,0.31,1.10,1.10,0.50,0.31,1701,2022-09-24 11:21:35.534,2022-09-24 12:21:35.534,18,0,0,16.067,55.953376,-4.402958,0.00,0.00,0.00,0.80,4.50,-72.10,0,1,0,78,100,-7199,2546,16067,3072.50,12,P-GPS,1,0,0,0,0,0,0,1664018495534,4025,4012,4020,4010,0,0,27,,,,,,,0,0,0,-8.00,45.00,-721.00,0.00,0.00,-688.00,6,11.00,0.00,3.13,0.00,0.00,0.00,0,,,100,100,0,2,0,0,0,2,0,,,,,0.0,2.6,0.0,0.0,0.0,0.0,0
55.953373,-4.402960,1.10,1.20,0.00,0.31,1.10,1.10,0.50,0.31,1804,2022-09-24 11:21:35.638,2022-09-24 12:21:35.637,18,0,0,16.067,55.953376,-4.402958,0.00,0.00,0.00,0.20,4.10,-72.10,0,1,0,78,100,-7199,2546,16067,3072.50,12,P-GPS,1,0,0,0,0,0,0,1664018495637,4025,4012,4020,4010,0,0,27,,,,,,,0,0,0,-2.00,41.00,-721.00,0.00,0.00,-688.00,6,11.00,0.00,3.11,0.00,0.00,0.00,0,,,100,100,0,2,0,0,0,2,0,,,,,0.0,2.6,0.0,0.0,0.0,0.0,0
55.953373,-4.402960,1.10,1.20,0.00,0.31,1.10,1.10,0.50,0.31,1888,2022-09-24 11:21:35.722,2022-09-24 12:21:35.721,18,0,0,16.067,55.953376,-4.402958,0.00,0.00,0.00,0.20,4.10,-72.10,0,1,0,78,100,-7199,2546,16067,3072.50,12,P-GPS,1,0,0,0,0,0,0,1664018495721,4025,4012,4020,4010,0,0,27,,,,,,,0,0,0,-2.00,41.00,-721.00,0.00,0.00,-688.00,6,11.00,0.00,3.11,0.00,0.00,0.00,0,,,100,100,0,2,0,0,0,2,0,,,,,0.0,2.6,0.0,0.0,0.0,0.0,0
55.953373,-4.402960,1.10,1.20,0.00,0.32,1.10,1.10,0.50,0.32,2006,2022-09-24 11:21:35.840,2022-09-24 12:21:35.839,18,0,0,16.067,55.953376,-4.402958,0.00,0.00,0.00,-0.40,3.70,-72.30,0,1,0,78,100,-7199,2546,16067,3072.50,12,P-GPS,1,0,0,0,0,0,0,1664018495839,4025,4012,4020,4010,0,0,27,,,,,,,0,0,0,4.00,37.00,-723.00,0.00,0.00,-688.00,6,11.00,0.00,3.21,0.00,0.00,0.00,0,,,100,100,0,2,0,0,0,2,0,,,,,0.0,2.6,0.0,0.0,0.0,0.0,0
55.953373,-4.402959,1.10,1.20,0.00,0.33,1.10,1.10,0.50,0.33,2101,2022-09-24 11:21:35.935,2022-09-24 12:21:35.934,18,0,0,16.067,55.953376,-4.402958,0.00,0.00,0.00,-0.90,3.40,-72.40,0,1,0,78,100,-7199,2546,16067,3072.50,12,P-GPS,1,0,0,0,0,0,0,1664018495934,4025,4012,4020,4010,0,0,27,,,,,,,0,0,0,9.00,34.00,-724.00,0.00,0.00,-688.00,6,11.00,0.00,3.26,0.00,0.00,0.00,0,,,100,100,0,2,0,0,0,2,0,,,,,0.0,2.6,0.0,0.0,0.0,0.0,0
55.953373,-4.402959,1.10,1.20,0.00,0.32,1.10,1.10,0.50,0.33,2202,2022-09-24 11:21:36.036,2022-09-24 12:21:36.035,18,0,0,16.067,55.953376,-4.402958,0.00,0.00,0.00,-0.50,3.20,-72.30,0,1,0,78,100,-7199,2546,16067,3072.50,12,P-GPS,1,0,0,0,0,0,0,1664018496035,4025,4012,4020,4010,0,0,27,,,,,,,0,0,0,5.00,32.00,-723.00,0.00,0.00,-688.00,6,11.00,0.00,3.24,0.00,0.00,0.00,0,,,100,100,0,2,0,0,0,2,0,,,,,0.0,2.6,0.0,0.0,0.0,0.0,0
55.953373,-4.402959,1.10,1.20,0.00,0.33,1.10,1.10,0.50,0.33,2304,2022-09-24 11:21:36.137,2022-09-24 12:21:36.137,18,0,0,16.067,55.953376,-4.402958,0.00,0.00,0.00,0.20,2.90,-72.30,0,1,0,78,100,-7199,2546,16067,3072.50,12,P-GPS,1,0,0,0,0,0,0,1664018496137,4025,4012,4020,4010,0,0,27,,,,,,,0,0,0,-2.00,29.00,-723.00,0.00,0.00,-688.00,6,11.00,0.00,3.26,0.00,0.00,0.00,0,,,100,100,0,2,0,0,0,2,0,,,,,0.0,2.6,0.0,0.0,0.0,0.0,0
55.953373,-4.402959,1.10,1.20,0.00,0.33,1.10,1.10,0.50,0.33,2402,2022-09-24 11:21:36.235,2022-09-24 12:21:36.235,18,0,0,16.056,55.953376,-4.402958,0.00,0.00,0.00,0.30,3.10,-72.30,0,1,0,78,100,-6872,2544,16056,3073.50,12,P-GPS,1,0,0,0,0,0,0,1664018496235,4025,4012,4020,4010,0,0,27,,,,,,,0,0,0,-3.00,31.00,-723.00,0.00,0.00,-688.00,6,11.00,0.00,3.34,0.00,0.00,0.00,0,,,100,100,0,2,0,0,0,2,0,,,,,0.0,2.6,0.0,0.0,0.0,0.0,0
55.953373,-4.402959,1.10,1.20,0.00,0.34,1.10,1.10,0.50,0.34,2510,2022-09-24 11:21:36.343,2022-09-24 12:21:36.343,18,0,0,16.056,55.953376,-4.402958,0.00,0.00,0.00,0.50,3.00,-72.40,0,1,0,78,100,-6872,2544,16056,3073.50,12,P-GPS,1,0,0,0,0,0,0,1664018496343,4025,4012,4020,4010,0,0,27,,,,,,,0,0,0,-5.00,30.00,-724.00,0.00,0.00,-688.00,6,11.00,0.00,3.36,0.00,0.00,0.00,0,,,100,100,0,2,0,0,0,2,0,,,,,0.0,2.6,0.0,0.0,0.0,0.0,0
55.953373,-4.402959,1.10,1.20,0.00,0.33,1.10,1.10,0.50,0.34,2610,2022-09-24 11:21:36.443,2022-09-24 12:21:36.443,18,0,0,16.056,55.953376,-4.402958,0.00,0.00,0.00,0.50,2.70,-72.40,0,1,0,78,100,-6872,2544,16056,3073.50,12,P-GPS,1,0,0,0,0,0,0,1664018496443,4025,4012,4020,4010,0,0,27,,,,,,,0,0,0,-5.00,27.00,-724.00,0.00,0.00,-688.00,6,11.00,0.00,3.35,0.00,0.00,0.00,0,,,100,100,0,2,0,0,0,2,0,,,,,0.0,2.6,0.0,0.0,0.0,0.0,0
55.953373,-4.402959,1.10,1.20,0.00,0.33,1.10,1.10,0.50,0.34,2711,2022-09-24 11:21:36.544,2022-09-24 12:21:36.544,18,0,0,16.056,55.953376,-4.402958,0.00,0.00,0.00,0.60,2.30,-72.20,0,1,0,78,100,-6872,2544,16056,3073.50,12,P-GPS,1,0,0,0,0,0,0,1664018496544,4025,4012,4020,4010,0,0,27,,,,,,,0,0,0,-6.00,23.00,-722.00,0.00,0.00,-688.00,6,11.00,0.00,3.35,0.00,0.00,0.00,0,,,100,100,0,2,0,0,0,2,0,,,,,0.0,2.6,0.0,0.0,0.0,0.0,0
55.953373,-4.402959,1.10,1.20,0.00,0.32,1.10,1.10,0.50,0.34,2800,2022-09-24 11:21:36.633,2022-09-24 12:21:36.633,18,0,0,16.056,55.953376,-4.402958,0.00,0.00,0.00,0.70,1.50,-72.10,0,1,0,78,100,-6872,2544,16056,3073.50,12,P-GPS,1,0,0,0,0,0,0,1664018496633,4025,4012,4020,4010,0,0,27,,,,,,,0,0,0,-7.00,15.00,-721.00,0.00,0.00,-688.00,6,11.00,0.00,3.22,0.00,0.00,0.00,0,,,100,100,0,2,0,0,0,2,0,,,,,0.0,2.6,0.0,0.0,0.0,0.0,0
55.953373,-4.402959,1.10,1.10,0.00,0.32,1.10,1.10,0.50,0.34,2908,2022-09-24 11:21:36.742,2022-09-24 12:21:36.741,18,0,0,16.056,55.953376,-4.402958,0.00,0.00,0.00,1.10,1.50,-72.10,0,1,0,78,100,-6872,2544,16056,3073.50,12,P-GPS,1,0,0,0,0,0,0,1664018496741,4025,4012,4020,4010,0,0,27,,,,,,,0,0,0,-11.00,15.00,-721.00,0.00,0.00,-688.00,6,11.00,0.00,3.20,0.00,0.00,0.00,0,,,100,100,0,2,0,0,0,2,0,,,,,0.0,2.6,0.0,0.0,0.0,0.0,0
55.953373,-4.402959,1.10,1.10,0.00,0.32,1.10,1.10,0.50,0.34,3009,2022-09-24 11:21:36.843,2022-09-24 12:21:36.842,18,0,0,16.056,55.953376,-4.402958,0.00,0.00,0.00,1.30,1.80,-72.20,0,1,0,78,100,-6872,2544,16056,3073.50,12,P-GPS,1,0,0,0,0,0,0,1664018496842,4025,4012,4020,4010,0,0,27,,,,,,,0,0,0,-13.00,18.00,-722.00,0.00,0.00,-688.00,6,11.00,0.00,3.18,0.00,0.00,0.00,0,,,100,100,0,2,0,0,0,2,0,,,,,0.0,2.6,0.0,0.0,0.0,0.0,0
55.953373,-4.402959,1.10,1.10,0.00,0.32,1.10,1.10,0.50,0.34,3109,2022-09-24 11:21:36.942,2022-09-24 12:21:36.942,18,0,0,16.056,55.953376,-4.402958,0.00,0.00,0.00,1.40,2.10,-72.40,0,1,0,78,100,-6872,2544,16056,3073.50,12,P-GPS,1,0,0,0,0,0,0,1664018496942,4025,4012,4020,4010,0,0,27,,,,,,,0,0,0,-14.00,21.00,-724.00,0.00,0.00,-688.00,6,11.00,0.00,3.19,0.00,0.00,0.00,0,,,100,100,0,2,0,0,0,2,0,,,,,0.0,2.6,0.0,0.0,0.0,0.0,0
55.953373,-4.402959,1.10,1.10,0.00,0.31,1.10,1.10,0.50,0.34,3200,2022-09-24 11:21:37.033,2022-09-24 12:21:37.033,18,0,0,16.056,55.953376,-4.402958,0.00,0.00,0.00,1.60,2.10,-72.40,0,1,0,78,100,-6872,2544,16056,3073.50,12,P-GPS,1,0,0,0,0,0,0,1664018497033,4025,4012,4020,4010,0,0,27,,,,,,,0,0,0,-16.00,21.00,-724.00,0.00,0.00,-688.00,6,11.00,0.00,3.10,0.00,0.00,0.00,0,,,100,100,0,2,0,0,0,2,0,,,,,0.0,2.6,0.0,0.0,0.0,0.0,0
55.953373,-4.402959,1.10,1.10,0.00,0.31,1.10,1.10,0.50,0.34,3310,2022-09-24 11:21:37.144,2022-09-24 12:21:37.143,18,0,0,16.056,55.953376,-4.402958,0.00,0.00,0.00,1.10,2.00,-72.40,0,1,0,78,100,-6872,2544,16056,3073.50,12,P-GPS,1,0,0,0,0,0,0,1664018497143,4025,4012,4020,4010,0,0,27,,,,,,,0,0,0,-11.00,20.00,-724.00,0.00,0.00,-688.00,6,11.00,0.00,3.11,0.00,0.00,0.00,0,,,100,100,0,2,0,0,0,2,0,,,,,0.0,2.6,0.0,0.0,0.0,0.0,0
55.953373,-4.402959,1.10,1.10,0.00,0.32,1.10,1.10,0.50,0.34,3413,2022-09-24 11:21:37.246,2022-09-24 12:21:37.246,18,0,0,16.029,55.953376,-4.402958,0.00,0.00,0.00,0.60,2.00,-72.40,0,1,0,77,100,-7263,2542,16029,3073.50,12,P-GPS,1,0,0,0,0,0,0,1664018497246,4025,4012,4020,4010,0,0,27,,,,,,,0,0,0,-6.00,20.00,-724.00,0.00,0.00,-688.00,6,11.00,0.00,3.15,0.00,0.00,0.00,0,,,100,100,0,2,0,0,0,2,0,,,,,0.0,2.6,0.0,0.0,0.0,0.0,0
55.953373,-4.402959,1.10,1.10,0.00,0.32,1.10,1.10,0.50,0.34,3506,2022-09-24 11:21:37.340,2022-09-24 12:21:37.339,18,0,0,16.029,55.953376,-4.402958,0.00,0.00,0.00,0.70,2.10,-72.20,0,1,0,77,100,-7263,2542,16029,3073.50,12,P-GPS,1,0,0,0,0,0,0,1664018497339,4025,4012,4020,4010,0,0,27,,,,,,,0,0,0,-7.00,21.00,-722.00,0.00,0.00,-688.00,6,11.00,0.00,3.17,0.00,0.00,0.00,0,,,100,100,0,2,0,0,0,2,0,,,,,0.0,2.6,0.0,0.0,0.0,0.0,0
55.953373,-4.402959,1.10,1.10,0.00,0.32,1.10,1.10,0.50,0.34,3602,2022-09-24 11:21:37.436,2022-09-24 12:21:37.436,18,0,0,16.029,55.953376,-4.402958,0.00,0.00,0.00,1.00,2.00,-72.20,0,1,0,77,100,-7263,2542,16029,3073.50,12,P-GPS,1,0,0,0,0,0,0,1664018497435,4025,4012,4020,4010,0,0,27,,,,,,,0,0,0,-10.00,20.00,-722.00,0.00,0.00,-688.00,6,11.00,0.00,3.15,0.00,0.00,0.00,0,,,100,100,0,2,0,0,0,2,0,,,,,0.0,2.6,0.0,0.0,0.0,0.0,0
55.953373,-4.402959,1.10,1.10,0.00,0.32,1.10,1.10,0.50,0.34,3712,2022-09-24 11:21:37.545,2022-09-24 12:21:37.545,18,0,0,16.029,55.953376,-4.402958,0.00,0.00,0.00,1.40,2.10,-72.20,0,1,0,77,100,-7263,2542,16029,3073.50,12,P-GPS,1,0,0,0,0,0,0,1664018497545,4025,4012,4020,4010,0,0,27,,,,,,,0,0,0,-14.00,21.00,-722.00,0.00,0.00,-688.00,6,11.00,0.00,3.18,0.00,0.00,0.00,0,,,100,100,0,2,0,0,0,2,0,,,,,0.0,2.6,0.0,0.0,0.0,0.0,0
55.953373,-4.402959,1.10,1.10,0.00,0.32,1.10,1.10,0.50,0.34,3804,2022-09-24 11:21:37.638,2022-09-24 12:21:37.637,18,0,0,16.029,55.953376,-4.402958,0.00,0.00,0.00,1.70,2.30,-72.20,0,1,0,77,100,-7263,2542,16029,3073.50,12,P-GPS,1,0,0,0,0,0,0,1664018497637,4025,4012,4020,4010,0,0,27,,,,,,,0,0,0,-17.00,23.00,-722.00,0.00,0.00,-688.00,6,11.00,0.00,3.20,0.00,0.00,0.00,0,,,100,100,0,2,0,0,0,2,0,,,,,0.0,2.6,0.0,0.0,0.0,0.0,0
55.953373,-4.402959,1.10,1.10,0.00,0.32,1.10,1.10,0.50,0.34,3913,2022-09-24 11:21:37.746,2022-09-24 12:21:37.746,18,0,0,16.029,55.953376,-4.402958,0.00,0.00,0.00,1.70,2.60,-72.10,0,1,0,77,100,-7263,2542,16029,3073.50,12,P-GPS,1,0,0,0,0,0,0,1664018497746,4025,4012,4020,4010,0,0,27,,,,,,,0,0,0,-17.00,26.00,-721.00,0.00,0.00,-688.00,6,11.00,0.00,3.24,0.00,0.00,0.00,0,,,100,100,0,2,0,0,0,2,0,,,,,0.0,2.6,0.0,0.0,0.0,0.0,0
55.953373,-4.402959,1.10,1.10,0.00,0.32,1.10,1.10,0.50,0.34,4003,2022-09-24 11:21:37.836,2022-09-24 12:21:37.836,18,0,0,16.029,55.953376,-4.402958,0.00,0.00,0.00,1.00,2.70,-72.20,0,1,0,77,100,-7263,2542,16029,3073.50,12,P-GPS,1,0,0,0,0,0,0,1664018497836,4025,4012,4020,4010,0,0,27,,,,,,,0,0,0,-10.00,27.00,-722.00,0.00,0.00,-688.00,6,11.00,0.00,3.23,0.00,0.00,0.00,0,,,100,100,0,2,0,0,0,2,0,,,,,0.0,2.6,0.0,0.0,0.0,0.0,0
55.953373,-4.402959,1.10,1.10,0.00,0.33,1.10,1.10,0.50,0.34,4111,2022-09-24 11:21:37.944,2022-09-24 12:21:37.944,18,0,0,16.029,55.953376,-4.402958,0.00,0.00,0.00,0.50,2.20,-72.20,0,1,0,77,100,-7263,2542,16029,3073.50,12,P-GPS,1,0,0,0,0,0,0,1664018497944,4025,4012,4020,4010,0,0,27,,,,,,,0,0,0,-5.00,22.00,-722.00,0.00,0.00,-688.00,6,11.00,0.00,3.26,0.00,0.00,0.00,0,,,100,100,0,2,0,0,0,2,0,,,,,0.0,2.6,0.0,0.0,0.0,0.0,0
55.953373,-4.402959,1.10,1.10,0.00,0.34,1.10,1.10,0.50,0.34,4211,2022-09-24 11:21:38.044,2022-09-24 12:21:38.044,18,0,0,16.029,55.953376,-4.402958,0.00,0.00,0.00,0.10,2.40,-72.20,0,1,0,77,100,-7263,2542,16029,3073.50,12,P-GPS,1,0,0,0,0,0,0,1664018498044,4025,4012,4020,4010,0,0,27,,,,,,,0,0,0,-1.00,24.00,-722.00,0.00,0.00,-688.00,6,11.00,0.00,3.37,0.00,0.00,0.00,0,,,100,100,0,2,0,0,0,2,0,,,,,0.0,2.6,0.0,0.0,0.0,0.0,0
55.953373,-4.402959,1.10,1.10,0.00,0.34,1.10,1.10,0.50,0.34,4311,2022-09-24 11:21:38.144,2022-09-24 12:21:38.144,18,0,0,16.029,55.953376,-4.402958,0.00,0.00,0.00,-0.20,2.10,-72.00,0,1,0,77,100,-7263,2542,16029,3073.50,12,P-GPS,1,0,0,0,0,0,0,1664018498144,4025,4012,4020,4010,0,0,27,,,,,,,0,0,0,2.00,21.00,-720.00,0.00,0.00,-688.00,6,11.00,0.00,3.41,0.00,0.00,0.00,0,,,100,100,0,2,0,0,0,2,0,,,,,0.0,2.6,0.0,0.0,0.0,0.0,0
55.953373,-4.402959,1.10,1.10,0.00,0.35,1.10,1.10,0.50,0.35,4403,2022-09-24 11:21:38.236,2022-09-24 12:21:38.236,18,0,0,16.021,55.953376,-4.402958,0.00,0.00,0.00,-0.70,2.30,-72.00,0,1,0,77,100,-7120,2540,16021,3073.50,12,P-GPS,1,0,0,0,0,0,0,1664018498236,4025,4012,4020,4010,0,0,27,,,,,,,0,0,0,7.00,23.00,-720.00,0.00,0.00,-688.00,6,11.00,0.00,3.49,0.00,0.00,0.00,0,,,100,100,0,2,0,0,0,2,0,,,,,0.0,2.6,0.0,0.0,0.0,0.0,0
55.953373,-4.402958,1.10,1.10,0.00,0.36,1.10,1.10,0.50,0.36,4510,2022-09-24 11:21:38.343,2022-09-24 12:21:38.343,18,0,0,16.021,55.953376,-4.402958,0.00,0.00,0.00,-0.60,2.80,-72.10,0,1,0,77,100,-7120,2540,16021,3073.50,12,P-GPS,1,0,0,0,0,0,0,1664018498343,4025,4012,4020,4010,0,0,27,,,,,,,0,0,0,6.00,28.00,-721.00,0.00,0.00,-688.00,6,11.00,0.00,3.56,0.00,0.00,0.00,0,,,100,100,0,2,0,0,0,2,0,,,,,0.0,2.6,0.0,0.0,0.0,0.0,0
55.953373,-4.402958,1.10,1.10,0.00,0.36,1.10,1.10,0.50,0.36,4611,2022-09-24 11:21:38.444,2022-09-24 12:21:38.444,18,0,0,16.021,55.953376,-4.402958,0.00,0.00,0.00,-0.50,2.80,-72.20,0,1,0,77,100,-7120,2540,16021,3073.50,12,P-GPS,1,0,0,0,0,0,0,1664018498444,4025,4012,4020,4010,0,0,27,,,,,,,0,0,0,5.00,28.00,-722.00,0.00,0.00,-688.00,6,11.00,0.00,3.62,0.00,0.00,0.00,0,,,100,100,0,2,0,0,0,2,0,,,,,0.0,2.6,0.0,0.0,0.0,0.0,0
55.953373,-4.402958,1.10,1.10,0.00,0.37,1.10,1.10,0.50,0.37,4710,2022-09-24 11:21:38.543,2022-09-24 12:21:38.543,18,0,0,16.021,55.953376,-4.402958,0.00,0.00,0.00,0.00,2.90,-72.20,0,1,0,77,100,-7120,2540,16021,3073.50,12,P-GPS,1,0,0,0,0,0,0,1664018498543,4025,4012,4020,4010,0,0,27,,,,,,,0,0,0,-0.00,29.00,-722.00,0.00,0.00,-688.00,6,11.00,0.00,3.67,0.00,0.00,0.00,0,,,100,100,0,2,0,0,0,2,0,,,,,0.0,2.6,0.0,0.0,0.0,0.0,0
55.953373,-4.402958,1.10,1.10,0.00,0.37,1.10,1.10,0.50,0.37,4800,2022-09-24 11:21:38.633,2022-09-24 12:21:38.633,18,0,0,16.021,55.953376,-4.402958,0.00,0.00,0.00,0.60,2.60,-72.20,0,1,0,77,100,-7120,2540,16021,3073.50,12,P-GPS,1,0,0,0,0,0,0,1664018498633,4025,4012,4020,4010,0,0,27,,,,,,,0,0,0,-6.00,26.00,-722.00,0.00,0.00,-688.00,6,11.00,0.00,3.70,0.00,0.00,0.00,0,,,100,100,0,2,0,0,0,2,0,,,,,0.0,2.6,0.0,0.0,0.0,0.0,0
55.953373,-4.402958,1.10,1.10,0.00,0.37,1.10,1.10,0.50,0.37,4903,2022-09-24 11:21:38.736,2022-09-24 12:21:38.736,18,0,0,16.021,55.953376,-4.402958,0.00,0.00,0.00,0.00,2.80,-72.30,0,1,0,77,100,-7120,2540,16021,3073.50,12,P-GPS,1,0,0,0,0,0,0,1664018498736,4025,4012,4020,4010,0,0,27,,,,,,,0,0,0,-0.00,28.00,-723.00,0.00,0.00,-688.00,6,11.00,0.00,3.75,0.00,0.00,0.00,0,,,100,100,0,2,0,0,0,2,0,,,,,0.0,2.6,0.0,0.0,0.0,0.0,0
55.953373,-4.402958,1.10,1.10,0.00,0.39,1.10,1.10,0.50,0.39,5001,2022-09-24 11:21:38.834,2022-09-24 12:21:38.834,18,0,0,16.021,55.953376,-4.402958,0.00,0.00,0.00,0.10,2.90,-72.10,0,1,0,77,100,-7120,2540,16021,3073.50,12,P-GPS,1,0,0,0,0,0,0,1664018498834,4025,4012,4020,4010,0,0,27,,,,,,,0,0,0,-1.00,29.00,-721.00,0.00,0.00,-688.00,6,11.00,0.00,3.94,0.00,0.00,0.00,0,,,100,100,0,2,0,0,0,2,0,,,,,0.0,2.6,0.0,0.0,0.0,0.0,0
55.953373,-4.402958,1.10,1.10,0.00,0.40,1.10,1.10,0.50,0.40,5101,2022-09-24 11:21:38.934,2022-09-24 12:21:38.934,18,0,0,16.021,55.953376,-4.402958,0.00,0.00,0.00,0.40,2.70,-72.00,0,1,0,77,100,-7120,2540,16021,3073.50,12,P-GPS,1,0,0,0,0,0,0,1664018498934,4025,4012,4020,4010,0,0,27,,,,,,,0,0,0,-4.00,27.00,-720.00,0.00,0.00,-688.00,6,11.00,0.00,3.98,0.00,0.00,0.00,0,,,100,100,0,2,0,0,0,2,0,,,,,0.0,2.6,0.0,0.0,0.0,0.0,0
55.953372,-4.402958,1.10,1.10,0.00,0.40,1.10,1.10,0.50,0.40,5203,2022-09-24 11:21:39.036,2022-09-24 12:21:39.036,18,0,0,16.021,55.953376,-4.402958,0.00,0.00,0.00,0.50,2.60,-71.90,0,1,0,77,100,-7120,2540,16021,3073.50,12,P-GPS,1,0,0,0,35,0,0,1664018499036,4025,4012,4020,4010,0,0,27,,,,,,,0,0,0,-5.00,26.00,-719.00,0.00,0.00,-688.00,6,11.00,0.00,4.00,0.00,0.00,0.00,0,,,100,100,0,2,0,0,0,2,0,,,,,0.0,2.6,0.0,0.0,0.0,0.0,0
55.953372,-4.402958,1.10,1.10,0.00,0.40,1.10,1.10,0.50,0.40,5307,2022-09-24 11:21:39.140,2022-09-24 12:21:39.140,18,0,0,16.021,55.953376,-4.402958,0.00,0.00,0.00,0.50,2.50,-72.00,0,1,0,77,100,-7120,2540,16021,3073.50,12,P-GPS,1,0,0,0,128,0,0,1664018499140,4025,4012,4020,4010,0,0,27,,,,,,,0,0,0,-5.00,25.00,-720.00,0.00,0.00,-688.00,6,11.00,0.00,4.04,0.00,0.00,0.00,0,,,100,100,0,2,0,0,0,2,0,,,,,0.0,2.6,0.0,0.0,0.0,0.0,0
55.953372,-4.402958,1.10,1.10,0.00,0.41,1.10,1.10,0.50,0.41,5412,2022-09-24 11:21:39.246,2022-09-24 12:21:39.246,18,0,0,16.011,55.953376,-4.402958,0.00,0.00,0.00,0.10,2.30,-72.00,0,1,0,77,100,-7062,2538,16011,3073.50,12,P-GPS,1,0,0,0,223,0,0,1664018499245,4025,4012,4020,4010,0,0,27,,,,,,,0,0,0,-1.00,23.00,-720.00,0.00,0.00,-688.00,6,11.00,0.00,4.10,0.00,0.00,0.00,0,,,100,100,0,2,0,0,0,2,0,,,,,0.0,2.6,0.0,0.0,0.0,0.0,0
55.953372,-4.402958,1.10,1.10,0.10,0.42,1.10,1.10,0.50,0.42,5502,2022-09-24 11:21:39.335,2022-09-24 12:21:39.335,18,0,0,16.011,55.953376,-4.402958,0.00,0.00,-0.10,0.00,2.30,-72.00,0,1,0,77,100,-7062,2538,16011,3073.50,12,P-GPS,1,0,0,0,254,0,0,1664018499335,4025,4012,4020,4010,0,0,27,,,,,,,0,0,0,-0.00,23.00,-720.00,0.00,0.00,-688.00,6,11.00,1.00,4.17,0.00,0.00,-1.00,0,,,100,100,0,2,0,0,0,2,0,,,,,0.0,2.6,0.0,0.0,0.0,0.0,0
55.953372,-4.402958,1.10,1.10,0.20,0.41,1.10,1.10,0.50,0.42,5598,2022-09-24 11:21:39.431,2022-09-24 12:21:39.431,18,0,0,16.011,55.953376,-4.402958,0.00,0.00,-0.20,0.10,2.60,-72.00,0,1,0,77,100,-7062,2538,16011,3073.50,12,P-GPS,1,0,0,0,285,0,0,1664018499431,4025,4012,4020,4010,0,0,27,,,,,,,0,0,0,-1.00,26.00,-720.00,0.00,0.00,-688.00,6,11.00,2.00,4.15,0.00,0.00,-2.00,0,,,100,100,0,2,0,0,0,2,0,,,,,0.0,2.6,0.0,0.0,0.0,0.0,0
55.953372,-4.402958,1.10,1.20,0.40,0.42,1.10,1.10,0.50,0.42,5706,2022-09-24 11:21:39.539,2022-09-24 12:21:39.539,18,0,0,16.011,55.953376,-4.402958,0.00,0.00,-0.40,0.20,3.00,-72.00,0,1,0,77,100,-7062,2538,16011,3073.50,12,P-GPS,1,0,0,0,309,0,0,1664018499539,4025,4012,4020,4010,0,0,27,,,,,,,0,0,0,-2.00,30.00,-720.00,0.00,0.00,-688.00,6,11.00,4.00,4.23,0.00,0.00,-4.00,0,,,100,100,0,2,0,0,0,2,0,,,,,0.0,2.6,0.0,0.0,0.0,0.0,0
55.953372,-4.402958,1.20,1.20,0.50,0.42,1.20,1.20,0.50,0.42,5815,2022-09-24 11:21:39.649,2022-09-24 12:21:39.648,18,0,0,16.011,55.953376,-4.402958,0.00,0.00,-0.50,0.10,3.50,-72.00,0,1,0,77,100,-7062,2538,16011,3073.50,12,P-GPS,1,0,0,0,318,0,0,1664018499648,4025,4012,4020,4010,0,0,27,,,,,,,0,0,0,-1.00,35.00,-720.00,0.00,0.00,-688.00,6,12.00,5.00,4.20,0.00,0.00,-5.00,0,,,100,100,0,2,0,0,0,2,0,,,,,0.0,2.6,0.0,0.0,0.0,0.0,0
55.953372,-4.402958,1.20,1.30,0.70,0.43,1.20,1.20,0.70,0.43,5909,2022-09-24 11:21:39.743,2022-09-24 12:21:39.742,18,0,0,16.011,55.953376,-4.402958,0.00,0.00,-0.70,-0.60,3.80,-72.20,0,1,0,77,100,-7062,2538,16011,3073.50,12,P-GPS,1,0,0,0,326,0,0,1664018499742,4025,4012,4020,4010,0,0,27,,,,,,,0,0,0,6.00,38.00,-722.00,0.00,0.00,-688.00,6,12.00,7.00,4.26,0.00,0.00,-7.00,0,,,100,100,0,2,0,0,0,2,0,,,,,0.0,2.6,0.0,0.0,0.0,0.0,0
55.953372,-4.402958,1.30,1.30,0.70,0.43,1.30,1.30,0.70,0.43,6005,2022-09-24 11:21:39.839,2022-09-24 12:21:39.838,18,0,0,16.011,55.953376,-4.402958,0.00,0.00,-0.70,-1.10,3.60,-72.70,0,1,0,77,100,-7062,2538,16011,3073.50,12,P-GPS,1,0,0,0,344,0,0,1664018499838,4025,4012,4020,4010,0,0,27,,,,,,,0,0,0,11.00,36.00,-727.00,0.00,0.00,-688.00,6,13.00,7.00,4.29,0.00,0.00,-7.00,0,,,100,100,0,2,0,0,0,2,0,,,,,0.0,2.6,0.0,0.0,0.0,0.0,0
55.953372,-4.402958,1.40,1.40,0.80,0.43,1.40,1.40,0.80,0.43,6108,2022-09-24 11:21:39.942,2022-09-24 12:21:39.941,18,0,0,16.011,55.953376,-4.402958,0.00,0.00,-0.80,-1.10,3.10,-72.80,0,1,0,77,100,-7062,2538,16011,3073.50,12,P-GPS,1,0,0,0,388,0,0,1664018499941,4025,4012,4020,4010,0,0,27,,,,,,,0,0,0,11.00,31.00,-728.00,0.00,0.00,-688.00,6,14.00,8.00,4.30,0.00,0.00,-8.00,0,,,100,100,0,2,0,0,0,2,0,,,,,0.0,2.6,0.0,0.0,0.0,0.0,0
55.953372,-4.402958,1.50,1.50,1.00,0.44,1.50,1.50,1.00,0.44,6208,2022-09-24 11:21:40.041,2022-09-24 12:21:40.041,18,0,0,16.011,55.953376,-4.402958,0.00,0.00,-1.00,-0.60,2.60,-72.50,0,1,0,77,100,-7062,2538,16011,3073.50,12,P-GPS,1,0,0,0,444,0,0,1664018500041,4025,4012,4020,4010,0,0,27,,,,,,,0,0,0,6.00,26.00,-725.00,0.00,0.00,-688.00,6,15.00,10.00,4.40,0.00,0.00,-10.00,0,,,100,100,0,2,0,0,0,2,0,,,,,0.0,2.6,0.0,0.0,0.0,0.0,0
55.953372,-4.402958,1.60,1.60,1.30,0.44,1.60,1.60,1.30,0.44,6308,2022-09-24 11:21:40.141,2022-09-24 12:21:40.141,18,0,0,16.011,55.953376,-4.402958,0.00,0.00,-1.30,0.00,1.80,-72.10,0,1,0,77,100,-7062,2538,16011,3073.50,12,P-GPS,1,0,0,0,485,0,0,1664018500141,4025,4012,4020,4010,0,0,27,,,,,,,0,0,0,-0.00,18.00,-721.00,0.00,0.00,-688.00,6,16.00,13.00,4.38,0.00,0.00,-13.00,0,,,100,100,0,2,0,0,0,2,0,,,,,0.0,2.6,0.0,0.0,0.0,0.0,0
55.953372,-4.402957,1.70,1.80,1.60,0.42,1.70,1.70,1.60,0.44,6405,2022-09-24 11:21:40.238,2022-09-24 12:21:40.238,18,0,0,15.914,55.953376,-4.402958,0.00,0.00,-1.60,0.20,1.90,-71.90,0,1,0,77,100,-8694,2536,15914,3074.50,12,P-GPS,1,0,0,0,542,0,0,1664018500238,4025,4012,4020,4010,0,0,27,,,,,,,0,0,0,-2.00,19.00,-719.00,0.00,0.00,-688.00,6,17.00,16.00,4.19,0.00,0.00,-16.00,0,,,100,100,0,2,0,0,0,2,0,,,,,0.0,2.6,0.0,0.0,0.0,0.0,0
55.953372,-4.402957,1.90,2.00,2.00,0.42,1.90,1.90,2.00,0.44,6511,2022-09-24 11:21:40.344,2022-09-24 12:21:40.344,18,0,0,15.914,55.953376,-4.402958,0.00,0.00,-2.00,0.20,2.10,-72.00,0,1,0,77,100,-8694,2536,15914,3074.50,12,P-GPS,1,0,0,0,589,0,0,1664018500344,4025,4012,4020,4010,0,0,27,,,,,,,0,0,0,-2.00,21.00,-720.00,0.00,0.00,-688.00,6,19.00,20.00,4.15,0.00,0.00,-20.00,0,,,100,100,0,2,0,0,0,2,0,,,,,0.0,2.6,0.0,0.0,0.0,0.0,0
55.953372,-4.402957,2.10,2.20,2.40,0.43,2.10,2.10,2.40,0.44,6603,2022-09-24 11:21:40.436,2022-09-24 12:21:40.436,18,0,0,15.914,55.953376,-4.402958,0.00,0.00,-2.40,0.00,1.60,-72.10,0,1,0,77,100,-8694,2536,15914,3074.50,12,P-GPS,1,0,0,0,602,0,0,1664018500436,4025,4012,4020,4010,0,0,27,,,,,,,0,0,0,-0.00,16.00,-721.00,0.00,0.00,-688.00,6,21.00,24.00,4.31,0.00,0.00,-24.00,0,,,100,100,0,2,0,0,0,2,0,,,,,0.0,2.6,0.0,0.0,0.0,0.0,0
55.953372,-4.402957,2.40,2.40,2.80,0.43,2.40,2.40,2.80,0.44,6708,2022-09-24 11:21:40.541,2022-09-24 12:21:40.541,18,0,0,15.914,55.953376,-4.402958,0.00,0.00,-2.80,0.00,1.60,-72.20,0,1,0,77,100,-8694,2536,15914,3074.50,12,P-GPS,1,0,0,0,603,0,0,1664018500541,4025,4012,4020,4010,0,0,27,,,,,,,0,0,0,-0.00,16.00,-722.00,0.00,0.00,-688.00,6,24.00,28.00,4.31,0.00,0.00,-28.00,0,,,100,100,0,2,0,0,0,2,0,,,,,0.0,2.6,0.0,0.0,0.0,0.0,0
55.953372,-4.402957,2.70,2.70,3.10,0.44,2.70,2.70,3.10,0.44,6806,2022-09-24 11:21:40.639,2022-09-24 12:21:40.639,18,0,0,15.914,55.953376,-4.402958,0.00,0.00,-3.10,0.00,2.40,-72.30,0,1,0,77,100,-8694,2536,15914,3074.50,12,P-GPS,1,0,0,0,627,0,0,1664018500639,4025,4012,4020,4010,0,0,27,,,,,,,0,0,0,-0.00,24.00,-723.00,0.00,0.00,-688.00,6,27.00,31.00,4.41,0.00,0.00,-31.00,0,,,100,100,0,2,0,0,0,2,0,,,,,0.0,2.6,0.0,0.0,0.0,0.0,0
55.953372,-4.402957,3.00,3.10,3.30,0.44,3.00,3.00,3.30,0.44,6909,2022-09-24 11:21:40.742,2022-09-24 12:21:40.742,18,0,0,15.914,55.953376,-4.402958,0.00,0.00,-3.30,-0.30,2.80,-72.30,0,1,0,77,100,-8694,2536,15914,3074.50,12,P-GPS,1,0,0,0,644,0,0,1664018500742,4025,4012,4020,4010,0,0,27,,,,,,,0,0,0,3.00,28.00,-723.00,0.00,0.00,-688.00,6,30.00,33.00,4.44,0.00,0.00,-33.00,0,,,100,100,0,2,0,0,0,2,0,,,,,0.0,2.6,0.0,0.0,0.0,0.0,0
55.953372,-4.402957,3.40,3.40,3.60,0.43,3.40,3.40,3.60,0.44,7009,2022-09-24 11:21:40.842,2022-09-24 12:21:40.842,18,0,0,15.914,55.953376,-4.402958,0.00,0.00,-3.60,0.50,2.50,-72.20,0,1,0,77,100,-8694,2536,15914,3074.50,12,P-GPS,1,0,0,0,660,0,0,1664018500842,4025,4012,4020,4010,0,0,27,,,,,,,0,0,0,-5.00,25.00,-722.00,0.00,0.00,-688.00,6,34.00,36.00,4.34,0.00,0.00,-36.00,0,,,100,100,0,2,0,0,0,2,0,,,,,0.0,2.6,0.0,0.0,0.0,0.0,0
55.953372,-4.402957,3.70,3.80,3.80,0.44,3.70,3.70,3.80,0.44,7109,2022-09-24 11:21:40.943,2022-09-24 12:21:40.943,18,0,0,15.914,55.953376,-4.402958,0.00,0.00,-3.80,0.70,3.20,-72.20,0,1,0,77,100,-8694,2536,15914,3074.50,12,P-GPS,1,0,0,0,660,0,0,1664018500942,4025,4012,4020,4010,0,0,27,,,,,,,0,0,0,-7.00,32.00,-722.00,0.00,0.00,-688.00,6,37.00,38.00,4.35,0.00,0.00,-38.00,0,,,100,100,0,2,0,0,0,2,0,,,,,0.0,2.7,0.0,0.0,0.0,0.0,0
55.953372,-4.402957,4.10,4.10,3.90,0.45,4.10,4.10,3.90,0.45,7199,2022-09-24 11:21:41.032,2022-09-24 12:21:41.032,18,0,0,15.914,55.953376,-4.402958,0.00,0.00,-3.90,1.00,3.80,-72.00,0,1,0,77,100,-8694,2536,15914,3074.50,12,P-GPS,1,0,0,0,660,0,0,1664018501032,4025,4012,4020,4010,0,0,27,,,,,,,0,0,0,-10.00,38.00,-720.00,0.00,0.00,-688.00,6,41.00,39.00,4.49,0.00,0.00,-39.00,0,,,100,100,0,2,0,0,0,2,0,,,,,0.0,2.7,0.0,0.0,0.0,0.0,0
55.953372,-4.402957,4.50,4.50,3.90,0.45,4.50,4.50,3.90,0.45,7304,2022-09-24 11:21:41.137,2022-09-24 12:21:41.137,18,0,0,15.914,55.953376,-4.402958,0.00,0.00,-3.90,0.70,3.00,-72.20,0,1,0,77,100,-8694,2536,15914,3074.50,12,P-GPS,1,0,0,0,660,0,0,1664018501137,4025,4012,4020,4010,0,0,27,,,,,,,0,0,0,-7.00,30.00,-722.00,0.00,0.00,-688.00,6,45.00,39.00,4.50,0.00,0.00,-39.00,0,,,100,100,0,2,0,0,0,2,0,,,,,0.0,0.0,0.0,0.0,0.0,0.0,0
55.953372,-4.402957,4.90,4.90,4.00,0.44,4.90,4.90,4.00,0.45,7406,2022-09-24 11:21:41.239,2022-09-24 12:21:41.239,18,0,0,15.914,55.953376,-4.402958,0.00,0.00,-4.00,0.00,2.50,-72.40,0,1,0,77,100,-8694,2536,15914,3074.50,12,P-GPS,1,0,0,0,660,0,0,1664018501239,4025,4012,4020,4010,0,0,27,,,,,,,0,0,0,-0.00,25.00,-724.00,0.00,0.00,-688.00,6,49.00,40.00,4.44,0.00,0.00,-40.00,0,,,100,100,0,2,0,0,0,2,0,,,,,0.0,0.0,0.0,0.0,0.0,0.0,0
55.953372,-4.402957,5.30,5.30,4.00,0.44,5.30,5.30,4.00,0.45,7505,2022-09-24 11:21:41.339,2022-09-24 12:21:41.338,18,0,0,15.914,55.953376,-4.402958,0.00,0.00,-4.00,0.00,2.20,-72.30,0,1,0,77,100,-8694,2536,15914,3074.50,12,P-GPS,1,0,0,0,660,0,0,1664018501338,4025,4012,4020,4010,0,0,27,,,,,,,0,0,0,-0.00,22.00,-723.00,0.00,0.00,-688.00,6,53.00,40.00,4.44,0.00,0.00,-40.00,0,,,100,100,0,2,0,0,0,2,0,,,,,0.0,0.0,0.0,0.0,0.0,0.0,0
55.953372,-4.402957,5.70,5.70,4.00,0.44,5.70,5.70,4.00,0.45,7607,2022-09-24 11:21:41.441,2022-09-24 12:21:41.440,18,0,0,15.914,55.953376,-4.402958,0.00,0.00,-4.00,0.30,3.60,-72.10,0,1,0,77,100,-8694,2536,15914,3074.50,12,P-GPS,1,0,0,0,660,0,0,1664018501440,4025,4012,4020,4010,0,0,27,,,,,,,0,0,0,-3.00,36.00,-721.00,0.00,0.00,-688.00,6,57.00,40.00,4.41,0.00,0.00,-40.00,0,,,100,100,0,2,0,0,0,2,0,,,,,0.0,0.0,0.0,0.0,0.0,0.0,0
55.953372,-4.402957,6.20,6.10,3.90,0.44,6.20,6.20,4.00,0.45,7710,2022-09-24 11:21:41.543,2022-09-24 12:21:41.543,18,0,0,15.914,55.953376,-4.402958,0.00,0.00,-3.90,0.80,4.10,-72.00,0,1,0,77,100,-8694,2536,15914,3074.50,12,P-GPS,1,0,0,0,660,0,0,1664018501543,4025,4012,4020,4010,0,0,27,,,,,,,0,0,0,-8.00,41.00,-720.00,0.00,0.00,-688.00,6,62.00,39.00,4.43,0.00,0.00,-39.00,0,,,100,100,0,2,0,0,0,2,0,,,,,0.0,0.0,0.0,0.0,0.0,0.0,0
55.953372,-4.402957,6.50,6.40,3.90,0.44,6.50,6.50,4.00,0.45,7805,2022-09-24 11:21:41.638,2022-09-24 12:21:41.638,18,0,0,15.914,55.953376,-4.402958,0.00,0.00,-3.90,0.40,2.80,-72.00,0,1,0,77,100,-8694,2536,15914,3074.50,12,P-GPS,1,0,99,0,660,0,0,1664018501638,4025,4012,4020,4010,0,0,27,,,,,,,0,0,0,-4.00,28.00,-720.00,0.00,0.00,-688.00,6,65.00,39.00,4.41,0.00,0.00,-39.00,0,,,100,100,0,2,0,0,0,2,0,,,,,0.0,0.0,0.0,0.0,0.0,0.0,0
55.953372,-4.402957,6.90,6.80,3.90,0.44,6.90,6.90,4.00,0.45,7907,2022-09-24 11:21:41.740,2022-09-24 12:21:41.740,18,0,0,15.914,55.953376,-4.402958,0.00,0.00,-3.90,0.00,2.50,-72.00,0,1,0,77,100,-8694,2536,15914,3074.50,12,P-GPS,1,0,252,0,660,0,0,1664018501740,4025,4012,4020,4010,0,0,27,,,,,,,0,0,0,-0.00,25.00,-720.00,0.00,0.00,-688.00,6,69.00,39.00,4.41,0.00,0.00,-39.00,0,,,100,100,0,2,0,0,0,2,0,,,,,0.0,0.0,0.0,0.0,0.0,0.0,0
55.953372,-4.402957,7.30,7.20,3.90,0.46,7.30,7.30,4.00,0.46,8001,2022-09-24 11:21:41.835,2022-09-24 12:21:41.834,18,0,0,15.914,55.953376,-4.402958,0.00,0.00,-3.90,-2.30,2.30,-72.10,0,1,0,77,100,-8694,2536,15914,3074.50,12,P-GPS,1,0,365,0,660,0,0,1664018501834,4025,4012,4020,4010,0,0,27,,,,,,,0,0,0,23.00,23.00,-721.00,0.00,0.00,-688.00,6,73.00,39.00,4.60,0.00,0.00,-39.00,0,,,100,100,0,2,0,0,0,2,0,,,,,0.0,0.0,0.0,0.0,0.0,0.0,0
55.953372,-4.402957,7.70,7.60,4.00,0.46,7.70,7.70,4.00,0.46,8108,2022-09-24 11:21:41.941,2022-09-24 12:21:41.941,18,0,0,15.914,55.953376,-4.402958,0.00,0.00,-4.00,-6.00,3.00,-72.20,0,1,0,77,100,-8694,2536,15914,3074.50,12,P-GPS,1,0,469,0,660,0,0,1664018501941,4025,4012,4020,4010,0,0,27,,,,,,,0,0,0,60.00,30.00,-722.00,0.00,0.00,-688.00,6,77.00,40.00,4.64,0.00,0.00,-40.00,0,,,100,100,0,2,0,0,0,2,0,,,,,0.0,0.0,0.0,0.0,0.0,0.0,0
55.953372,-4.402957,8.10,7.90,3.90,0.46,8.10,8.10,4.00,0.46,8206,2022-09-24 11:21:42.040,2022-09-24 12:21:42.039,18,0,0,15.914,55.953376,-4.402958,0.00,-0.10,-3.90,-9.80,3.80,-72.40,0,1,0,77,100,-8694,2536,15914,3074.50,12,P-GPS,1,0,538,0,660,0,0,1664018502039,4025,4012,4020,4010,0,0,27,,,,,,,0,0,0,98.00,38.00,-724.00,0.00,0.00,-688.00,6,81.00,39.01,4.62,0.00,-1.00,-39.00,0,,,100,100,0,2,0,0,0,2,0,,,,,0.0,0.0,0.0,0.0,0.0,0.0,0
55.953372,-4.402958,8.50,8.30,3.91,0.46,8.50,8.50,4.00,0.46,8313,2022-09-24 11:21:42.147,2022-09-24 12:21:42.146,18,0,0,15.777,55.953376,-4.402958,0.00,-0.30,-3.90,-12.20,3.00,-72.50,0,1,0,77,100,-11422,2533,15777,3075.50,12,P-GPS,1,0,628,0,660,0,0,1664018502146,4025,4012,4020,4010,0,0,27,,,,,,,0,0,0,122.00,30.00,-725.00,0.00,0.00,-688.00,6,85.00,39.12,4.59,0.00,-3.00,-39.00,0,,,100,100,0,2,0,0,0,2,0,,,,,0.0,0.0,0.0,0.0,0.0,0.0,0
55.953372,-4.402958,8.90,8.70,4.03,0.45,8.90,8.90,4.03,0.46,8406,2022-09-24 11:21:42.239,2022-09-24 12:21:42.239,18,0,0,15.777,55.953376,-4.402958,0.10,-0.50,-4.00,-12.00,3.60,-72.60,0,1,0,77,100,-11422,2533,15777,3075.50,12,P-GPS,1,0,660,0,660,0,0,1664018502239,4025,4012,4020,4010,0,0,27,,,,,,,0,0,0,120.00,36.00,-726.00,0.00,0.00,-688.00,6,89.00,40.32,4.47,1.00,-5.00,-40.00,0,,,100,100,0,2,0,0,0,2,0,,,,,0.0,0.0,0.0,0.0,0.0,0.0,0
55.953372,-4.402959,9.30,9.10,3.96,0.44,9.30,9.30,4.03,0.46,8510,2022-09-24 11:21:42.344,2022-09-24 12:21:42.343,18,0,0,15.777,55.953376,-4.402958,0.10,-0.70,-3.90,-11.60,4.20,-72.60,0,1,0,77,100,-11422,2533,15777,3075.50,12,P-GPS,1,0,660,0,660,0,0,1664018502343,4025,4012,4020,4010,0,0,27,,,,,,,0,0,0,116.00,42.00,-726.00,0.00,0.00,-688.00,6,93.00,39.64,4.44,1.00,-7.00,-39.00,0,,,100,100,0,2,0,0,0,2,0,,,,,0.0,0.0,0.0,0.0,0.0,0.0,0
55.953372,-4.402961,9.70,9.50,4.01,0.44,9.70,9.70,4.03,0.46,8601,2022-09-24 11:21:42.435,2022-09-24 12:21:42.434,18,0,0,15.777,55.953376,-4.402958,0.20,-0.90,-3.90,-11.80,4.10,-72.60,0,1,0,77,100,-11422,2533,15777,3075.50,12,P-GPS,1,0,660,0,660,0,0,1664018502434,4025,4012,4020,4010,0,0,27,,,,,,,0,0,0,118.00,41.00,-726.00,0.00,0.00,-688.00,6,97.00,40.07,4.44,2.00,-9.00,-39.00,0,,,100,100,0,2,0,0,0,2,0,,,,,0.0,0.0,0.0,0.0,0.0,0.0,0
55.953373,-4.402962,10.10,9.80,4.06,0.47,10.10,10.10,4.06,0.47,8706,2022-09-24 11:21:42.539,2022-09-24 12:21:42.539,18,0,0,15.777,55.953376,-4.402958,0.20,-1.10,-3.90,-11.70,4.60,-72.60,0,1,0,77,100,-11422,2533,15777,3075.50,12,P-GPS,1,0,660,0,660,0,0,1664018502539,4025,4012,4020,4010,0,0,27,,,,,,,0,0,0,117.00,46.00,-726.00,0.00,0.00,-688.00,6,101.00,40.57,4.75,2.00,-11.00,-39.00,0,,,100,100,0,2,0,0,0,2,0,,,,,0.0,0.0,0.0,0.0,0.0,0.0,0
55.953373,-4.402964,10.50,10.20,4.12,0.51,10.50,10.50,4.12,0.51,8813,2022-09-24 11:21:42.646,2022-09-24 12:21:42.646,18,0,0,15.777,55.953376,-4.402958,0.30,-1.30,-3.90,-11.50,5.20,-72.50,0,1,0,77,100,-11422,2533,15777,3075.50,12,P-GPS,1,0,660,0,660,0,0,1664018502646,4025,4012,4020,4010,0,0,27,,,,,,,0,0,0,115.00,52.00,-725.00,0.00,0.00,-688.00,6,105.00,41.22,5.13,3.00,-13.00,-39.00,0,,,100,100,0,2,0,0,0,2,0,,,,,0.0,0.0,0.0,0.0,0.0,0.0,0
55.953373,-4.402966,10.90,10.60,4.15,0.60,10.90,10.90,4.15,0.60,8911,2022-09-24 11:21:42.744,2022-09-24 12:21:42.744,18,0,0,15.777,55.953376,-4.402958,0.30,-1.40,-3.90,-11.60,4.90,-72.40,0,1,0,77,100,-11422,2533,15777,3075.50,12,P-GPS,1,0,660,0,660,0,0,1664018502744,4025,4012,4020,4010,0,0,27,,,,,,,0,0,0,116.00,49.00,-724.00,0.00,0.00,-688.00,6,109.00,41.55,6.03,3.00,-14.00,-39.00,0,,,100,100,0,2,0,0,0,2,0,,,,,0.0,0.0,0.0,0.0,0.0,0.0,0
55.953374,-4.402969,11.30,11.00,4.23,0.72,11.30,11.30,4.23,0.72,9002,2022-09-24 11:21:42.838,2022-09-24 12:21:42.835,18,0,0,15.777,55.953376,-4.402958,0.40,-1.60,-3.90,-12.10,4.60,-72.50,0,1,0,77,100,-11422,2533,15777,3075.50,12,P-GPS,1,0,660,0,660,0,0,1664018502835,4025,4012,4020,4010,0,0,27,,,,,,,0,0,0,121.00,46.00,-725.00,0.00,0.00,-688.00,6,113.00,42.34,7.15,4.00,-16.00,-39.00,0,,,100,100,0,2,0,0,0,2,0,,,,,0.0,0.0,0.0,0.0,0.0,0.0,0
55.953374,-4.402971,11.70,11.40,4.31,0.86,11.70,11.70,4.31,0.86,9105,2022-09-24 11:21:42.939,2022-09-24 12:21:42.938,18,0,0,15.777,55.953376,-4.402958,0.40,-1.80,-3.90,-12.00,5.00,-72.60,0,1,0,77,100,-11422,2533,15777,3075.50,12,P-GPS,1,0,660,0,660,0,0,1664018502938,4025,4012,4020,4010,0,0,27,,,,,,,0,0,0,120.00,50.00,-726.00,0.00,0.00,-688.00,6,117.00,43.14,8.63,4.00,-18.00,-39.00,0,,,100,100,0,2,0,0,0,2,0,,,,,0.0,0.0,0.0,0.0,0.0,0.0,0
55.953375,-4.402974,12.10,11.70,4.37,1.03,12.10,12.10,4.37,1.03,9205,2022-09-24 11:21:43.038,2022-09-24 12:21:43.038,18,0,0,15.777,55.953376,-4.402958,0.50,-1.90,-3.90,-12.30,5.20,-72.70,0,1,0,77,100,-11422,2533,15777,3075.50,12,P-GPS,1,0,660,0,660,0,0,1664018503038,4025,4012,4020,4010,0,0,27,,,,,,,0,0,0,123.00,52.00,-727.00,0.00,0.00,-688.00,6,121.00,43.67,10.29,5.00,-19.00,-39.00,0,,,100,100,0,2,0,0,0,2,0,,,,,0.0,0.0,0.0,0.0,0.0,0.0,0
55.953375,-4.402974,12.10,11.70,4.37,1.03,12.10,12.10,4.37,1.03,9302,2022-09-24 11:21:43.136,2022-09-24 12:21:43.135,18,0,0,15.777,55.953376,-4.402958,0.60,-2.10,-3.90,-12.30,5.20,-72.70,0,1,0,77,100,-11422,2533,15777,3075.50,12,P-GPS,1,0,660,0,660,0,0,1664018503135,4025,4012,4020,4010,0,0,27,,,,,,,0,0,0,123.00,52.00,-727.00,0.00,0.00,-688.00,6,121.00,43.67,10.29,6.00,-21.00,-39.00,0,,,100,100,0,2,0,0,0,2,0,,,,,0.0,0.0,0.0,0.0,0.0,0.0,0
55.953376,-4.402981,12.90,0.00,4.57,1.44,12.90,12.90,4.57,1.44,9407,2022-09-24 11:21:43.240,2022-09-24 12:21:43.240,18,0,0,15.821,55.953376,-4.402958,0.60,-2.30,-3.90,-11.90,5.10,-72.60,0,1,0,77,100,-9211,2530,15821,3075.50,12,P-GPS,1,0,660,0,660,0,0,1664018503240,4025,4012,4020,4010,0,0,27,,,,,,,0,0,0,119.00,51.00,-726.00,0.00,0.00,-688.00,6,129.00,45.67,14.35,6.00,-23.00,-39.00,0,,,100,100,0,2,0,0,0,2,0,,,,,0.0,0.0,0.0,0.0,0.0,0.0,0
55.953376,-4.402985,13.30,0.00,4.63,1.67,13.30,13.30,4.63,1.67,9514,2022-09-24 11:21:43.348,2022-09-24 12:21:43.347,18,0,0,15.821,55.953376,-4.402958,0.70,-2.40,-3.90,-11.50,4.90,-72.50,0,1,0,77,100,-9211,2530,15821,3075.50,12,P-GPS,1,0,660,0,660,0,0,1664018503347,4025,4012,4020,4010,0,0,27,,,,,,,0,0,0,115.00,49.00,-725.00,0.00,0.00,-688.00,6,133.00,46.32,16.70,7.00,-24.00,-39.00,0,,,100,100,0,2,0,0,0,2,0,,,,,0.0,0.0,0.0,0.0,0.0,0.0,0
55.953377,-4.402989,13.70,0.00,4.74,1.92,13.70,13.70,4.74,1.92,9602,2022-09-24 11:21:43.435,2022-09-24 12:21:43.435,18,0,0,15.821,55.953376,-4.402958,0.70,-2.60,-3.90,-11.30,4.70,-72.60,0,1,0,77,100,-9211,2530,15821,3075.50,12,P-GPS,1,0,659,0,660,0,0,1664018503435,4025,4012,4020,4010,0,0,27,,,,,,,0,0,0,113.00,47.00,-726.00,0.00,0.00,-688.00,6,137.00,47.39,19.24,7.00,-26.00,-39.00,0,,,100,100,0,2,0,0,0,2,0,,,,,0.0,0.0,0.0,0.0,0.0,0.0,0
55.953378,-4.402993,14.10,0.00,4.81,2.19,14.10,14.10,4.81,2.19,9702,2022-09-24 11:21:43.536,2022-09-24 12:21:43.535,18,0,0,15.821,55.953376,-4.402958,0.80,-2.70,-3.90,-10.90,4.80,-72.60,0,1,0,77,100,-9211,2530,15821,3075.50,12,P-GPS,1,0,660,0,660,0,0,1664018503535,4025,4012,4020,4010,0,0,27,,,,,,,0,0,0,109.00,48.00,-726.00,0.00,0.00,-688.00,6,141.00,48.10,21.95,8.00,-27.00,-39.00,0,,,100,100,0,2,0,0,0,2,0,,,,,0.0,0.0,0.0,0.0,0.0,0.0,0
55.953379,-4.402997,14.50,0.00,4.93,2.47,14.50,14.50,4.93,2.47,9804,2022-09-24 11:21:43.638,2022-09-24 12:21:43.637,18,0,0,15.821,55.953376,-4.402958,0.80,-2.90,-3.90,-10.70,4.80,-72.60,0,1,0,77,100,-9211,2530,15821,3075.50,12,P-GPS,1,0,660,0,660,0,0,1664018503637,4025,4012,4020,4010,0,0,27,,,,,,,0,0,0,107.00,48.00,-726.00,0.00,0.00,-688.00,6,145.00,49.25,24.68,8.00,-29.00,-39.00,0,,,100,100,0,2,0,0,0,2,0,,,,,0.0,0.0,0.0,0.0,0.0,0.0,0
55.953380,-4.403002,14.90,0.00,5.00,2.77,14.90,14.90,5.00,2.77,9904,2022-09-24 11:21:43.737,2022-09-24 12:21:43.737,18,0,0,15.821,55.953376,-4.402958,0.90,-3.00,-3.90,-10.50,4.90,-72.60,0,1,0,77,100,-9211,2530,15821,3075.50,12,P-GPS,1,0,660,0,660,0,0,1664018503737,4025,4012,4020,4010,0,0,27,,,,,,,0,0,0,105.00,49.00,-726.00,0.00,0.00,-688.00,6,149.00,50.02,27.68,9.00,-30.00,-39.00,0,,,100,100,0,2,0,0,0,2,0,,,,,0.0,0.0,0.0,0.0,0.0,0.0,0
55.953380,-4.403007,15.30,0.00,5.12,3.09,15.30,15.30,5.12,3.09,10005,2022-09-24 11:21:43.839,2022-09-24 12:21:43.838,18,0,0,15.821,55.953376,-4.402958,0.90,-3.20,-3.90,-10.30,4.90,-72.60,0,1,0,77,100,-9211,2530,15821,3075.50,12,P-GPS,1,0,659,0,660,0,0,1664018503838,4025,4012,4020,4010,0,0,27,,,,,,,0,0,0,103.00,49.00,-726.00,0.00,0.00,-688.00,6,153.00,51.24,30.89,9.00,-32.00,-39.00,0,,,100,100,0,2,0,0,0,2,0,,,,,0.0,0.0,0.0,0.0,0.0,0.0,0
55.953381,-4.403012,15.70,0.00,5.21,3.42,15.70,15.70,5.21,3.42,10107,2022-09-24 11:21:43.941,2022-09-24 12:21:43.940,18,0,0,15.821,55.953376,-4.402958,1.00,-3.30,-3.90,-10.10,4.90,-72.50,0,1,0,77,100,-9211,2530,15821,3075.50,12,P-GPS,1,0,658,0,660,0,0,1664018503940,4025,4012,4020,4010,0,0,27,,,,,,,0,0,0,101.00,49.00,-725.00,0.00,0.00,-688.00,6,157.00,52.06,34.17,10.00,-33.00,-39.00,0,,,100,100,0,2,0,0,0,2,0,,,,,0.0,0.0,0.0,0.0,0.0,0.0,0
55.953382,-4.403017,16.00,0.00,5.27,3.78,16.00,16.00,5.27,3.78,10208,2022-09-24 11:21:44.041,2022-09-24 12:21:44.041,18,0,0,15.821,55.953376,-4.402958,1.00,-3.40,-3.90,-9.90,4.80,-72.60,0,1,0,77,100,-9211,2530,15821,3075.50,12,P-GPS,1,0,614,0,660,0,0,1664018504041,4025,4012,4020,4010,0,0,27,,,,,,,0,0,0,99.00,48.00,-726.00,0.00,0.00,-688.00,6,160.00,52.70,37.77,10.00,-34.00,-39.00,0,,,100,100,0,2,0,0,0,2,0,,,,,0.0,0.0,0.0,0.0,0.0,0.0,0
55.953383,-4.403023,16.40,0.00,5.33,4.13,16.40,16.40,5.33,4.13,10310,2022-09-24 11:21:44.143,2022-09-24 12:21:44.143,18,0,0,15.821,55.953376,-4.402958,1.00,-3.50,-3.90,-9.70,4.70,-72.60,0,1,0,77,100,-9211,2530,15821,3075.50,12,P-GPS,1,0,588,0,660,0,0,1664018504143,4025,4012,4020,4010,0,0,27,,,,,,,0,0,0,97.00,47.00,-726.00,0.00,0.00,-688.00,6,164.00,53.35,41.31,10.00,-35.00,-39.00,0,,,100,100,0,2,0,0,0,2,0,,,,,0.0,0.0,0.0,0.0,0.0,0.0,0
55.953384,-4.403029,16.80,0.00,5.42,4.50,16.80,16.80,5.42,4.50,10403,2022-09-24 11:21:44.237,2022-09-24 12:21:44.236,18,0,0,15.790,55.953376,-4.402958,1.10,-3.60,-3.90,-9.70,4.70,-72.60,0,1,0,77,100,-9780,2528,15790,3075.50,12,P-GPS,1,0,588,0,660,0,0,1664018504236,4025,4012,4020,4010,0,0,27,,,,,,,0,0,0,97.00,47.00,-726.00,0.00,0.00,-688.00,6,168.00,54.20,45.03,11.00,-36.00,-39.00,0,,,100,100,0,2,0,0,0,2,0,,,,,0.0,0.0,0.0,0.0,0.0,0.0,0
55.953385,-4.403034,17.20,0.00,5.49,4.88,17.20,17.20,5.49,4.88,10517,2022-09-24 11:21:44.351,2022-09-24 12:21:44.350,18,0,0,15.790,55.953376,-4.402958,1.10,-3.70,-3.90,-9.90,4.90,-72.50,0,1,0,77,100,-9780,2528,15790,3075.50,12,P-GPS,1,0,588,0,660,0,0,1664018504350,4025,4012,4020,4010,0,0,27,,,,,,,0,0,0,99.00,49.00,-725.00,0.00,0.00,-688.00,6,172.00,54.87,48.80,11.00,-37.00,-39.00,0,,,100,100,0,2,0,0,0,2,0,,,,,0.0,0.0,0.0,0.0,0.0,0.0,0
55.953387,-4.403040,17.60,0.00,5.58,5.28,17.60,17.60,5.58,5.28,10607,2022-09-24 11:21:44.440,2022-09-24 12:21:44.440,18,0,0,15.790,55.953376,-4.402958,1.20,-3.80,-3.90,-9.90,4.80,-72.60,0,1,0,77,100,-9780,2528,15790,3075.50,12,P-GPS,1,0,586,0,660,0,0,1664018504440,4025,4012,4020,4010,0,0,27,,,,,,,0,0,0,99.00,48.00,-726.00,0.00,0.00,-688.00,6,176.00,55.76,52.80,12.00,-38.00,-39.00,0,,,100,100,0,2,0,0,0,2,0,,,,,0.0,0.0,0.0,0.0,0.0,0.0,0
55.953388,-4.403046,18.00,0.00,5.64,5.68,18.00,18.00,5.64,5.68,10702,2022-09-24 11:21:44.535,2022-09-24 12:21:44.535,18,0,0,15.790,55.953376,-4.402958,1.20,-3.90,-3.90,-9.80,4.80,-72.60,0,1,0,77,100,-9780,2528,15790,3075.50,12,P-GPS,1,0,584,0,660,0,0,1664018504535,4025,4012,4020,4010,0,0,27,,,,,,,0,0,0,98.00,48.00,-726.00,0.00,0.00,-688.00,6,180.00,56.44,56.81,12.00,-39.00,-39.00,0,,,100,100,0,2,0,0,0,2,0,,,,,0.0,0.0,0.0,0.0,0.0,0.0,0
55.953389,-4.403053,18.40,0.00,5.71,6.11,18.40,18.40,5.71,6.11,10808,2022-09-24 11:21:44.641,2022-09-24 12:21:44.641,18,0,0,15.790,55.953376,-4.402958,1.20,-4.00,-3.90,-9.80,4.80,-72.60,0,1,0,77,100,-9780,2528,15790,3075.50,12,P-GPS,1,0,573,0,660,0,0,1664018504641,4025,4012,4020,4010,0,0,27,,,,,,,0,0,0,98.00,48.00,-726.00,0.00,0.00,-688.00,6,184.00,57.14,61.06,12.00,-40.00,-39.00,0,,,100,100,0,2,0,0,0,2,0,,,,,0.0,0.0,0.0,0.0,0.0,0.0,0
55.953390,-4.403059,18.80,0.00,5.78,6.53,18.80,18.80,5.78,6.53,10912,2022-09-24 11:21:44.745,2022-09-24 12:21:44.745,18,0,0,15.790,55.953376,-4.402958,1.20,-4.10,-3.90,-9.80,4.60,-72.50,0,1,0,77,100,-9780,2528,15790,3075.50,12,P-GPS,1,0,573,0,660,0,0,1664018504745,4025,4012,4020,4010,0,0,27,,,,,,,0,0,0,98.00,46.00,-725.00,0.00,0.00,-688.00,6,188.00,57.84,65.29,12.00,-41.00,-39.00,0,,,100,100,0,2,0,0,0,2,0,,,,,0.0,0.0,0.0,0.0,0.0,0.0,0
55.953391,-4.403067,19.20,0.00,5.88,7.00,19.20,19.20,5.88,7.00,11013,2022-09-24 11:21:44.847,2022-09-24 12:21:44.846,18,0,0,15.790,55.953376,-4.402958,1.30,-4.20,-3.90,-9.80,4.70,-72.60,0,1,0,77,100,-9780,2528,15790,3075.50,12,P-GPS,1,0,572,0,660,0,0,1664018504846,4025,4012,4020,4010,0,0,27,,,,,,,0,0,0,98.00,47.00,-726.00,0.00,0.00,-688.00,6,192.00,58.77,69.96,13.00,-42.00,-39.00,0,,,100,100,0,2,0,0,0,2,0,,,,,0.0,0.0,0.0,0.0,0.0,0.0,0
55.953392,-4.403073,19.60,0.00,5.95,7.44,19.60,19.60,5.95,7.44,11111,2022-09-24 11:21:44.944,2022-09-24 12:21:44.944,18,0,0,15.790,55.953376,-4.402958,1.30,-4.30,-3.90,-9.80,4.80,-72.60,0,1,0,77,100,-9780,2528,15790,3075.50,12,P-GPS,1,0,555,0,660,0,0,1664018504944,3947,3931,3934,3925,0,0,27,,,,,,,0,0,0,98.00,48.00,-726.00,0.00,0.00,-688.00,6,196.00,59.49,74.42,13.00,-43.00,-39.00,0,,,100,100,0,2,0,0,0,2,0,,,,,0.0,0.0,0.0,0.0,0.0,0.0,0
55.953394,-4.403080,20.00,0.00,6.09,7.87,20.00,20.00,6.09,7.87,11210,2022-09-24 11:21:45.043,2022-09-24 12:21:45.043,18,0,0,15.790,55.953376,-4.402958,1.30,-4.40,-4.00,-9.90,4.90,-72.60,0,1,0,77,100,-9780,2528,15790,3075.50,12,P-GPS,1,0,357,0,660,0,0,1664018505043,3947,3931,3934,3925,0,0,27,,,,,,,0,0,0,99.00,49.00,-726.00,0.00,0.00,-688.00,6,200.00,60.87,78.69,13.00,-44.00,-40.00,0,,,100,100,0,2,0,0,0,2,0,,,,,0.0,0.0,0.0,0.0,0.0,0.0,0
55.953395,-4.403087,20.30,0.00,6.02,8.33,20.30,20.30,6.09,8.33,11316,2022-09-24 11:21:45.150,2022-09-24 12:21:45.149,18,0,0,15.790,55.953376,-4.402958,1.30,-4.40,-3.90,-8.40,5.20,-72.50,0,1,0,77,100,-9780,2528,15790,3075.50,12,P-GPS,1,0,85,0,660,0,0,1664018505149,3947,3931,3934,3925,0,0,27,,,,,,,0,0,0,84.00,52.00,-725.00,0.00,0.00,-688.00,6,203.00,60.22,83.31,13.00,-44.00,-39.00,0,,,100,100,0,2,0,0,0,2,0,,,,,0.0,0.0,0.0,0.0,0.0,0.0,0
55.953396,-4.403094,20.70,0.00,6.16,8.81,20.70,20.70,6.16,8.81,11408,2022-09-24 11:21:45.242,2022-09-24 12:21:45.241,18,0,0,15.737,55.953376,-4.402958,1.30,-4.50,-4.00,-2.60,5.10,-72.30,0,1,0,77,100,-10354,2525,15737,3076.50,12,P-GPS,1,0,0,0,660,0,0,1664018505241,3947,3931,3934,3925,0,0,27,,,,,,,0,0,0,26.00,51.00,-723.00,0.00,0.00,-688.00,6,207.00,61.60,88.11,13.00,-45.00,-40.00,0,,,100,100,0,2,0,0,0,2,0,,,,,0.0,0.0,0.0,0.0,0.0,0.0,0
55.953397,-4.403102,21.10,0.00,6.09,9.28,21.10,21.10,6.16,9.28,11511,2022-09-24 11:21:45.345,2022-09-24 12:21:45.344,18,0,0,15.737,55.953376,-4.402958,1.30,-4.40,-4.00,10.30,5.30,-71.60,0,1,0,77,100,-10354,2525,15737,3076.50,12,P-GPS,1,0,0,0,541,0,0,1664018505344,3947,3931,3934,3925,0,0,27,,,,,,,0,0,0,-103.00,53.00,-716.00,0.00,0.00,-688.00,6,211.00,60.87,92.79,13.00,-44.00,-40.00,0,,,100,100,0,2,0,0,0,2,0,,,,,0.0,0.0,0.0,0.0,0.0,0.0,0
55.953399,-4.403108,21.50,0.00,5.78,9.72,21.50,21.50,6.16,9.72,11608,2022-09-24 11:21:45.441,2022-09-24 12:21:45.441,18,0,0,15.737,55.953376,-4.402958,1.20,-4.10,-3.90,21.30,4.10,-71.30,0,1,0,77,100,-10354,2525,15737,3076.50,12,P-GPS,1,0,0,0,222,0,0,1664018505441,3947,3931,3934,3925,0,0,27,,,,,,,0,0,0,-213.00,41.00,-713.00,0.00,0.00,-688.00,6,215.00,57.84,97.23,12.00,-41.00,-39.00,0,,,100,100,0,2,0,0,0,2,0,,,,,0.0,0.0,0.0,0.0,0.0,0.0,0
55.953400,-4.403115,21.90,0.00,5.35,10.13,21.90,21.90,6.16,10.13,11698,2022-09-24 11:21:45.532,2022-09-24 12:21:45.531,18,0,0,15.737,55.953376,-4.402958,1.10,-3.70,-3.70,24.40,3.70,-71.40,0,1,0,77,100,-10354,2525,15737,3076.50,12,P-GPS,1,0,0,0,0,0,0,1664018505531,3947,3931,3934,3925,0,0,27,,,,,,,0,0,0,-244.00,37.00,-714.00,0.00,0.00,-688.00,6,219.00,53.47,101.27,11.00,-37.00,-37.00,0,,,100,100,0,2,0,0,0,2,0,,,,,0.0,0.0,0.0,0.0,0.0,0.0,0
55.953401,-4.403120,22.20,0.00,4.75,10.50,22.20,22.20,6.16,10.50,11806,2022-09-24 11:21:45.639,2022-09-24 12:21:45.639,18,0,0,15.737,55.953376,-4.402958,0.90,-3.30,-3.30,24.90,3.50,-71.50,0,1,0,77,100,-10354,2525,15737,3076.50,12,P-GPS,1,0,0,0,0,0,0,1664018505639,3947,3931,3934,3925,0,0,27,,,,,,,0,0,0,-249.00,35.00,-715.00,0.00,0.00,-688.00,6,222.00,47.53,105.00,9.00,-33.00,-33.00,0,,,100,100,0,2,0,0,0,2,0,,,,,0.0,0.0,0.0,0.0,0.0,0.0,0
55.953401,-4.403125,22.50,0.00,4.25,10.83,22.50,22.50,6.16,10.83,11912,2022-09-24 11:21:45.745,2022-09-24 12:21:45.745,18,0,0,15.737,55.953376,-4.402958,0.80,-3.00,-2.90,24.50,3.60,-71.60,0,1,0,77,100,-10354,2525,15737,3076.50,12,P-GPS,1,0,0,0,0,0,0,1664018505745,3947,3931,3934,3925,0,0,27,,,,,,,0,0,0,-245.00,36.00,-716.00,0.00,0.00,-688.00,6,225.00,42.49,108.26,8.00,-30.00,-29.00,0,,,100,100,0,2,0,0,0,2,0,,,,,0.0,0.0,0.0,0.0,0.0,0.0,0
55.953402,-4.403130,22.80,0.00,3.73,11.15,22.80,22.80,6.16,11.15,12020,2022-09-24 11:21:45.854,2022-09-24 12:21:45.853,18,0,0,15.737,55.953376,-4.402958,0.60,-2.70,-2.50,24.30,4.00,-71.50,0,1,0,77,100,-10354,2525,15737,3076.50,12,P-GPS,1,0,0,0,0,0,-27,1664018505853,3947,3931,3934,3925,0,0,27,,,,,,,0,0,0,-243.00,40.00,-715.00,0.00,0.00,-688.00,6,228.00,37.28,111.48,6.00,-27.00,-25.00,0,,,100,100,0,2,0,0,0,2,0,,,,,0.0,0.0,0.0,0.0,0.0,0.0,0
55.953403,-4.403134,23.00,0.00,3.16,11.41,23.00,23.00,6.16,11.41,12111,2022-09-24 11:21:45.944,2022-09-24 12:21:45.944,18,0,0,15.737,55.953376,-4.402958,0.50,-2.40,-2.00,24.10,4.40,-71.50,0,1,0,77,100,-10354,2525,15737,3076.50,12,P-GPS,1,0,0,0,0,0,-200,1664018505944,3947,3931,3934,3925,0,0,27,,,,,,,0,0,0,-241.00,44.00,-715.00,-1.00,0.00,-688.00,6,230.00,31.64,114.10,5.00,-24.00,-20.00,0,,,100,100,0,2,0,0,0,2,0,,,,,0.0,0.0,0.0,0.0,0.0,0.0,0
55.953403,-4.403139,23.10,0.00,2.75,11.68,23.10,23.10,6.16,11.68,12213,2022-09-24 11:21:46.047,2022-09-24 12:21:46.046,18,0,0,15.737,55.953376,-4.402958,0.40,-2.20,-1.60,23.80,4.70,-71.50,0,1,0,77,100,-10354,2525,15737,3076.50,12,P-GPS,1,0,0,0,0,0,-328,1664018506046,3947,3931,3934,3925,0,0,27,,,,,,,0,0,0,-238.00,47.00,-715.00,-8.00,0.00,-688.00,6,231.00,27.50,116.80,4.00,-22.00,-16.00,0,,,100,100,0,2,0,0,0,2,0,,,,,0.0,0.0,0.0,0.0,0.0,0.0,0
55.953404,-4.403142,23.20,0.00,2.32,11.89,23.20,23.20,6.16,11.89,12311,2022-09-24 11:21:46.144,2022-09-24 12:21:46.144,18,0,0,15.737,55.953376,-4.402958,0.40,-2.00,-1.10,23.50,5.10,-71.30,0,1,0,77,100,-10354,2525,15737,3076.50,12,P-GPS,1,0,0,0,0,0,-349,1664018506144,3947,3931,3934,3925,0,0,27,,,,,,,0,0,0,-235.00,51.00,-713.00,-19.00,0.00,-688.00,6,232.00,23.17,118.90,4.00,-20.00,-11.00,0,,,100,100,0,2,0,0,0,2,0,,,,,0.0,0.0,0.0,0.0,0.0,0.0,0
55.953404,-4.403146,23.30,0.00,1.83,12.12,23.30,23.30,6.16,12.12,12405,2022-09-24 11:21:46.239,2022-09-24 12:21:46.238,18,0,0,15.733,55.953376,-4.402958,0.30,-1.70,-0.60,23.30,5.60,-71.20,0,1,0,77,100,-10274,2522,15733,3076.50,12,P-GPS,1,0,0,0,0,0,0,1664018506238,3947,3931,3934,3925,0,0,27,,,,,,,0,0,0,-233.00,56.00,-712.00,-30.00,0.00,-688.00,6,233.00,18.28,121.20,3.00,-17.00,-6.00,0,,,100,100,0,2,0,0,0,2,0,,,,,0.0,0.0,0.0,0.0,0.0,0.0,0
55.953404,-4.403148,23.30,0.00,1.54,12.28,23.30,23.30,6.16,12.28,12516,2022-09-24 11:21:46.349,2022-09-24 12:21:46.349,18,0,0,15.733,55.953376,-4.402958,0.20,-1.50,-0.30,23.00,6.10,-71.00,0,1,0,77,100,-10274,2522,15733,3076.50,12,P-GPS,1,0,0,0,0,0,0,1664018506349,3947,3931,3934,3925,0,0,27,,,,,,,0,0,0,-230.00,61.00,-710.00,-36.00,0.00,-688.00,6,233.00,15.43,122.80,2.00,-15.00,-3.00,0,,,100,100,0,2,0,0,0,2,0,,,,,0.0,0.0,0.0,0.0,0.0,0.0,0
55.953404,-4.403151,23.40,0.00,1.21,12.45,23.40,23.40,6.16,12.45,12604,2022-09-24 11:21:46.438,2022-09-24 12:21:46.437,18,0,0,15.733,55.953376,-4.402958,0.10,-1.20,-0.10,20.10,5.80,-71.00,0,1,0,77,100,-10274,2522,15733,3076.50,12,P-GPS,1,0,0,0,0,0,0,1664018506437,3947,3931,3934,3925,0,0,27,,,,,,,0,0,0,-201.00,58.00,-710.00,-37.00,0.00,-688.00,6,234.00,12.08,124.47,1.00,-12.00,-1.00,0,,,100,100,0,2,0,0,0,2,0,,,,,0.0,0.0,0.0,0.0,0.0,0.0,0
55.953404,-4.403153,23.40,0.00,0.91,12.55,23.40,23.40,6.16,12.55,12701,2022-09-24 11:21:46.534,2022-09-24 12:21:46.534,18,0,0,15.733,55.953376,-4.402958,0.10,-0.90,0.00,15.80,5.80,-71.20,0,1,0,77,100,-10274,2522,15733,3076.50,12,P-GPS,1,0,0,0,0,0,0,1664018506534,3947,3931,3934,3925,0,0,27,,,,,,,0,0,0,-158.00,58.00,-712.00,-37.00,0.00,-688.00,6,234.00,9.06,125.47,1.00,-9.00,0.00,0,,,100,100,0,2,0,0,0,2,0,,,,,0.0,0.0,0.0,0.0,0.0,0.0,0
55.953404,-4.403154,23.40,0.00,0.70,12.65,23.40,23.40,6.16,12.65,12806,2022-09-24 11:21:46.639,2022-09-24 12:21:46.639,18,0,0,15.733,55.953376,-4.402958,0.00,-0.70,0.00,11.30,6.10,-71.50,0,1,0,77,100,-10274,2522,15733,3076.50,12,P-GPS,1,0,0,0,0,0,0,1664018506639,3947,3931,3934,3925,0,0,27,,,,,,,0,0,0,-113.00,61.00,-715.00,-37.00,0.00,-688.00,6,234.00,7.00,126.51,0.00,-7.00,0.00,0,,,100,100,0,2,0,0,0,2,0,,,,,0.0,0.0,0.0,0.0,0.0,0.0,0
55.953404,-4.403155,23.40,0.00,0.50,12.71,23.40,23.40,6.16,12.71,12909,2022-09-24 11:21:46.743,2022-09-24 12:21:46.742,18,0,0,15.733,55.953376,-4.402958,0.00,-0.50,0.00,7.80,6.20,-71.80,0,1,0,77,100,-10274,2522,15733,3076.50,12,P-GPS,1,0,0,0,0,0,0,1664018506742,3947,3931,3934,3925,0,0,27,,,,,,,0,0,0,-78.00,62.00,-718.00,-37.00,0.00,-688.00,6,234.00,5.00,127.05,0.00,-5.00,0.00,0,,,100,100,0,2,0,0,0,2,0,,,,,0.0,0.0,0.0,0.0,0.0,0.0,0
55.953403,-4.403157,23.40,0.00,0.40,12.77,23.40,23.40,6.16,12.77,13008,2022-09-24 11:21:46.841,2022-09-24 12:21:46.841,18,0,0,15.733,55.953376,-4.402958,0.00,-0.40,0.00,5.50,6.40,-72.00,0,1,0,77,100,-10274,2522,15733,3076.50,12,P-GPS,1,0,0,0,0,0,0,1664018506841,3947,3931,3934,3925,0,0,27,,,,,,,0,0,0,-55.00,64.00,-720.00,-37.00,0.00,-688.00,6,234.00,4.00,127.74,0.00,-4.00,0.00,0,,,100,100,0,2,0,0,0,2,0,,,,,0.0,0.0,0.0,0.0,0.0,0.0,0
55.953403,-4.403157,23.40,0.00,0.30,12.80,23.40,23.40,6.16,12.80,13100,2022-09-24 11:21:46.933,2022-09-24 12:21:46.933,18,0,0,15.733,55.953376,-4.402958,0.00,-0.30,0.00,3.80,6.60,-72.00,0,1,0,77,100,-10274,2522,15733,3076.50,12,P-GPS,1,0,0,0,0,0,0,1664018506933,3947,3931,3934,3925,0,0,27,,,,,,,0,0,0,-38.00,66.00,-720.00,-37.00,0.00,-688.00,6,234.00,3.00,128.03,0.00,-3.00,0.00,0,,,100,100,0,2,0,0,0,2,0,,,,,0.0,0.0,0.0,0.0,0.0,0.0,0
55.953402,-4.403158,23.40,0.00,0.22,12.81,23.40,23.40,6.16,12.81,13209,2022-09-24 11:21:47.042,2022-09-24 12:21:47.042,18,0,0,15.733,55.953376,-4.402958,-0.10,-0.20,0.00,2.80,6.60,-72.00,0,1,0,77,100,-10274,2522,15733,3076.50,12,P-GPS,1,0,0,0,0,0,0,1664018507042,3947,3931,3934,3925,0,0,27,,,,,,,0,0,0,-28.00,66.00,-720.00,-37.00,0.00,-688.00,6,234.00,2.24,128.15,-1.00,-2.00,0.00,0,,,100,100,0,2,0,0,0,2,0,,,,,0.0,0.0,0.0,0.0,0.0,0.0,0
55.953402,-4.403158,23.40,0.00,0.22,12.83,23.40,23.40,6.16,12.83,13303,2022-09-24 11:21:47.137,2022-09-24 12:21:47.136,18,0,0,15.733,55.953376,-4.402958,-0.10,-0.20,0.00,2.30,6.70,-72.10,0,1,0,77,100,-10274,2522,15733,3076.50,12,P-GPS,1,0,0,0,0,0,0,1664018507136,3947,3931,3934,3925,0,0,27,,,,,,,0,0,0,-23.00,67.00,-721.00,-37.00,0.00,-688.00,6,234.00,2.24,128.29,-1.00,-2.00,0.00,0,,,100,100,0,2,0,0,0,2,0,,,,,0.0,0.0,0.0,0.0,0.0,0.0,0
55.953401,-4.403158,23.40,0.00,0.14,12.81,23.40,23.40,6.16,12.83,13405,2022-09-24 11:21:47.239,2022-09-24 12:21:47.238,18,0,0,16.050,55.953376,-4.402958,-0.10,-0.10,0.00,1.40,6.70,-72.10,0,1,0,77,100,-4824,2519,16050,3076.50,12,P-GPS,1,0,0,0,0,0,0,1664018507238,3947,3931,3934,3925,0,0,27,,,,,,,0,0,0,-14.00,67.00,-721.00,-37.00,0.00,-688.00,6,234.00,1.41,128.14,-1.00,-1.00,0.00,0,,,100,100,0,2,0,0,0,2,0,,,,,0.0,0.0,0.0,0.0,0.0,0.0,0
55.953401,-4.403158,23.30,0.00,0.20,12.82,23.40,23.40,6.16,12.83,13517,2022-09-24 11:21:47.350,2022-09-24 12:21:47.350,18,0,0,16.050,55.953376,-4.402958,-0.20,0.00,0.00,1.00,6.80,-72.10,0,1,0,77,100,-4824,2519,16050,3076.50,12,P-GPS,1,0,0,0,0,0,0,1664018507350,3947,3931,3934,3925,0,0,27,,,,,,,0,0,0,-10.00,68.00,-721.00,-37.00,0.00,-688.00,6,233.00,2.00,128.16,-2.00,0.00,0.00,0,,,100,100,0,2,0,0,0,2,0,,,,,0.0,0.0,0.0,0.0,0.0,0.0,0
