latitude,longitude,altitude(m),ultrasonicHeight(m),speed(mps),distance(m),max_altitude(m),max_ascent(m),max_speed(mps),max_distance(m),time(millisecond),datetime(utc),datetime(local),satellites,pressure(Pa),temperature(F),voltage(v),home_latitude,home_longitude,velocityX(mps),velocityY(mps),velocityZ(mps),pitch(deg),roll(deg),yaw(deg),powerlevel,isflying,istakingphoto,remainPowerPercent,remainLifePercent,currentCurrent,currentElectricity,currentVoltage,batteryTemperature,dischargeCount,flightmode,isMotorsOn,isTakingVideo,Rc_elevator,Rc_aileron,Rc_throttle,Rc_rudder,Rc_gyro,timestamp,Battery_Cell1,Battery_Cell2,Battery_Cell3,Battery_Cell4,Battery_Cell5,Battery_Cell6,Dronetype,AppVersion,Planename,FlyControllerSerialNumber,RemoteSerialNumber,BatterySerialNumber,CENTER_BATTERY.productDate,CENTER_BATTERY.serialNo,CENTER_BATTERY.fullCapacity,CENTER_BATTERY.productDateRaw,pitchRaw,rollRaw,yawRaw,gimbalPitchRaw,gimbalRollRaw,gimbalYawRaw,flyState,altitudeRaw,speedRaw,distanceRaw,velocityXRaw,velocityYRaw,velocityZRaw,data_reuse,App_Tip,App_Warning,downlinkSignalQuality,uplinkSignalQuality,transmissionChannel,rcModeSwitch,rcHome,rcPause,rcTransform,rcJoystickMode,appMode,FlyControllerSerialNumber_legacy,RemoteSerialNumber_legacy,BatterySerialNumber_legacy,Battery2SerialNumber,frontAvoidDist,backAvoidDist,rightAvoidDist,leftAvoidDist,upAvoidDist,downAvoidDist,isBrakingToAvoid
55.937879,-4.406369,50.40,0.00,0.00,8.23,50.40,50.40,0.00,8.23,0,2022-08-20 15:16:12.687,2022-08-20 16:16:12.686,21,0,0,14.630,55.937875,-4.406500,0.00,0.00,0.00,3.90,7.70,136.10,0,1,0,0,0,-8336,872,14630,3156.50,10,P-GPS,1,1,0,0,0,0,0,1661008572686,0,0,0,0,0,0,27,Litchi_4.24.1-g,,,,null,,0,0,0,-39.00,77.00,1361.00,-887.00,0.00,1536.00,6,504.00,0.00,82.27,0.00,0.00,0.00,0,,,100,100,0,2,0,0,0,2,0,,,,null,0.0,0.0,0.0,0.0,0.0,0.0,0
55.937879,-4.406369,50.40,0.00,0.00,8.23,50.40,50.40,0.00,8.23,94,2022-08-20 15:16:12.781,2022-08-20 16:16:12.780,21,0,0,14.630,55.937875,-4.406500,0.00,0.00,0.00,4.20,7.80,136.10,0,1,0,0,0,-8336,872,14630,3156.50,10,P-GPS,1,1,0,0,0,0,0,1661008572780,0,0,0,0,0,0,27,Litchi_4.24.1-g,,,,null,,0,0,0,-42.00,78.00,1361.00,-887.00,0.00,1536.00,6,504.00,0.00,82.28,0.00,0.00,0.00,0,,,100,100,0,2,0,0,0,2,0,,,,null,0.0,0.0,0.0,0.0,0.0,0.0,0
55.937879,-4.406369,50.40,0.00,0.00,8.23,50.40,50.40,0.00,8.23,200,2022-08-20 15:16:12.886,2022-08-20 16:16:12.886,21,0,0,14.630,55.937875,-4.406500,0.00,0.00,0.00,4.60,8.10,136.20,0,1,0,0,0,-8336,872,14630,3156.50,10,P-GPS,1,1,0,0,0,0,0,1661008572886,0,0,0,0,0,0,27,Litchi_4.24.1-g,,,,null,,0,0,0,-46.00,81.00,1362.00,-887.00,0.00,1536.00,6,504.00,0.00,82.30,0.00,0.00,0.00,0,,,100,100,0,2,0,0,0,2,0,,,,null,0.0,0.0,0.0,0.0,0.0,0.0,0
55.937879,-4.406369,50.40,0.00,0.00,8.23,50.40,50.40,0.00,8.23,303,2022-08-20 15:16:12.990,2022-08-20 16:16:12.989,21,0,0,14.630,55.937875,-4.406500,0.00,0.00,0.00,4.70,8.30,136.20,0,1,0,0,0,-8336,872,14630,3156.50,10,P-GPS,1,1,0,0,0,0,0,1661008572989,0,0,0,0,0,0,27,Litchi_4.24.1-g,CJTMAVIC,,,0P2AFAL5340E87,,0,0,0,-47.00,83.00,1362.00,-887.00,0.00,1536.00,6,504.00,0.00,82.32,0.00,0.00,0.00,0,,,100,100,0,2,0,0,0,2,0,,,,null,0.0,0.0,0.0,0.0,0.0,0.0,0
55.937879,-4.406368,50.40,0.00,0.10,8.23,50.40,50.40,0.10,8.23,406,2022-08-20 15:16:13.092,2022-08-20 16:16:13.092,21,0,0,14.630,55.937875,-4.406500,0.00,0.00,0.10,4.70,8.30,136.30,0,1,0,0,0,-8336,872,14630,3156.50,10,P-GPS,1,1,0,0,0,0,0,1661008573092,0,0,0,0,0,0,27,Litchi_4.24.1-g,CJTMAVIC,163DFAS001K45C,0VECFAK0072T52,0P2AFAL5340E87,,0,0,0,-47.00,83.00,1363.00,-887.00,0.00,1536.00,6,504.00,1.00,82.34,0.00,0.00,1.00,0,,,100,100,0,2,0,0,0,2,0,,,,null,0.0,0.0,0.0,0.0,0.0,0.0,0
55.937879,-4.406369,50.40,0.00,0.00,8.23,50.40,50.40,0.10,8.23,504,2022-08-20 15:16:13.190,2022-08-20 16:16:13.190,21,0,0,14.630,55.937875,-4.406500,0.00,0.00,0.00,4.10,8.10,136.10,0,1,0,0,0,-8336,872,14630,3156.50,10,P-GPS,1,1,0,0,0,0,0,1661008573190,0,0,0,0,0,0,27,,,,,,,0,0,0,-41.00,81.00,1361.00,-887.00,0.00,1536.00,6,504.00,0.00,82.28,0.00,0.00,0.00,0,,,100,100,0,2,0,0,0,2,0,,,,,0.0,0.0,0.0,0.0,0.0,0.0,0
55.937879,-4.406369,50.40,0.00,0.00,8.23,50.40,50.40,0.10,8.23,597,2022-08-20 15:16:13.283,2022-08-20 16:16:13.283,21,0,0,14.630,55.937875,-4.406500,0.00,0.00,0.00,4.30,8.40,136.10,0,1,0,0,0,-8336,872,14630,3156.50,10,P-GPS,1,1,0,0,0,0,0,1661008573283,0,0,0,0,0,0,27,,,,,,,0,0,0,-43.00,84.00,1361.00,-887.00,0.00,1536.00,6,504.00,0.00,82.29,0.00,0.00,0.00,0,,,100,100,0,2,0,0,0,2,0,,,,,0.0,0.0,0.0,0.0,0.0,0.0,0
55.937879,-4.406368,50.50,0.00,0.00,8.24,50.50,50.50,0.10,8.24,699,2022-08-20 15:16:13.386,2022-08-20 16:16:13.385,21,0,0,14.639,55.937875,-4.406500,0.00,0.00,0.00,4.70,8.70,136.20,0,1,0,26,100,-8144,870,14639,3157.50,10,P-GPS,1,1,0,0,0,0,0,1661008573385,0,0,0,0,0,0,27,,,,,,,0,0,0,-47.00,87.00,1362.00,-887.00,0.00,1536.00,6,505.00,0.00,82.36,0.00,0.00,0.00,0,,,100,100,0,2,0,0,0,2,0,,,,,0.0,0.0,0.0,0.0,0.0,0.0,0
55.937879,-4.406368,50.40,0.00,0.10,8.24,50.50,50.50,0.10,8.24,800,2022-08-20 15:16:13.487,2022-08-20 16:16:13.487,21,0,0,14.639,55.937875,-4.406500,0.00,0.00,0.10,4.80,8.90,136.20,0,1,0,26,100,-8144,870,14639,3157.50,10,P-GPS,1,1,0,0,0,0,0,1661008573486,0,0,0,0,0,0,27,,,,,,,0,0,0,-48.00,89.00,1362.00,-887.00,0.00,1536.00,6,504.00,1.00,82.38,0.00,0.00,1.00,0,,,100,100,0,2,0,0,0,2,0,,,,,0.0,0.0,0.0,0.0,0.0,0.0,0
55.937879,-4.406369,50.50,0.00,0.10,8.23,50.50,50.50,0.10,8.24,894,2022-08-20 15:16:13.580,2022-08-20 16:16:13.580,21,0,0,14.639,55.937875,-4.406500,0.00,0.00,0.10,4.90,8.40,136.20,0,1,0,26,100,-8144,870,14639,3157.50,10,P-GPS,1,1,0,0,0,0,0,1661008573580,0,0,0,0,0,0,27,,,,,,,0,0,0,-49.00,84.00,1362.00,-887.00,0.00,1536.00,6,505.00,1.00,82.33,0.00,0.00,1.00,0,,,100,100,0,2,0,0,0,2,0,,,,,0.0,0.0,0.0,0.0,0.0,0.0,0
55.937879,-4.406369,50.50,0.00,0.10,8.23,50.50,50.50,0.10,8.24,996,2022-08-20 15:16:13.682,2022-08-20 16:16:13.682,21,0,0,14.639,55.937875,-4.406500,0.00,0.00,0.10,4.90,7.90,136.20,0,1,0,26,100,-8144,870,14639,3157.50,10,P-GPS,1,1,0,0,0,0,0,1661008573682,0,0,0,0,0,0,27,,,,,,,0,0,0,-49.00,79.00,1362.00,-887.00,0.00,1536.00,6,505.00,1.00,82.32,0.00,0.00,1.00,0,,,100,100,0,2,0,0,0,2,0,,,,,0.0,0.0,0.0,0.0,0.0,0.0,0
55.937879,-4.406368,50.40,0.00,0.10,8.23,50.50,50.50,0.10,8.24,1099,2022-08-20 15:16:13.785,2022-08-20 16:16:13.785,21,0,0,14.639,55.937875,-4.406500,0.00,0.00,0.10,4.80,7.40,136.20,0,1,0,26,100,-8144,870,14639,3157.50,10,P-GPS,1,1,0,0,0,0,0,1661008573785,0,0,0,0,0,0,27,,,,,,,0,0,0,-48.00,74.00,1362.00,-887.00,0.00,1536.00,6,504.00,1.00,82.35,0.00,0.00,1.00,0,,,100,100,0,2,0,0,0,2,0,,,,,0.0,0.0,0.0,0.0,0.0,0.0,0
55.937879,-4.406368,50.40,0.00,0.00,8.23,50.50,50.50,0.10,8.24,1198,2022-08-20 15:16:13.885,2022-08-20 16:16:13.884,21,0,0,14.639,55.937875,-4.406500,0.00,0.00,0.00,4.90,7.20,136.20,0,1,0,26,100,-8144,870,14639,3157.50,10,P-GPS,1,1,0,0,0,0,0,1661008573884,0,0,0,0,0,0,27,,,,,,,0,0,0,-49.00,72.00,1362.00,-887.00,0.00,1536.00,6,504.00,0.00,82.34,0.00,0.00,0.00,0,,,100,100,0,2,0,0,0,2,0,,,,,0.0,0.0,0.0,0.0,0.0,0.0,0
55.937879,-4.406369,50.40,0.00,0.00,8.23,50.50,50.50,0.10,8.24,1293,2022-08-20 15:16:13.980,2022-08-20 16:16:13.980,21,0,0,14.639,55.937875,-4.406500,0.00,0.00,0.00,4.90,7.50,136.20,0,1,0,26,100,-8144,870,14639,3157.50,10,P-GPS,1,1,0,0,0,0,0,1661008573979,0,0,0,0,0,0,27,,,,,,,0,0,0,-49.00,75.00,1362.00,-887.00,0.00,1536.00,6,504.00,0.00,82.30,0.00,0.00,0.00,0,,,100,100,0,2,0,0,0,2,0,,,,,0.0,0.0,0.0,0.0,0.0,0.0,0
55.937879,-4.406369,50.40,0.00,0.00,8.23,50.50,50.50,0.10,8.24,1394,2022-08-20 15:16:14.081,2022-08-20 16:16:14.080,21,0,0,14.639,55.937875,-4.406500,0.00,0.00,0.00,4.90,7.80,136.20,0,1,0,26,100,-8144,870,14639,3157.50,10,P-GPS,1,1,0,0,0,0,0,1661008574080,0,0,0,0,0,0,27,,,,,,,0,0,0,-49.00,78.00,1362.00,-887.00,0.00,1536.00,6,504.00,0.00,82.30,0.00,0.00,0.00,0,,,100,100,0,2,0,0,0,2,0,,,,,0.0,0.0,0.0,0.0,0.0,0.0,0
55.937879,-4.406369,50.40,0.00,0.00,8.22,50.50,50.50,0.10,8.24,1493,2022-08-20 15:16:14.179,2022-08-20 16:16:14.179,21,0,0,14.639,55.937875,-4.406500,0.00,0.00,0.00,4.60,7.80,136.10,0,1,0,26,100,-8144,870,14639,3157.50,10,P-GPS,1,1,0,0,0,0,0,1661008574179,0,0,0,0,0,0,27,,,,,,,0,0,0,-46.00,78.00,1361.00,-887.00,0.00,1536.00,6,504.00,0.00,82.23,0.00,0.00,0.00,0,,,100,100,0,2,0,0,0,2,0,,,,,0.0,0.0,0.0,0.0,0.0,0.0,0
55.937879,-4.406369,50.40,0.00,0.00,8.22,50.50,50.50,0.10,8.24,1592,2022-08-20 15:16:14.278,2022-08-20 16:16:14.278,21,0,0,14.639,55.937875,-4.406500,0.00,0.00,0.00,4.60,8.20,136.20,0,1,0,26,100,-8144,870,14639,3157.50,10,P-GPS,1,1,0,0,0,0,0,1661008574278,0,0,0,0,0,0,27,,,,,,,0,0,0,-46.00,82.00,1362.00,-887.00,0.00,1536.00,6,504.00,0.00,82.23,0.00,0.00,0.00,0,,,100,100,0,2,0,0,0,2,0,,,,,0.0,0.0,0.0,0.0,0.0,0.0,0
55.937879,-4.406369,50.50,0.00,0.00,8.22,50.50,50.50,0.10,8.24,1692,2022-08-20 15:16:14.379,2022-08-20 16:16:14.378,21,0,0,14.628,55.937875,-4.406500,0.00,0.00,0.00,4.80,8.40,136.30,0,1,0,26,100,-8056,867,14628,3156.50,10,P-GPS,1,1,0,0,0,0,0,1661008574378,0,0,0,0,0,0,27,,,,,,,0,0,0,-48.00,84.00,1363.00,-887.00,0.00,1536.00,6,505.00,0.00,82.17,0.00,0.00,0.00,0,,,100,100,0,2,0,0,0,2,0,,,,,0.0,0.0,0.0,0.0,0.0,0.0,0
55.937879,-4.406369,50.50,0.00,0.10,8.22,50.50,50.50,0.10,8.24,1792,2022-08-20 15:16:14.479,2022-08-20 16:16:14.478,21,0,0,14.628,55.937875,-4.406500,0.00,0.00,0.10,4.40,8.50,136.20,0,1,0,26,100,-8056,867,14628,3156.50,10,P-GPS,1,1,0,0,0,0,0,1661008574478,0,0,0,0,0,0,27,,,,,,,0,0,0,-44.00,85.00,1362.00,-887.00,0.00,1536.00,6,505.00,1.00,82.16,0.00,0.00,1.00,0,,,100,100,0,2,0,0,0,2,0,,,,,0.0,0.0,0.0,0.0,0.0,0.0,0
55.937879,-4.406369,50.50,0.00,0.10,8.22,50.50,50.50,0.10,8.24,1903,2022-08-20 15:16:14.589,2022-08-20 16:16:14.589,21,0,0,14.628,55.937875,-4.406500,0.00,0.00,0.10,4.20,8.30,136.20,0,1,0,26,100,-8056,867,14628,3156.50,10,P-GPS,1,1,0,0,0,0,0,1661008574589,0,0,0,0,0,0,27,,,,,,,0,0,0,-42.00,83.00,1362.00,-887.00,0.00,1536.00,6,505.00,1.00,82.18,0.00,0.00,1.00,0,,,100,100,0,2,0,0,0,2,0,,,,,0.0,0.0,0.0,0.0,0.0,0.0,0
55.937879,-4.406369,50.50,0.00,0.00,8.22,50.50,50.50,0.10,8.24,1995,2022-08-20 15:16:14.681,2022-08-20 16:16:14.681,21,0,0,14.628,55.937875,-4.406500,0.00,0.00,0.00,4.20,8.30,136.10,0,1,0,26,100,-8056,867,14628,3156.50,10,P-GPS,1,1,0,0,0,0,0,1661008574681,0,0,0,0,0,0,27,,,,,,,0,0,0,-42.00,83.00,1361.00,-887.00,0.00,1536.00,6,505.00,0.00,82.19,0.00,0.00,0.00,0,,,100,100,0,2,0,0,0,2,0,,,,,0.0,0.0,0.0,0.0,0.0,0.0,0
55.937879,-4.406369,50.50,0.00,0.00,8.22,50.50,50.50,0.10,8.24,2095,2022-08-20 15:16:14.781,2022-08-20 16:16:14.781,21,0,0,14.628,55.937875,-4.406500,0.00,0.00,0.00,4.30,8.20,136.10,0,1,0,26,100,-8056,867,14628,3156.50,10,P-GPS,1,1,0,0,0,0,0,1661008574781,0,0,0,0,0,0,27,,,,,,,0,0,0,-43.00,82.00,1361.00,-887.00,0.00,1536.00,6,505.00,0.00,82.21,0.00,0.00,0.00,0,,,100,100,0,2,0,0,0,2,0,,,,,0.0,0.0,0.0,0.0,0.0,0.0,0
55.937879,-4.406369,50.50,0.00,0.00,8.22,50.50,50.50,0.10,8.24,2195,2022-08-20 15:16:14.881,2022-08-20 16:16:14.881,21,0,0,14.628,55.937875,-4.406500,0.00,0.00,0.00,4.60,8.20,136.10,0,1,0,26,100,-8056,867,14628,3156.50,10,P-GPS,1,1,0,0,0,0,0,1661008574881,0,0,0,0,0,0,27,,,,,,,0,0,0,-46.00,82.00,1361.00,-887.00,0.00,1536.00,6,505.00,0.00,82.23,0.00,0.00,0.00,0,,,100,100,0,2,0,0,0,2,0,,,,,0.0,0.0,0.0,0.0,0.0,0.0,0
55.937879,-4.406368,50.50,0.00,0.00,8.23,50.50,50.50,0.10,8.24,2291,2022-08-20 15:16:14.978,2022-08-20 16:16:14.977,21,0,0,14.628,55.937875,-4.406500,0.00,0.00,0.00,4.80,8.20,136.10,0,1,0,26,100,-8056,867,14628,3156.50,10,P-GPS,1,1,0,0,0,0,0,1661008574977,0,0,0,0,0,0,27,,,,,,,0,0,0,-48.00,82.00,1361.00,-887.00,0.00,1536.00,6,505.00,0.00,82.34,0.00,0.00,0.00,0,,,100,100,0,2,0,0,0,2,0,,,,,0.0,0.0,0.0,0.0,0.0,0.0,0
55.937879,-4.406368,50.50,0.00,0.00,8.24,50.50,50.50,0.10,8.24,2392,2022-08-20 15:16:15.078,2022-08-20 16:16:15.078,21,0,0,14.628,55.937875,-4.406500,0.00,0.00,0.00,4.60,8.70,136.10,0,1,0,26,100,-8056,867,14628,3156.50,10,P-GPS,1,1,0,0,0,0,0,1661008575078,0,0,0,0,0,0,27,,,,,,,0,0,0,-46.00,87.00,1361.00,-887.00,0.00,1536.00,6,505.00,0.00,82.37,0.00,0.00,0.00,0,,,100,100,0,2,0,0,0,2,0,,,,,0.0,0.0,0.0,0.0,0.0,0.0,0
55.937879,-4.406368,50.50,0.00,0.10,8.25,50.50,50.50,0.10,8.25,2494,2022-08-20 15:16:15.181,2022-08-20 16:16:15.180,21,0,0,14.628,55.937875,-4.406500,0.00,0.00,0.10,4.80,9.00,136.10,0,1,0,26,100,-8056,867,14628,3156.50,10,P-GPS,1,1,0,0,0,0,0,1661008575180,0,0,0,0,0,0,27,,,,,,,0,0,0,-48.00,90.00,1361.00,-887.00,0.00,1536.00,6,505.00,1.00,82.47,0.00,0.00,1.00,0,,,100,100,0,2,0,0,0,2,0,,,,,0.0,0.0,0.0,0.0,0.0,0.0,0
55.937879,-4.406368,50.50,0.00,0.10,8.25,50.50,50.50,0.10,8.25,2594,2022-08-20 15:16:15.280,2022-08-20 16:16:15.280,21,0,0,14.628,55.937875,-4.406500,0.00,0.00,0.10,4.90,8.80,136.20,0,1,0,26,100,-8056,867,14628,3156.50,10,P-GPS,1,1,0,0,0,0,0,1661008575280,0,0,0,0,0,0,27,,,,,,,0,0,0,-49.00,88.00,1362.00,-887.00,0.00,1536.00,6,505.00,1.00,82.52,0.00,0.00,1.00,0,,,100,100,0,2,0,0,0,2,0,,,,,0.0,0.0,0.0,0.0,0.0,0.0,0
55.937879,-4.406368,50.50,0.00,0.10,8.26,50.50,50.50,0.10,8.26,2694,2022-08-20 15:16:15.381,2022-08-20 16:16:15.380,21,0,0,14.634,55.937875,-4.406500,0.00,0.00,0.10,5.00,8.70,136.20,0,1,0,26,100,-8065,865,14634,3156.50,10,P-GPS,1,1,0,0,0,0,0,1661008575380,0,0,0,0,0,0,27,,,,,,,0,0,0,-50.00,87.00,1362.00,-887.00,0.00,1536.00,6,505.00,1.00,82.57,0.00,0.00,1.00,0,,,100,100,0,2,0,0,0,2,0,,,,,0.0,0.0,0.0,0.0,0.0,0.0,0
55.937879,-4.406368,50.50,0.00,0.10,8.26,50.50,50.50,0.10,8.26,2795,2022-08-20 15:16:15.482,2022-08-20 16:16:15.481,21,0,0,14.634,55.937875,-4.406500,0.00,0.00,0.10,5.20,8.70,136.20,0,1,0,26,100,-8065,865,14634,3156.50,10,P-GPS,1,1,0,0,0,0,0,1661008575481,0,0,0,0,0,0,27,,,,,,,0,0,0,-52.00,87.00,1362.00,-887.00,0.00,1536.00,6,505.00,1.00,82.63,0.00,0.00,1.00,0,,,100,100,0,2,0,0,0,2,0,,,,,0.0,0.0,0.0,0.0,0.0,0.0,0
55.937879,-4.406368,50.50,0.00,0.10,8.27,50.50,50.50,0.10,8.27,2894,2022-08-20 15:16:15.581,2022-08-20 16:16:15.580,21,0,0,14.634,55.937875,-4.406500,0.00,0.00,0.10,5.10,8.40,136.20,0,1,0,26,100,-8065,865,14634,3156.50,10,P-GPS,1,1,0,0,0,0,0,1661008575580,0,0,0,0,0,0,27,,,,,,,0,0,0,-51.00,84.00,1362.00,-887.00,0.00,1536.00,6,505.00,1.00,82.72,0.00,0.00,1.00,0,,,100,100,0,2,0,0,0,2,0,,,,,0.0,0.0,0.0,0.0,0.0,0.0,0
55.937879,-4.406368,50.50,0.00,0.10,8.28,50.50,50.50,0.10,8.28,2992,2022-08-20 15:16:15.679,2022-08-20 16:16:15.678,21,0,0,14.634,55.937875,-4.406500,0.00,0.00,0.10,4.80,8.50,136.20,0,1,0,26,100,-8065,865,14634,3156.50,10,P-GPS,1,1,0,0,0,0,0,1661008575678,0,0,0,0,0,0,27,,,,,,,0,0,0,-48.00,85.00,1362.00,-887.00,0.00,1536.00,6,505.00,1.00,82.77,0.00,0.00,1.00,0,,,100,100,0,2,0,0,0,2,0,,,,,0.0,0.0,0.0,0.0,0.0,0.0,0
55.937879,-4.406368,50.50,0.00,0.00,8.28,50.50,50.50,0.10,8.28,3100,2022-08-20 15:16:15.786,2022-08-20 16:16:15.786,21,0,0,14.634,55.937875,-4.406500,0.00,0.00,0.00,4.80,8.40,136.10,0,1,0,26,100,-8065,865,14634,3156.50,10,P-GPS,1,1,0,0,0,0,0,1661008575786,0,0,0,0,0,0,27,,,,,,,0,0,0,-48.00,84.00,1361.00,-887.00,0.00,1536.00,6,505.00,0.00,82.83,0.00,0.00,0.00,0,,,100,100,0,2,0,0,0,2,0,,,,,0.0,0.0,0.0,0.0,0.0,0.0,0
55.937879,-4.406368,50.50,0.00,0.10,8.29,50.50,50.50,0.10,8.29,3197,2022-08-20 15:16:15.884,2022-08-20 16:16:15.883,21,0,0,14.634,55.937875,-4.406500,0.00,0.00,0.10,4.90,8.20,136.20,0,1,0,26,100,-8065,865,14634,3156.50,10,P-GPS,1,1,0,0,0,0,0,1661008575883,0,0,0,0,0,0,27,,,,,,,0,0,0,-49.00,82.00,1362.00,-887.00,0.00,1536.00,6,505.00,1.00,82.86,0.00,0.00,1.00,0,,,100,100,0,2,0,0,0,2,0,,,,,0.0,0.0,0.0,0.0,0.0,0.0,0
55.937879,-4.406368,50.50,0.00,0.10,8.28,50.50,50.50,0.10,8.29,3293,2022-08-20 15:16:15.979,2022-08-20 16:16:15.979,21,0,0,14.634,55.937875,-4.406500,0.00,0.00,0.10,4.70,8.00,136.10,0,1,0,26,100,-8065,865,14634,3156.50,10,P-GPS,1,1,0,0,0,0,0,1661008575979,0,0,0,0,0,0,27,,,,,,,0,0,0,-47.00,80.00,1361.00,-887.00,0.00,1536.00,6,505.00,1.00,82.81,0.00,0.00,1.00,0,,,100,100,0,2,0,0,0,2,0,,,,,0.0,0.0,0.0,0.0,0.0,0.0,0
55.937879,-4.406368,50.50,0.00,0.10,8.28,50.50,50.50,0.10,8.29,3394,2022-08-20 15:16:16.081,2022-08-20 16:16:16.080,21,0,0,14.634,55.937875,-4.406500,0.00,0.00,0.10,4.50,7.80,136.00,0,1,0,26,100,-8065,865,14634,3156.50,10,P-GPS,1,1,0,0,0,0,0,1661008576080,0,0,0,0,0,0,27,,,,,,,0,0,0,-45.00,78.00,1360.00,-887.00,0.00,1536.00,6,505.00,1.00,82.82,0.00,0.00,1.00,0,,,100,100,0,2,0,0,0,2,0,,,,,0.0,0.0,0.0,0.0,0.0,0.0,0
55.937879,-4.406368,50.50,0.00,0.10,8.28,50.50,50.50,0.10,8.29,3493,2022-08-20 15:16:16.180,2022-08-20 16:16:16.179,21,0,0,14.634,55.937875,-4.406500,0.00,0.00,0.10,4.40,7.90,136.00,0,1,0,26,100,-8065,865,14634,3156.50,10,P-GPS,1,1,0,0,0,0,0,1661008576179,0,0,0,0,0,0,27,,,,,,,0,0,0,-44.00,79.00,1360.00,-887.00,0.00,1536.00,6,505.00,1.00,82.81,0.00,0.00,1.00,0,,,100,100,0,2,0,0,0,2,0,,,,,0.0,0.0,0.0,0.0,0.0,0.0,0
55.937879,-4.406368,50.50,0.00,0.10,8.28,50.50,50.50,0.10,8.29,3593,2022-08-20 15:16:16.279,2022-08-20 16:16:16.279,21,0,0,14.634,55.937875,-4.406500,0.00,0.00,0.10,4.70,7.60,136.00,0,1,0,26,100,-8065,865,14634,3156.50,10,P-GPS,1,1,0,0,0,0,0,1661008576279,0,0,0,0,0,0,27,,,,,,,0,0,0,-47.00,76.00,1360.00,-887.00,0.00,1536.00,6,505.00,1.00,82.80,0.00,0.00,1.00,0,,,100,100,0,2,0,0,0,2,0,,,,,0.0,0.0,0.0,0.0,0.0,0.0,0
55.937879,-4.406368,50.50,0.00,0.10,8.28,50.50,50.50,0.10,8.29,3695,2022-08-20 15:16:16.381,2022-08-20 16:16:16.381,21,0,0,14.637,55.937875,-4.406500,0.00,0.00,0.10,4.90,7.30,136.00,0,1,0,26,100,-7887,863,14637,3156.50,10,P-GPS,1,1,0,0,0,0,0,1661008576381,0,0,0,0,0,0,27,,,,,,,0,0,0,-49.00,73.00,1360.00,-887.00,0.00,1536.00,6,505.00,1.00,82.76,0.00,0.00,1.00,0,,,100,100,0,2,0,0,0,2,0,,,,,0.0,0.0,0.0,0.0,0.0,0.0,0
55.937879,-4.406368,50.50,0.00,0.10,8.27,50.50,50.50,0.10,8.29,3793,2022-08-20 15:16:16.479,2022-08-20 16:16:16.479,21,0,0,14.637,55.937875,-4.406500,0.00,0.00,0.10,5.40,6.80,136.00,0,1,0,26,100,-7887,863,14637,3156.50,10,P-GPS,1,1,0,0,0,0,0,1661008576479,0,0,0,0,0,0,27,,,,,,,0,0,0,-54.00,68.00,1360.00,-887.00,0.00,1536.00,6,505.00,1.00,82.75,0.00,0.00,1.00,0,,,100,100,0,2,0,0,0,2,0,,,,,0.0,0.0,0.0,0.0,0.0,0.0,0
55.937879,-4.406368,50.50,0.00,0.10,8.26,50.50,50.50,0.10,8.29,3894,2022-08-20 15:16:16.581,2022-08-20 16:16:16.580,21,0,0,14.637,55.937875,-4.406500,0.00,0.00,0.10,5.30,6.50,136.00,0,1,0,26,100,-7887,863,14637,3156.50,10,P-GPS,1,1,0,0,0,0,0,1661008576580,0,0,0,0,0,0,27,,,,,,,0,0,0,-53.00,65.00,1360.00,-887.00,0.00,1536.00,6,505.00,1.00,82.65,0.00,0.00,1.00,0,,,100,100,0,2,0,0,0,2,0,,,,,0.0,0.0,0.0,0.0,0.0,0.0,0
55.937879,-4.406368,50.50,0.00,0.10,8.26,50.50,50.50,0.10,8.29,3995,2022-08-20 15:16:16.681,2022-08-20 16:16:16.681,21,0,0,14.637,55.937875,-4.406500,0.00,0.00,0.10,5.20,6.40,136.00,0,1,0,26,100,-7887,863,14637,3156.50,10,P-GPS,1,1,0,0,0,0,0,1661008576681,0,0,0,0,0,0,27,,,,,,,0,0,0,-52.00,64.00,1360.00,-887.00,0.00,1536.00,6,505.00,1.00,82.62,0.00,0.00,1.00,0,,,100,100,0,2,0,0,0,2,0,,,,,0.0,0.0,0.0,0.0,0.0,0.0,0
55.937879,-4.406368,50.50,0.00,0.10,8.25,50.50,50.50,0.10,8.29,4095,2022-08-20 15:16:16.782,2022-08-20 16:16:16.781,21,0,0,14.637,55.937875,-4.406500,0.00,0.00,0.10,5.30,6.10,136.00,0,1,0,26,100,-7887,863,14637,3156.50,10,P-GPS,1,1,0,0,0,0,0,1661008576781,0,0,0,0,0,0,27,,,,,,,0,0,0,-53.00,61.00,1360.00,-887.00,0.00,1536.00,6,505.00,1.00,82.54,0.00,0.00,1.00,0,,,100,100,0,2,0,0,0,2,0,,,,,0.0,0.0,0.0,0.0,0.0,0.0,0
55.937879,-4.406368,50.50,0.00,0.10,8.25,50.50,50.50,0.10,8.29,4196,2022-08-20 15:16:16.882,2022-08-20 16:16:16.882,21,0,0,14.637,55.937875,-4.406500,0.00,0.00,0.10,5.80,6.10,136.10,0,1,0,26,100,-7887,863,14637,3156.50,10,P-GPS,1,1,0,0,0,0,0,1661008576882,0,0,0,0,0,0,27,,,,,,,0,0,0,-58.00,61.00,1361.00,-887.00,0.00,1536.00,6,505.00,1.00,82.51,0.00,0.00,1.00,0,,,100,100,0,2,0,0,0,2,0,,,,,0.0,0.0,0.0,0.0,0.0,0.0,0
55.937879,-4.406368,50.50,0.00,0.10,8.24,50.50,50.50,0.10,8.29,4296,2022-08-20 15:16:16.982,2022-08-20 16:16:16.982,21,0,0,14.637,55.937875,-4.406500,0.00,0.00,0.10,5.40,5.80,136.00,0,1,0,26,100,-7887,863,14637,3156.50,10,P-GPS,1,1,0,0,0,0,0,1661008576982,0,0,0,0,0,0,27,,,,,,,0,0,0,-54.00,58.00,1360.00,-887.00,0.00,1536.00,6,505.00,1.00,82.37,0.00,0.00,1.00,0,,,100,100,0,2,0,0,0,2,0,,,,,0.0,0.0,0.0,0.0,0.0,0.0,0
55.937879,-4.406368,50.50,0.00,0.00,8.23,50.50,50.50,0.10,8.29,4395,2022-08-20 15:16:17.082,2022-08-20 16:16:17.081,21,0,0,14.637,55.937875,-4.406500,0.00,0.00,0.00,5.20,6.30,136.00,0,1,0,26,100,-7887,863,14637,3156.50,10,P-GPS,1,1,0,0,0,0,0,1661008577081,0,0,0,0,0,0,27,,,,,,,0,0,0,-52.00,63.00,1360.00,-887.00,0.00,1536.00,6,505.00,0.00,82.34,0.00,0.00,0.00,0,,,100,100,0,2,0,0,0,2,0,,,,,0.0,0.0,0.0,0.0,0.0,0.0,0
55.937879,-4.406369,50.50,0.00,0.10,8.23,50.50,50.50,0.10,8.29,4496,2022-08-20 15:16:17.182,2022-08-20 16:16:17.182,21,0,0,14.637,55.937875,-4.406500,0.00,0.00,0.10,5.50,6.90,136.10,0,1,0,26,100,-7887,863,14637,3156.50,10,P-GPS,1,1,0,0,0,0,0,1661008577182,0,0,0,0,0,0,27,,,,,,,0,0,0,-55.00,69.00,1361.00,-887.00,0.00,1536.00,6,505.00,1.00,82.26,0.00,0.00,1.00,0,,,100,100,0,2,0,0,0,2,0,,,,,0.0,0.0,0.0,0.0,0.0,0.0,0
55.937879,-4.406369,50.50,0.00,0.10,8.23,50.50,50.50,0.10,8.29,4598,2022-08-20 15:16:17.284,2022-08-20 16:16:17.284,21,0,0,14.637,55.937875,-4.406500,0.00,0.00,0.10,5.40,7.20,136.10,0,1,0,26,100,-7887,863,14637,3156.50,10,P-GPS,1,1,0,0,0,0,0,1661008577284,0,0,0,0,0,0,27,,,,,,,0,0,0,-54.00,72.00,1361.00,-887.00,0.00,1536.00,6,505.00,1.00,82.26,0.00,0.00,1.00,0,,,100,100,0,2,0,0,0,2,0,,,,,0.0,0.0,0.0,0.0,0.0,0.0,0
55.937879,-4.406369,50.50,0.00,0.10,8.23,50.50,50.50,0.10,8.29,4697,2022-08-20 15:16:17.384,2022-08-20 16:16:17.383,21,0,0,14.647,55.937875,-4.406500,0.00,0.00,0.10,5.10,7.50,136.10,0,1,0,26,100,-7810,860,14647,3157.50,10,P-GPS,1,1,0,0,0,0,0,1661008577383,0,0,0,0,0,0,27,,,,,,,0,0,0,-51.00,75.00,1361.00,-887.00,0.00,1536.00,6,505.00,1.00,82.28,0.00,0.00,1.00,0,,,100,100,0,2,0,0,0,2,0,,,,,0.0,0.0,0.0,0.0,0.0,0.0,0
55.937879,-4.406369,50.50,0.00,0.10,8.23,50.50,50.50,0.10,8.29,4796,2022-08-20 15:16:17.482,2022-08-20 16:16:17.482,21,0,0,14.647,55.937875,-4.406500,0.00,0.00,0.10,5.10,7.40,136.10,0,1,0,26,100,-7810,860,14647,3157.50,10,P-GPS,1,1,0,0,0,0,0,1661008577482,0,0,0,0,0,0,27,,,,,,,0,0,0,-51.00,74.00,1361.00,-887.00,0.00,1536.00,6,505.00,1.00,82.29,0.00,0.00,1.00,0,,,100,100,0,2,0,0,0,2,0,,,,,0.0,0.0,0.0,0.0,0.0,0.0,0
55.937879,-4.406368,50.50,0.00,0.10,8.23,50.50,50.50,0.10,8.29,4895,2022-08-20 15:16:17.581,2022-08-20 16:16:17.581,21,0,0,14.647,55.937875,-4.406500,0.00,0.00,0.10,5.10,7.50,136.10,0,1,0,26,100,-7810,860,14647,3157.50,10,P-GPS,1,1,0,0,0,0,0,1661008577581,0,0,0,0,0,0,27,,,,,,,0,0,0,-51.00,75.00,1361.00,-887.00,0.00,1536.00,6,505.00,1.00,82.34,0.00,0.00,1.00,0,,,100,100,0,2,0,0,0,2,0,,,,,0.0,0.0,0.0,0.0,0.0,0.0,0
55.937879,-4.406368,50.50,0.00,0.10,8.23,50.50,50.50,0.10,8.29,4995,2022-08-20 15:16:17.682,2022-08-20 16:16:17.681,21,0,0,14.647,55.937875,-4.406500,0.00,0.00,0.10,4.90,7.60,136.10,0,1,0,26,100,-7810,860,14647,3157.50,10,P-GPS,1,1,0,0,0,0,0,1661008577681,0,0,0,0,0,0,27,,,,,,,0,0,0,-49.00,76.00,1361.00,-887.00,0.00,1536.00,6,505.00,1.00,82.34,0.00,0.00,1.00,0,,,100,100,0,2,0,0,0,2,0,,,,,0.0,0.0,0.0,0.0,0.0,0.0,0
55.937879,-4.406368,50.50,0.00,0.10,8.23,50.50,50.50,0.10,8.29,5094,2022-08-20 15:16:17.780,2022-08-20 16:16:17.780,21,0,0,14.647,55.937875,-4.406500,0.00,0.00,0.10,4.60,7.50,136.00,0,1,0,26,100,-7810,860,14647,3157.50,10,P-GPS,1,1,0,0,0,0,0,1661008577780,0,0,0,0,0,0,27,,,,,,,0,0,0,-46.00,75.00,1360.00,-887.00,0.00,1536.00,6,505.00,1.00,82.32,0.00,0.00,1.00,0,,,100,100,0,2,0,0,0,2,0,,,,,0.0,0.0,0.0,0.0,0.0,0.0,0
55.937879,-4.406368,50.50,0.00,0.10,8.23,50.50,50.50,0.10,8.29,5180,2022-08-20 15:16:17.867,2022-08-20 16:16:17.866,21,0,0,14.647,55.937875,-4.406500,0.00,0.00,0.10,4.60,7.50,136.00,0,1,0,26,100,-7810,860,14647,3157.50,10,P-GPS,1,1,0,0,0,0,0,1661008577866,0,0,0,0,0,0,27,,,,,,,0,0,0,-46.00,75.00,1360.00,-887.00,0.00,1536.00,6,505.00,1.00,82.32,0.00,0.00,1.00,0,,,100,100,0,2,0,0,0,2,0,,,,,0.0,0.0,0.0,0.0,0.0,0.0,0
55.937879,-4.406368,50.50,0.00,0.10,8.24,50.50,50.50,0.10,8.29,5297,2022-08-20 15:16:17.983,2022-08-20 16:16:17.983,21,0,0,14.647,55.937875,-4.406500,0.00,0.00,0.10,5.50,7.60,136.10,0,1,0,26,100,-7810,860,14647,3157.50,10,P-GPS,1,1,0,0,0,0,0,1661008577983,3672,3675,3662,3650,0,0,27,,,,,,,0,0,0,-55.00,76.00,1361.00,-887.00,0.00,1536.00,6,505.00,1.00,82.35,0.00,0.00,1.00,0,,,100,100,0,2,0,0,0,2,0,,,,,0.0,0.0,0.0,0.0,0.0,0.0,0
55.937879,-4.406368,50.40,0.00,0.10,8.24,50.50,50.50,0.10,8.29,5396,2022-08-20 15:16:18.082,2022-08-20 16:16:18.082,21,0,0,14.647,55.937875,-4.406500,0.00,0.00,0.10,5.60,7.50,136.10,0,1,0,26,100,-7810,860,14647,3157.50,10,P-GPS,1,1,0,0,0,0,0,1661008578082,3672,3675,3662,3650,0,0,27,,,,,,,0,0,0,-56.00,75.00,1361.00,-887.00,0.00,1536.00,6,504.00,1.00,82.39,0.00,0.00,1.00,0,,,100,100,0,2,0,0,0,2,0,,,,,0.0,0.0,0.0,0.0,0.0,0.0,0
55.937879,-4.406368,50.40,0.00,0.10,8.24,50.50,50.50,0.10,8.29,5503,2022-08-20 15:16:18.189,2022-08-20 16:16:18.189,21,0,0,14.647,55.937875,-4.406500,0.00,0.00,0.10,5.80,7.20,136.20,0,1,0,26,100,-7810,860,14647,3157.50,10,P-GPS,1,1,0,0,0,0,0,1661008578189,3672,3675,3662,3650,0,0,27,,,,,,,0,0,0,-58.00,72.00,1362.00,-887.00,0.00,1536.00,6,504.00,1.00,82.42,0.00,0.00,1.00,0,,,100,100,0,2,0,0,0,2,0,,,,,0.0,0.0,0.0,0.0,0.0,0.0,0
55.937879,-4.406368,50.40,0.00,0.00,8.25,50.50,50.50,0.10,8.29,5594,2022-08-20 15:16:18.280,2022-08-20 16:16:18.280,21,0,0,14.647,55.937875,-4.406500,0.00,0.00,0.00,6.40,7.40,136.30,0,1,0,26,100,-7810,860,14647,3157.50,10,P-GPS,1,1,0,0,0,0,0,1661008578280,3672,3675,3662,3650,0,0,27,,,,,,,0,0,0,-64.00,74.00,1363.00,-887.00,0.00,1536.00,6,504.00,0.00,82.47,0.00,0.00,0.00,0,,,100,100,0,2,0,0,0,2,0,,,,,0.0,0.0,0.0,0.0,0.0,0.0,0
55.937879,-4.406368,50.50,0.00,0.00,8.25,50.50,50.50,0.10,8.29,5693,2022-08-20 15:16:18.379,2022-08-20 16:16:18.379,21,0,0,14.618,55.937875,-4.406500,0.00,0.00,0.00,6.50,7.80,136.30,0,1,0,26,100,-8225,858,14618,3157.50,10,P-GPS,1,1,0,0,0,0,0,1661008578379,3672,3675,3662,3650,0,0,27,,,,,,,0,0,0,-65.00,78.00,1363.00,-887.00,0.00,1536.00,6,505.00,0.00,82.53,0.00,0.00,0.00,0,,,100,100,0,2,0,0,0,2,0,,,,,0.0,0.0,0.0,0.0,0.0,0.0,0
55.937879,-4.406368,50.50,0.00,0.00,8.26,50.50,50.50,0.10,8.29,5793,2022-08-20 15:16:18.479,2022-08-20 16:16:18.479,21,0,0,14.618,55.937875,-4.406500,0.00,0.00,0.00,6.30,7.90,136.20,0,1,0,26,100,-8225,858,14618,3157.50,10,P-GPS,1,1,0,0,0,0,0,1661008578479,3672,3675,3662,3650,0,0,27,,,,,,,0,0,0,-63.00,79.00,1362.00,-887.00,0.00,1536.00,6,505.00,0.00,82.57,0.00,0.00,0.00,0,,,100,100,0,2,0,0,0,2,0,,,,,0.0,0.0,0.0,0.0,0.0,0.0,0
55.937879,-4.406368,50.50,0.00,0.00,8.26,50.50,50.50,0.10,8.29,5910,2022-08-20 15:16:18.596,2022-08-20 16:16:18.596,21,0,0,14.618,55.937875,-4.406500,0.00,0.00,0.00,6.00,7.80,136.20,0,1,0,26,100,-8225,858,14618,3157.50,10,P-GPS,1,1,0,0,0,0,0,1661008578596,3672,3675,3662,3650,0,0,27,,,,,,,0,0,0,-60.00,78.00,1362.00,-887.00,0.00,1536.00,6,505.00,0.00,82.65,0.00,0.00,0.00,0,,,100,100,0,2,0,0,0,2,0,,,,,0.0,0.0,0.0,0.0,0.0,0.0,0
55.937879,-4.406368,50.50,0.00,0.00,8.27,50.50,50.50,0.10,8.29,5994,2022-08-20 15:16:18.681,2022-08-20 16:16:18.680,21,0,0,14.618,55.937875,-4.406500,0.00,0.00,0.00,5.70,8.00,136.10,0,1,0,26,100,-8225,858,14618,3157.50,10,P-GPS,1,1,0,0,0,0,0,1661008578680,3672,3675,3662,3650,0,0,27,,,,,,,0,0,0,-57.00,80.00,1361.00,-887.00,0.00,1536.00,6,505.00,0.00,82.67,0.00,0.00,0.00,0,,,100,100,0,2,0,0,0,2,0,,,,,0.0,0.0,0.0,0.0,0.0,0.0,0
55.937879,-4.406368,50.50,0.00,0.10,8.27,50.50,50.50,0.10,8.29,6092,2022-08-20 15:16:18.778,2022-08-20 16:16:18.778,21,0,0,14.618,55.937875,-4.406500,0.00,0.00,0.10,5.70,8.10,136.10,0,1,0,26,100,-8225,858,14618,3157.50,10,P-GPS,1,1,0,0,0,0,0,1661008578778,3672,3675,3662,3650,0,0,27,,,,,,,0,0,0,-57.00,81.00,1361.00,-887.00,0.00,1536.00,6,505.00,1.00,82.72,0.00,0.00,1.00,0,,,100,100,0,2,0,0,0,2,0,,,,,0.0,0.0,0.0,0.0,0.0,0.0,0
55.937879,-4.406368,50.50,0.00,0.10,8.27,50.50,50.50,0.10,8.29,6198,2022-08-20 15:16:18.885,2022-08-20 16:16:18.884,21,0,0,14.618,55.937875,-4.406500,0.00,0.00,0.10,5.70,8.00,136.10,0,1,0,26,100,-8225,858,14618,3157.50,10,P-GPS,1,1,0,0,0,0,0,1661008578884,3672,3675,3662,3650,0,0,27,,,,,,,0,0,0,-57.00,80.00,1361.00,-887.00,0.00,1536.00,6,505.00,1.00,82.73,0.00,0.00,1.00,0,,,100,100,0,2,0,0,0,2,0,,,,,0.0,0.0,0.0,0.0,0.0,0.0,0
55.937879,-4.406368,50.50,0.00,0.10,8.27,50.50,50.50,0.10,8.29,6292,2022-08-20 15:16:18.978,2022-08-20 16:16:18.978,21,0,0,14.618,55.937875,-4.406500,0.00,0.00,0.10,5.70,7.80,136.20,0,1,0,26,100,-8225,858,14618,3157.50,10,P-GPS,1,1,0,0,0,0,0,1661008578978,3672,3675,3662,3650,0,0,27,,,,,,,0,0,0,-57.00,78.00,1362.00,-887.00,0.00,1536.00,6,505.00,1.00,82.73,0.00,0.00,1.00,0,,,100,100,0,2,0,0,0,2,0,,,,,0.0,0.0,0.0,0.0,0.0,0.0,0
55.937879,-4.406368,50.50,0.00,0.10,8.27,50.50,50.50,0.10,8.29,6393,2022-08-20 15:16:19.079,2022-08-20 16:16:19.079,21,0,0,14.618,55.937875,-4.406500,0.00,0.00,0.10,5.70,7.30,136.20,0,1,0,26,100,-8225,858,14618,3157.50,10,P-GPS,1,1,0,0,0,0,0,1661008579079,3672,3675,3662,3650,0,0,27,,,,,,,0,0,0,-57.00,73.00,1362.00,-887.00,0.00,1536.00,6,505.00,1.00,82.74,0.00,0.00,1.00,0,,,100,100,0,2,0,0,0,2,0,,,,,0.0,0.0,0.0,0.0,0.0,0.0,0
55.937879,-4.406368,50.50,0.00,0.10,8.29,50.50,50.50,0.10,8.29,6497,2022-08-20 15:16:19.183,2022-08-20 16:16:19.183,21,0,0,14.618,55.937875,-4.406500,0.00,0.00,0.10,5.40,7.40,136.10,0,1,0,26,100,-8225,858,14618,3157.50,10,P-GPS,1,1,0,0,0,0,0,1661008579183,3672,3675,3662,3650,0,0,27,,,,,,,0,0,0,-54.00,74.00,1361.00,-887.00,0.00,1536.00,6,505.00,1.00,82.87,0.00,0.00,1.00,0,,,100,100,0,2,0,0,0,2,0,,,,,0.0,0.0,0.0,0.0,0.0,0.0,0
55.937879,-4.406368,50.50,0.00,0.00,8.29,50.50,50.50,0.10,8.29,6591,2022-08-20 15:16:19.278,2022-08-20 16:16:19.277,21,0,0,14.618,55.937875,-4.406500,0.00,0.00,0.00,5.40,7.60,136.20,0,1,0,26,100,-8225,858,14618,3157.50,10,P-GPS,1,1,0,0,0,0,0,1661008579277,3672,3675,3662,3650,0,0,27,,,,,,,0,0,0,-54.00,76.00,1362.00,-887.00,0.00,1536.00,6,505.00,0.00,82.89,0.00,0.00,0.00,0,,,100,100,0,2,0,0,0,2,0,,,,,0.0,0.0,0.0,0.0,0.0,0.0,0
55.937879,-4.406367,50.50,0.00,0.00,8.30,50.50,50.50,0.10,8.30,6696,2022-08-20 15:16:19.382,2022-08-20 16:16:19.382,21,0,0,14.626,55.937875,-4.406500,0.00,0.00,0.00,5.60,7.70,136.20,0,1,0,26,100,-8548,856,14626,3156.50,10,P-GPS,1,1,0,0,0,0,0,1661008579382,3672,3675,3662,3650,0,0,27,,,,,,,0,0,0,-56.00,77.00,1362.00,-887.00,0.00,1536.00,6,505.00,0.00,82.97,0.00,0.00,0.00,0,,,100,100,0,2,0,0,0,2,0,,,,,0.0,0.0,0.0,0.0,0.0,0.0,0
55.937879,-4.406367,50.50,0.00,0.00,8.30,50.50,50.50,0.10,8.30,6814,2022-08-20 15:16:19.500,2022-08-20 16:16:19.500,21,0,0,14.626,55.937875,-4.406500,0.00,0.00,0.00,6.20,8.30,136.30,0,1,0,26,100,-8548,856,14626,3156.50,10,P-GPS,1,1,0,0,0,0,0,1661008579500,3672,3675,3662,3650,0,0,27,,,,,,,0,0,0,-62.00,83.00,1363.00,-887.00,0.00,1536.00,6,505.00,0.00,83.01,0.00,0.00,0.00,0,,,100,100,0,2,0,0,0,2,0,,,,,0.0,0.0,0.0,0.0,0.0,0.0,0
55.937879,-4.406367,50.50,0.00,0.10,8.31,50.50,50.50,0.10,8.31,6997,2022-08-20 15:16:19.684,2022-08-20 16:16:19.683,21,0,0,14.626,55.937875,-4.406500,0.00,0.00,0.10,6.20,8.30,136.30,0,1,0,26,100,-8548,856,14626,3156.50,10,P-GPS,1,1,0,0,0,0,0,1661008579683,3672,3675,3662,3650,0,0,27,,,,,,,0,0,0,-62.00,83.00,1363.00,-887.00,0.00,1536.00,6,505.00,1.00,83.05,0.00,0.00,1.00,0,,,100,100,0,2,0,0,0,2,0,,,,,0.0,0.0,0.0,0.0,0.0,0.0,0
55.937879,-4.406367,50.50,0.00,0.00,8.31,50.50,50.50,0.10,8.31,7100,2022-08-20 15:16:19.787,2022-08-20 16:16:19.786,21,0,0,14.626,55.937875,-4.406500,0.00,0.00,0.00,6.20,8.30,136.30,0,1,0,26,100,-8548,856,14626,3156.50,10,P-GPS,1,1,0,0,0,0,0,1661008579786,3672,3675,3662,3650,0,0,27,,,,,,,0,0,0,-62.00,83.00,1363.00,-887.00,0.00,1536.00,6,505.00,0.00,83.14,0.00,0.00,0.00,0,,,100,100,0,2,0,0,0,2,0,,,,,0.0,0.0,0.0,0.0,0.0,0.0,0
55.937879,-4.406367,50.50,0.00,0.00,8.32,50.50,50.50,0.10,8.32,7193,2022-08-20 15:16:19.880,2022-08-20 16:16:19.879,21,0,0,14.626,55.937875,-4.406500,0.00,0.00,0.00,5.90,9.10,136.20,0,1,0,26,100,-8548,856,14626,3156.50,10,P-GPS,1,1,0,0,0,0,0,1661008579879,3672,3675,3662,3650,0,0,27,,,,,,,0,0,0,-59.00,91.00,1362.00,-887.00,0.00,1536.00,6,505.00,0.00,83.21,0.00,0.00,0.00,0,,,100,100,0,2,0,0,0,2,0,,,,,0.0,0.0,0.0,0.0,0.0,0.0,0
55.937879,-4.406367,50.50,0.00,0.00,8.32,50.50,50.50,0.10,8.32,7299,2022-08-20 15:16:19.986,2022-08-20 16:16:19.985,21,0,0,14.626,55.937875,-4.406500,0.00,0.00,0.00,6.30,9.30,136.30,0,1,0,26,100,-8548,856,14626,3156.50,10,P-GPS,1,1,0,0,0,0,0,1661008579985,3672,3675,3662,3650,0,0,27,,,,,,,0,0,0,-63.00,93.00,1363.00,-887.00,0.00,1536.00,6,505.00,0.00,83.24,0.00,0.00,0.00,0,,,100,100,0,2,0,0,0,2,0,,,,,0.0,0.0,0.0,0.0,0.0,0.0,0
55.937879,-4.406367,50.50,0.00,0.10,8.33,50.50,50.50,0.10,8.33,7393,2022-08-20 15:16:20.079,2022-08-20 16:16:20.079,21,0,0,14.626,55.937875,-4.406500,0.00,0.10,0.00,6.80,9.50,136.60,0,1,0,26,100,-8548,856,14626,3156.50,10,P-GPS,1,1,0,0,0,0,0,1661008580079,3672,3675,3662,3650,0,0,27,,,,,,,0,0,0,-68.00,95.00,1366.00,-887.00,0.00,1536.00,6,505.00,1.00,83.35,0.00,1.00,0.00,0,,,100,100,0,2,0,0,0,2,0,,,,,0.0,0.0,0.0,0.0,0.0,0.0,0
55.937879,-4.406366,50.50,0.00,0.10,8.36,50.50,50.50,0.10,8.36,7495,2022-08-20 15:16:20.181,2022-08-20 16:16:20.181,21,0,0,14.626,55.937875,-4.406500,0.00,0.10,0.00,7.20,10.40,136.50,0,1,0,26,100,-8548,856,14626,3156.50,10,P-GPS,1,1,0,0,0,0,0,1661008580181,3672,3675,3662,3650,0,0,27,,,,,,,0,0,0,-72.00,104.00,1365.00,-887.00,0.00,1536.00,6,505.00,1.00,83.58,0.00,1.00,0.00,0,,,100,100,0,2,0,0,0,2,0,,,,,0.0,0.0,0.0,0.0,0.0,0.0,0
55.937879,-4.406366,50.50,0.00,0.20,8.38,50.50,50.50,0.20,8.38,7592,2022-08-20 15:16:20.279,2022-08-20 16:16:20.278,21,0,0,14.626,55.937875,-4.406500,0.00,0.20,0.00,8.50,11.90,136.90,0,1,0,26,100,-8548,856,14626,3156.50,10,P-GPS,1,1,0,0,0,0,0,1661008580278,3672,3675,3662,3650,0,0,27,,,,,,,0,0,0,-85.00,119.00,1369.00,-887.00,0.00,1536.00,6,505.00,2.00,83.77,0.00,2.00,0.00,0,,,100,100,0,2,0,0,0,2,0,,,,,0.0,0.0,0.0,0.0,0.0,0.0,0
55.937879,-4.406366,50.50,0.00,0.28,8.38,50.50,50.50,0.28,8.38,7698,2022-08-20 15:16:20.385,2022-08-20 16:16:20.384,21,0,0,14.629,55.937875,-4.406500,0.00,0.20,0.20,8.40,12.10,136.90,0,1,0,26,100,-8528,853,14629,3156.50,10,P-GPS,1,1,0,0,0,0,0,1661008580384,3672,3675,3662,3650,0,0,27,,,,,,,0,0,0,-84.00,121.00,1369.00,-887.00,0.00,1536.00,6,505.00,2.83,83.83,0.00,2.00,2.00,0,,,100,100,0,2,0,0,0,2,0,,,,,0.0,0.0,0.0,0.0,0.0,0.0,0
55.937879,-4.406366,50.50,0.00,0.14,8.40,50.50,50.50,0.28,8.40,7798,2022-08-20 15:16:20.484,2022-08-20 16:16:20.484,21,0,0,14.629,55.937875,-4.406500,0.00,0.10,0.10,7.50,12.10,136.50,0,1,0,26,100,-8528,853,14629,3156.50,10,P-GPS,1,1,0,0,0,0,0,1661008580484,3672,3675,3662,3650,0,0,27,,,,,,,0,0,0,-75.00,121.00,1365.00,-887.00,0.00,1536.00,6,505.00,1.41,84.02,0.00,1.00,1.00,0,,,100,100,0,2,0,0,0,2,0,,,,,0.0,0.0,0.0,0.0,0.0,0.0,0
55.937879,-4.406366,50.50,0.00,0.10,8.40,50.50,50.50,0.28,8.40,7896,2022-08-20 15:16:20.583,2022-08-20 16:16:20.583,21,0,0,14.629,55.937875,-4.406500,0.00,0.10,0.00,7.20,11.10,136.50,0,1,0,26,100,-8528,853,14629,3156.50,10,P-GPS,1,1,0,0,0,0,0,1661008580582,3672,3675,3662,3650,0,0,27,,,,,,,0,0,0,-72.00,111.00,1365.00,-887.00,0.00,1536.00,6,505.00,1.00,84.04,0.00,1.00,0.00,0,,,100,100,0,2,0,0,0,2,0,,,,,0.0,0.0,0.0,0.0,0.0,0.0,0
55.937879,-4.406366,50.50,0.00,0.10,8.41,50.50,50.50,0.28,8.41,7994,2022-08-20 15:16:20.680,2022-08-20 16:16:20.680,21,0,0,14.629,55.937875,-4.406500,0.00,0.10,0.00,7.70,10.80,136.60,0,1,0,26,100,-8528,853,14629,3156.50,10,P-GPS,1,1,0,0,0,0,0,1661008580680,3672,3675,3662,3650,0,0,27,,,,,,,0,0,0,-77.00,108.00,1366.00,-887.00,0.00,1536.00,6,505.00,1.00,84.14,0.00,1.00,0.00,0,,,100,100,0,2,0,0,0,2,0,,,,,0.0,0.0,0.0,0.0,0.0,0.0,0
55.937879,-4.406365,50.60,0.00,0.00,8.42,50.60,50.60,0.28,8.42,8094,2022-08-20 15:16:20.781,2022-08-20 16:16:20.780,21,0,0,14.629,55.937875,-4.406500,0.00,0.00,0.00,7.90,11.00,136.70,0,1,0,26,100,-8528,853,14629,3156.50,10,P-GPS,1,1,0,0,0,0,0,1661008580780,3672,3675,3662,3650,0,0,27,,,,,,,0,0,0,-79.00,110.00,1367.00,-887.00,0.00,1536.00,6,506.00,0.00,84.23,0.00,0.00,0.00,0,,,100,100,0,2,0,0,0,2,0,,,,,0.0,0.0,0.0,0.0,0.0,0.0,0
55.937879,-4.406365,50.50,0.00,0.00,8.43,50.60,50.60,0.28,8.43,8194,2022-08-20 15:16:20.881,2022-08-20 16:16:20.880,21,0,0,14.629,55.937875,-4.406500,0.00,0.00,0.00,7.40,10.50,136.70,0,1,0,26,100,-8528,853,14629,3156.50,10,P-GPS,1,1,0,0,0,0,0,1661008580880,3672,3675,3662,3650,0,0,27,,,,,,,0,0,0,-74.00,105.00,1367.00,-887.00,0.00,1536.00,6,505.00,0.00,84.26,0.00,0.00,0.00,0,,,100,100,0,2,0,0,0,2,0,,,,,0.0,0.0,0.0,0.0,0.0,0.0,0
55.937879,-4.406365,50.50,0.00,0.10,8.43,50.60,50.60,0.28,8.43,8295,2022-08-20 15:16:20.981,2022-08-20 16:16:20.981,21,0,0,14.629,55.937875,-4.406500,0.00,0.00,0.10,7.00,10.50,136.50,0,1,0,26,100,-8528,853,14629,3156.50,10,P-GPS,1,1,0,0,0,0,0,1661008580981,3672,3675,3662,3650,0,0,27,,,,,,,0,0,0,-70.00,105.00,1365.00,-887.00,0.00,1536.00,6,505.00,1.00,84.31,0.00,0.00,1.00,0,,,100,100,0,2,0,0,0,2,0,,,,,0.0,0.0,0.0,0.0,0.0,0.0,0
55.937879,-4.406365,50.50,0.00,0.10,8.43,50.60,50.60,0.28,8.43,8395,2022-08-20 15:16:21.082,2022-08-20 16:16:21.082,21,0,0,14.629,55.937875,-4.406500,0.00,0.00,0.10,6.10,10.60,136.20,0,1,0,26,100,-8528,853,14629,3156.50,10,P-GPS,1,1,0,0,0,0,0,1661008581081,3672,3675,3662,3650,0,0,27,,,,,,,0,0,0,-61.00,106.00,1362.00,-887.00,0.00,1536.00,6,505.00,1.00,84.28,0.00,0.00,1.00,0,,,100,100,0,2,0,0,0,2,0,,,,,0.0,0.0,0.0,0.0,0.0,0.0,0
55.937879,-4.406366,50.50,0.00,0.20,8.41,50.60,50.60,0.28,8.43,8493,2022-08-20 15:16:21.179,2022-08-20 16:16:21.179,21,0,0,14.629,55.937875,-4.406500,0.00,0.00,0.20,6.00,9.60,136.40,0,1,0,26,100,-8528,853,14629,3156.50,10,P-GPS,1,1,0,0,0,0,0,1661008581179,3672,3675,3662,3650,0,0,27,,,,,,,0,0,0,-60.00,96.00,1364.00,-887.00,0.00,1536.00,6,505.00,2.00,84.11,0.00,0.00,2.00,0,,,100,100,0,2,0,0,0,2,0,,,,,0.0,0.0,0.0,0.0,0.0,0.0,0
55.937879,-4.406366,50.40,0.00,0.20,8.40,50.60,50.60,0.28,8.43,8597,2022-08-20 15:16:21.284,2022-08-20 16:16:21.283,21,0,0,14.629,55.937875,-4.406500,0.00,0.00,0.20,5.10,9.60,136.20,0,1,0,26,100,-8528,853,14629,3156.50,10,P-GPS,1,1,0,0,0,0,0,1661008581283,3672,3675,3662,3650,0,0,27,,,,,,,0,0,0,-51.00,96.00,1362.00,-887.00,0.00,1536.00,6,504.00,2.00,84.03,0.00,0.00,2.00,0,,,100,100,0,2,0,0,0,2,0,,,,,0.0,0.0,0.0,0.0,0.0,0.0,0
55.937879,-4.406366,50.50,0.00,0.10,8.40,50.60,50.60,0.28,8.43,8695,2022-08-20 15:16:21.381,2022-08-20 16:16:21.381,21,0,0,14.675,55.937875,-4.406500,0.00,0.00,0.10,4.80,10.70,136.10,0,1,0,26,100,-7475,851,14675,3156.50,10,P-GPS,1,1,0,0,0,0,0,1661008581381,3672,3675,3662,3650,0,0,27,,,,,,,0,0,0,-48.00,107.00,1361.00,-887.00,0.00,1536.00,6,505.00,1.00,83.97,0.00,0.00,1.00,0,,,100,100,0,2,0,0,0,2,0,,,,,0.0,0.0,0.0,0.0,0.0,0.0,0
55.937879,-4.406366,50.50,0.00,0.30,8.39,50.60,50.60,0.30,8.43,8794,2022-08-20 15:16:21.481,2022-08-20 16:16:21.480,21,0,0,14.675,55.937875,-4.406500,0.00,0.00,0.30,5.10,10.40,136.20,0,1,0,26,100,-7475,851,14675,3156.50,10,P-GPS,1,1,0,0,0,0,0,1661008581480,3672,3675,3662,3650,0,0,27,,,,,,,0,0,0,-51.00,104.00,1362.00,-887.00,0.00,1536.00,6,505.00,3.00,83.88,0.00,0.00,3.00,0,,,100,100,0,2,0,0,0,2,0,,,,,0.0,0.0,0.0,0.0,0.0,0.0,0
55.937880,-4.406366,50.40,0.00,0.30,8.38,50.60,50.60,0.30,8.43,8891,2022-08-20 15:16:21.577,2022-08-20 16:16:21.577,21,0,0,14.675,55.937875,-4.406500,0.00,0.00,0.30,4.90,9.90,136.30,0,1,0,26,100,-7475,851,14675,3156.50,10,P-GPS,1,1,0,0,0,0,0,1661008581577,3672,3675,3662,3650,0,0,27,,,,,,,0,0,0,-49.00,99.00,1363.00,-887.00,0.00,1536.00,6,504.00,3.00,83.81,0.00,0.00,3.00,0,,,100,100,0,2,0,0,0,2,0,,,,,0.0,0.0,0.0,0.0,0.0,0.0,0
55.937879,-4.406366,50.40,0.00,0.20,8.37,50.60,50.60,0.30,8.43,8993,2022-08-20 15:16:21.680,2022-08-20 16:16:21.679,21,0,0,14.675,55.937875,-4.406500,0.00,0.00,0.20,5.70,9.40,136.30,0,1,0,26,100,-7475,851,14675,3156.50,10,P-GPS,1,1,0,0,0,0,0,1661008581679,3672,3675,3662,3650,0,0,27,,,,,,,0,0,0,-57.00,94.00,1363.00,-887.00,0.00,1536.00,6,504.00,2.00,83.72,0.00,0.00,2.00,0,,,100,100,0,2,0,0,0,2,0,,,,,0.0,0.0,0.0,0.0,0.0,0.0,0
55.937880,-4.406366,50.40,0.00,0.20,8.36,50.60,50.60,0.30,8.43,9095,2022-08-20 15:16:21.781,2022-08-20 16:16:21.781,21,0,0,14.675,55.937875,-4.406500,0.00,0.00,0.20,5.90,9.10,136.30,0,1,0,26,100,-7475,851,14675,3156.50,10,P-GPS,1,1,0,0,0,0,0,1661008581781,3672,3675,3662,3650,0,0,27,,,,,,,0,0,0,-59.00,91.00,1363.00,-887.00,0.00,1536.00,6,504.00,2.00,83.63,0.00,0.00,2.00,0,,,100,100,0,2,0,0,0,2,0,,,,,0.0,0.0,0.0,0.0,0.0,0.0,0
55.937879,-4.406367,50.40,0.00,0.00,8.36,50.60,50.60,0.30,8.43,9194,2022-08-20 15:16:21.880,2022-08-20 16:16:21.880,21,0,0,14.675,55.937875,-4.406500,0.00,0.00,0.00,5.00,8.40,135.90,0,1,0,26,100,-7475,851,14675,3156.50,10,P-GPS,1,1,0,0,0,0,0,1661008581880,3672,3675,3662,3650,0,0,27,,,,,,,0,0,0,-50.00,84.00,1359.00,-887.00,0.00,1536.00,6,504.00,0.00,83.57,0.00,0.00,0.00,0,,,100,100,0,2,0,0,0,2,0,,,,,0.0,0.0,0.0,0.0,0.0,0.0,0
55.937879,-4.406367,50.40,0.00,0.14,8.35,50.60,50.60,0.30,8.43,9294,2022-08-20 15:16:21.981,2022-08-20 16:16:21.980,21,0,0,14.675,55.937875,-4.406500,-0.10,0.00,-0.10,6.30,7.80,136.10,0,1,0,26,100,-7475,851,14675,3156.50,10,P-GPS,1,1,0,0,0,0,0,1661008581980,3672,3675,3662,3650,0,0,27,,,,,,,0,0,0,-63.00,78.00,1361.00,-887.00,0.00,1536.00,6,504.00,1.41,83.49,-1.00,0.00,-1.00,0,,,100,100,0,2,0,0,0,2,0,,,,,0.0,0.0,0.0,0.0,0.0,0.0,0
55.937879,-4.406367,50.50,0.00,0.14,8.35,50.60,50.60,0.30,8.43,9393,2022-08-20 15:16:22.080,2022-08-20 16:16:22.079,21,0,0,14.675,55.937875,-4.406500,0.00,0.10,-0.10,8.90,10.00,136.80,0,1,0,26,100,-7475,851,14675,3156.50,10,P-GPS,1,1,0,0,0,0,0,1661008582079,3672,3675,3662,3650,0,0,27,,,,,,,0,0,0,-89.00,100.00,1368.00,-887.00,0.00,1536.00,6,505.00,1.41,83.52,0.00,1.00,-1.00,0,,,100,100,0,2,0,0,0,2,0,,,,,0.0,0.0,0.0,0.0,0.0,0.0,0
55.937879,-4.406366,50.50,0.00,0.20,8.37,50.60,50.60,0.30,8.43,9499,2022-08-20 15:16:22.186,2022-08-20 16:16:22.185,21,0,0,14.675,55.937875,-4.406500,0.00,0.20,0.00,10.50,11.80,137.30,0,1,0,26,100,-7475,851,14675,3156.50,10,P-GPS,1,1,0,0,0,0,0,1661008582185,3672,3675,3662,3650,0,0,27,,,,,,,0,0,0,-105.00,118.00,1373.00,-887.00,0.00,1536.00,6,505.00,2.00,83.72,0.00,2.00,0.00,0,,,100,100,0,2,0,0,0,2,0,,,,,0.0,0.0,0.0,0.0,0.0,0.0,0
55.937879,-4.406366,50.50,0.00,0.22,8.39,50.60,50.60,0.30,8.43,9592,2022-08-20 15:16:22.279,2022-08-20 16:16:22.278,21,0,0,14.675,55.937875,-4.406500,0.00,0.20,0.10,10.10,11.70,137.00,0,1,0,26,100,-7475,851,14675,3156.50,10,P-GPS,1,1,0,0,0,0,0,1661008582278,3672,3675,3662,3650,0,0,27,,,,,,,0,0,0,-101.00,117.00,1370.00,-887.00,0.00,1536.00,6,505.00,2.24,83.91,0.00,2.00,1.00,0,,,100,100,0,2,0,0,0,2,0,,,,,0.0,0.0,0.0,0.0,0.0,0.0,0
55.937879,-4.406366,50.40,0.00,0.10,8.40,50.60,50.60,0.30,8.43,9701,2022-08-20 15:16:22.387,2022-08-20 16:16:22.387,21,0,0,14.534,55.937875,-4.406500,0.00,0.10,0.00,8.80,11.40,136.50,0,1,0,26,100,-9584,849,14534,3156.50,10,P-GPS,1,1,0,0,0,0,0,1661008582387,3672,3675,3662,3650,0,0,27,,,,,,,0,0,0,-88.00,114.00,1365.00,-887.00,0.00,1536.00,6,504.00,1.00,83.96,0.00,1.00,0.00,0,,,100,100,0,2,0,0,0,2,0,,,,,0.0,0.0,0.0,0.0,0.0,0.0,0
55.937879,-4.406366,50.50,0.00,0.14,8.41,50.60,50.60,0.30,8.43,9794,2022-08-20 15:16:22.480,2022-08-20 16:16:22.480,21,0,0,14.534,55.937875,-4.406500,0.00,0.10,-0.10,9.40,11.20,136.70,0,1,0,26,100,-9584,849,14534,3156.50,10,P-GPS,1,1,0,0,0,0,0,1661008582480,3672,3675,3662,3650,0,0,27,,,,,,,0,0,0,-94.00,112.00,1367.00,-887.00,0.00,1536.00,6,505.00,1.41,84.06,0.00,1.00,-1.00,0,,,100,100,0,2,0,0,0,2,0,,,,,0.0,0.0,0.0,0.0,0.0,0.0,0
55.937879,-4.406366,50.50,0.00,0.10,8.41,50.60,50.60,0.30,8.43,9896,2022-08-20 15:16:22.583,2022-08-20 16:16:22.582,21,0,0,14.534,55.937875,-4.406500,-0.10,0.00,0.00,10.00,11.40,136.70,0,1,0,26,100,-9584,849,14534,3156.50,10,P-GPS,1,1,0,0,0,0,0,1661008582582,3672,3675,3662,3650,0,0,27,,,,,,,0,0,0,-100.00,114.00,1367.00,-887.00,0.00,1536.00,6,505.00,1.00,84.07,-1.00,0.00,0.00,0,,,100,100,0,2,0,0,0,2,0,,,,,0.0,0.0,0.0,0.0,0.0,0.0,0
55.937879,-4.406366,50.50,0.00,0.10,8.41,50.60,50.60,0.30,8.43,9996,2022-08-20 15:16:22.682,2022-08-20 16:16:22.682,21,0,0,14.534,55.937875,-4.406500,-0.10,0.00,0.00,10.90,10.80,137.10,0,1,0,26,100,-9584,849,14534,3156.50,10,P-GPS,1,1,0,0,0,0,0,1661008582682,3672,3675,3662,3650,0,0,27,,,,,,,0,0,0,-109.00,108.00,1371.00,-887.00,0.00,1536.00,6,505.00,1.00,84.11,-1.00,0.00,0.00,0,,,100,100,0,2,0,0,0,2,0,,,,,0.0,0.0,0.0,0.0,0.0,0.0,0
55.937879,-4.406366,50.50,0.00,0.22,8.41,50.60,50.60,0.30,8.43,10098,2022-08-20 15:16:22.784,2022-08-20 16:16:22.784,21,0,0,14.534,55.937875,-4.406500,-0.10,0.00,0.20,10.70,9.80,137.00,0,1,0,26,100,-9584,849,14534,3156.50,10,P-GPS,1,1,0,0,0,0,0,1661008582784,3672,3675,3662,3650,0,0,27,,,,,,,0,0,0,-107.00,98.00,1370.00,-887.00,0.00,1536.00,6,505.00,2.24,84.15,-1.00,0.00,2.00,0,,,100,100,0,2,0,0,0,2,0,,,,,0.0,0.0,0.0,0.0,0.0,0.0,0
55.937879,-4.406366,50.40,0.00,0.22,8.41,50.60,50.60,0.30,8.43,10193,2022-08-20 15:16:22.879,2022-08-20 16:16:22.879,21,0,0,14.534,55.937875,-4.406500,-0.10,0.00,0.20,9.80,8.90,136.90,0,1,0,26,100,-9584,849,14534,3156.50,10,P-GPS,1,1,0,0,0,0,0,1661008582879,3672,3675,3662,3650,0,0,27,,,,,,,0,0,0,-98.00,89.00,1369.00,-887.00,0.00,1536.00,6,504.00,2.24,84.15,-1.00,0.00,2.00,0,,,100,100,0,2,0,0,0,2,0,,,,,0.0,0.0,0.0,0.0,0.0,0.0,0
55.937878,-4.406365,50.40,0.00,0.14,8.42,50.60,50.60,0.30,8.43,10296,2022-08-20 15:16:22.982,2022-08-20 16:16:22.982,21,0,0,14.534,55.937875,-4.406500,-0.10,0.00,0.10,9.30,8.40,136.60,0,1,0,26,100,-9584,849,14534,3156.50,10,P-GPS,1,1,0,0,0,0,0,1661008582982,3672,3675,3662,3650,0,0,27,,,,,,,0,0,0,-93.00,84.00,1366.00,-887.00,0.00,1536.00,6,504.00,1.41,84.19,-1.00,0.00,1.00,0,,,100,100,0,2,0,0,0,2,0,,,,,0.0,0.0,0.0,0.0,0.0,0.0,0
55.937878,-4.406366,50.30,0.00,0.14,8.41,50.60,50.60,0.30,8.43,10395,2022-08-20 15:16:23.082,2022-08-20 16:16:23.081,21,0,0,14.534,55.937875,-4.406500,-0.10,0.00,0.10,9.80,8.00,136.70,0,1,0,26,100,-9584,849,14534,3156.50,10,P-GPS,1,1,0,0,0,0,0,1661008583081,3672,3675,3662,3650,0,0,27,,,,,,,0,0,0,-98.00,80.00,1367.00,-887.00,0.00,1536.00,6,503.00,1.41,84.15,-1.00,0.00,1.00,0,,,100,100,0,2,0,0,0,2,0,,,,,0.0,0.0,0.0,0.0,0.0,0.0,0
55.937878,-4.406365,50.30,0.00,0.10,8.42,50.60,50.60,0.30,8.43,10496,2022-08-20 15:16:23.182,2022-08-20 16:16:23.182,21,0,0,14.534,55.937875,-4.406500,0.00,0.00,0.10,10.10,8.50,136.90,0,1,0,26,100,-9584,849,14534,3156.50,10,P-GPS,1,1,0,0,0,0,0,1661008583182,3672,3675,3662,3650,0,0,27,,,,,,,0,0,0,-101.00,85.00,1369.00,-887.00,0.00,1536.00,6,503.00,1.00,84.19,0.00,0.00,1.00,0,,,100,100,0,2,0,0,0,2,0,,,,,0.0,0.0,0.0,0.0,0.0,0.0,0
55.937878,-4.406365,50.30,0.00,0.20,8.42,50.60,50.60,0.30,8.43,10596,2022-08-20 15:16:23.283,2022-08-20 16:16:23.282,21,0,0,14.534,55.937875,-4.406500,0.00,0.00,0.20,10.40,9.90,136.80,0,1,0,26,100,-9584,849,14534,3156.50,10,P-GPS,1,1,0,0,0,0,0,1661008583282,3672,3675,3662,3650,0,0,27,,,,,,,0,0,0,-104.00,99.00,1368.00,-887.00,0.00,1536.00,6,503.00,2.00,84.22,0.00,0.00,2.00,0,,,100,100,0,2,0,0,0,2,0,,,,,0.0,0.0,0.0,0.0,0.0,0.0,0
55.937878,-4.406365,50.30,0.00,0.20,8.43,50.60,50.60,0.30,8.43,10698,2022-08-20 15:16:23.384,2022-08-20 16:16:23.384,21,0,0,14.605,55.937875,-4.406500,0.00,0.00,0.20,9.90,9.80,136.60,0,1,0,26,100,-7885,846,14605,3156.50,10,P-GPS,1,1,0,0,0,0,0,1661008583384,3672,3675,3662,3650,0,0,27,,,,,,,0,0,0,-99.00,98.00,1366.00,-887.00,0.00,1536.00,6,503.00,2.00,84.27,0.00,0.00,2.00,0,,,100,100,0,2,0,0,0,2,0,,,,,0.0,0.0,0.0,0.0,0.0,0.0,0
55.937878,-4.406365,50.30,0.00,0.00,8.43,50.60,50.60,0.30,8.43,10802,2022-08-20 15:16:23.488,2022-08-20 16:16:23.488,21,0,0,14.605,55.937875,-4.406500,0.00,0.00,0.00,9.90,9.70,136.50,0,1,0,26,100,-7885,846,14605,3156.50,10,P-GPS,1,1,0,0,0,0,0,1661008583488,3672,3675,3662,3650,0,0,27,,,,,,,0,0,0,-99.00,97.00,1365.00,-887.00,0.00,1536.00,6,503.00,0.00,84.30,0.00,0.00,0.00,0,,,100,100,0,2,0,0,0,2,0,,,,,0.0,0.0,0.0,0.0,0.0,0.0,0
55.937878,-4.406365,50.30,0.00,0.00,8.42,50.60,50.60,0.30,8.43,10896,2022-08-20 15:16:23.583,2022-08-20 16:16:23.582,21,0,0,14.605,55.937875,-4.406500,0.00,0.00,0.00,9.80,9.80,136.60,0,1,0,26,100,-7885,846,14605,3156.50,10,P-GPS,1,1,0,0,0,0,0,1661008583582,3672,3675,3662,3650,0,0,27,,,,,,,0,0,0,-98.00,98.00,1366.00,-887.00,0.00,1536.00,6,503.00,0.00,84.19,0.00,0.00,0.00,0,,,100,100,0,2,0,0,0,2,0,,,,,0.0,0.0,0.0,0.0,0.0,0.0,0
55.937878,-4.406365,50.30,0.00,0.00,8.42,50.60,50.60,0.30,8.43,10996,2022-08-20 15:16:23.683,2022-08-20 16:16:23.682,21,0,0,14.605,55.937875,-4.406500,0.00,0.00,0.00,10.20,9.70,136.70,0,1,0,26,100,-7885,846,14605,3156.50,10,P-GPS,1,1,0,0,0,0,0,1661008583682,3672,3675,3662,3650,0,0,27,,,,,,,0,0,0,-102.00,97.00,1367.00,-887.00,0.00,1536.00,6,503.00,0.00,84.21,0.00,0.00,0.00,0,,,100,100,0,2,0,0,0,2,0,,,,,0.0,0.0,0.0,0.0,0.0,0.0,0
55.937878,-4.406365,50.30,0.00,0.00,8.43,50.60,50.60,0.30,8.43,11094,2022-08-20 15:16:23.781,2022-08-20 16:16:23.780,21,0,0,14.605,55.937875,-4.406500,0.00,0.00,0.00,9.40,9.10,136.20,0,1,0,26,100,-7885,846,14605,3156.50,10,P-GPS,1,1,0,0,0,0,0,1661008583780,3672,3675,3662,3650,0,0,27,,,,,,,0,0,0,-94.00,91.00,1362.00,-887.00,0.00,1536.00,6,503.00,0.00,84.29,0.00,0.00,0.00,0,,,100,100,0,2,0,0,0,2,0,,,,,0.0,0.0,0.0,0.0,0.0,0.0,0
55.937878,-4.406365,50.30,0.00,0.10,8.43,50.60,50.60,0.30,8.43,11194,2022-08-20 15:16:23.881,2022-08-20 16:16:23.880,21,0,0,14.605,55.937875,-4.406500,-0.10,0.00,0.00,9.80,7.60,136.20,0,1,0,26,100,-7885,846,14605,3156.50,10,P-GPS,1,1,0,0,0,0,0,1661008583880,3672,3675,3662,3650,0,0,27,,,,,,,0,0,0,-98.00,76.00,1362.00,-887.00,0.00,1536.00,6,503.00,1.00,84.26,-1.00,0.00,0.00,0,,,100,100,0,2,0,0,0,2,0,,,,,0.0,0.0,0.0,0.0,0.0,0.0,0
55.937878,-4.406366,50.30,0.00,0.10,8.41,50.60,50.60,0.30,8.43,11295,2022-08-20 15:16:23.982,2022-08-20 16:16:23.981,21,0,0,14.605,55.937875,-4.406500,-0.10,0.00,0.00,11.10,6.30,136.50,0,1,0,26,100,-7885,846,14605,3156.50,10,P-GPS,1,1,0,0,0,0,0,1661008583981,3672,3675,3662,3650,0,0,27,,,,,,,0,0,0,-111.00,63.00,1365.00,-887.00,0.00,1536.00,6,503.00,1.00,84.11,-1.00,0.00,0.00,0,,,100,100,0,2,0,0,0,2,0,,,,,0.0,0.0,0.0,0.0,0.0,0.0,0
55.937878,-4.406366,50.30,0.00,0.00,8.40,50.60,50.60,0.30,8.43,11397,2022-08-20 15:16:24.083,2022-08-20 16:16:24.083,21,0,0,14.605,55.937875,-4.406500,0.00,0.00,0.00,11.10,6.10,136.60,0,1,0,26,100,-7885,846,14605,3156.50,10,P-GPS,1,1,0,0,0,0,0,1661008584083,3672,3675,3662,3650,0,0,27,,,,,,,0,0,0,-111.00,61.00,1366.00,-887.00,0.00,1536.00,6,503.00,0.00,84.00,0.00,0.00,0.00,0,,,100,100,0,2,0,0,0,2,0,,,,,0.0,0.0,0.0,0.0,0.0,0.0,0
55.937878,-4.406366,50.30,0.00,0.10,8.39,50.60,50.60,0.30,8.43,11500,2022-08-20 15:16:24.187,2022-08-20 16:16:24.186,21,0,0,14.605,55.937875,-4.406500,0.00,-0.10,0.00,9.50,7.10,136.50,0,1,0,26,100,-7885,846,14605,3156.50,10,P-GPS,1,1,0,0,0,0,0,1661008584186,3672,3675,3662,3650,0,0,27,,,,,,,0,0,0,-95.00,71.00,1365.00,-887.00,0.00,1536.00,6,503.00,1.00,83.87,0.00,-1.00,0.00,0,,,100,100,0,2,0,0,0,2,0,,,,,0.0,0.0,0.0,0.0,0.0,0.0,0
55.937878,-4.406366,50.30,0.00,0.00,8.38,50.60,50.60,0.30,8.43,11596,2022-08-20 15:16:24.283,2022-08-20 16:16:24.282,21,0,0,14.605,55.937875,-4.406500,0.00,0.00,0.00,8.30,8.30,136.50,0,1,0,26,100,-7885,846,14605,3156.50,10,P-GPS,1,1,0,0,0,0,0,1661008584282,3672,3675,3662,3650,0,0,27,,,,,,,0,0,0,-83.00,83.00,1365.00,-887.00,0.00,1536.00,6,503.00,0.00,83.76,0.00,0.00,0.00,0,,,100,100,0,2,0,0,0,2,0,,,,,0.0,0.0,0.0,0.0,0.0,0.0,0
55.937878,-4.406366,50.20,0.00,0.14,8.36,50.60,50.60,0.30,8.43,11699,2022-08-20 15:16:24.386,2022-08-20 16:16:24.386,21,0,0,14.605,55.937875,-4.406500,0.10,0.00,0.10,7.20,8.70,136.30,0,1,0,26,100,-7885,846,14605,3156.50,10,P-GPS,1,1,0,0,0,0,0,1661008584385,3672,3675,3662,3650,0,0,27,,,,,,,0,0,0,-72.00,87.00,1363.00,-887.00,0.00,1536.00,6,502.00,1.41,83.62,1.00,0.00,1.00,0,,,100,100,0,2,0,0,0,2,0,,,,,0.0,0.0,0.0,0.0,0.0,0.0,0
55.937878,-4.406366,50.30,0.00,0.10,8.35,50.60,50.60,0.30,8.43,11793,2022-08-20 15:16:24.480,2022-08-20 16:16:24.480,21,0,0,14.605,55.937875,-4.406500,0.10,0.00,0.00,6.30,9.30,136.40,0,1,0,26,100,-7885,846,14605,3156.50,10,P-GPS,1,1,0,0,0,0,0,1661008584479,3672,3675,3662,3650,0,0,27,,,,,,,0,0,0,-63.00,93.00,1364.00,-887.00,0.00,1536.00,6,503.00,1.00,83.53,1.00,0.00,0.00,0,,,100,100,0,2,0,0,0,2,0,,,,,0.0,0.0,0.0,0.0,0.0,0.0,0
55.937878,-4.406366,50.30,0.00,0.10,8.35,50.60,50.60,0.30,8.43,11893,2022-08-20 15:16:24.580,2022-08-20 16:16:24.579,21,0,0,14.605,55.937875,-4.406500,0.10,0.00,0.00,6.10,9.80,136.30,0,1,0,26,100,-7885,846,14605,3156.50,10,P-GPS,1,1,0,0,0,0,0,1661008584579,3672,3675,3662,3650,0,0,27,,,,,,,0,0,0,-61.00,98.00,1363.00,-887.00,0.00,1536.00,6,503.00,1.00,83.54,1.00,0.00,0.00,0,,,100,100,0,2,0,0,0,2,0,,,,,0.0,0.0,0.0,0.0,0.0,0.0,0
55.937878,-4.406367,50.30,0.00,0.10,8.35,50.60,50.60,0.30,8.43,11994,2022-08-20 15:16:24.680,2022-08-20 16:16:24.680,21,0,0,14.605,55.937875,-4.406500,0.10,0.00,0.00,6.10,10.40,136.30,0,1,0,26,100,-7885,846,14605,3156.50,10,P-GPS,1,1,0,0,0,0,0,1661008584680,3672,3675,3662,3650,0,0,27,,,,,,,0,0,0,-61.00,104.00,1363.00,-887.00,0.00,1536.00,6,503.00,1.00,83.49,1.00,0.00,0.00,0,,,100,100,0,2,0,0,0,2,0,,,,,0.0,0.0,0.0,0.0,0.0,0.0,0
55.937879,-4.406367,50.30,0.00,0.10,8.34,50.60,50.60,0.30,8.43,12097,2022-08-20 15:16:24.784,2022-08-20 16:16:24.783,21,0,0,14.605,55.937875,-4.406500,0.10,0.00,0.00,6.20,10.80,136.40,0,1,0,26,100,-7885,846,14605,3156.50,10,P-GPS,1,1,0,0,0,0,0,1661008584783,3672,3675,3662,3650,0,0,27,,,,,,,0,0,0,-62.00,108.00,1364.00,-887.00,0.00,1536.00,6,503.00,1.00,83.37,1.00,0.00,0.00,0,,,100,100,0,2,0,0,0,2,0,,,,,0.0,0.0,0.0,0.0,0.0,0.0,0
55.937879,-4.406367,50.30,0.00,0.14,8.33,50.60,50.60,0.30,8.43,12195,2022-08-20 15:16:24.881,2022-08-20 16:16:24.881,21,0,0,14.605,55.937875,-4.406500,0.10,0.00,0.10,5.90,11.10,136.30,0,1,0,26,100,-7885,846,14605,3156.50,10,P-GPS,1,1,0,0,0,0,0,1661008584881,3672,3675,3662,3650,0,0,27,,,,,,,0,0,0,-59.00,111.00,1363.00,-887.00,0.00,1536.00,6,503.00,1.41,83.33,1.00,0.00,1.00,0,,,100,100,0,2,0,0,0,2,0,,,,,0.0,0.0,0.0,0.0,0.0,0.0,0
55.937879,-4.406367,50.30,0.00,0.10,8.33,50.60,50.60,0.30,8.43,12293,2022-08-20 15:16:24.980,2022-08-20 16:16:24.979,21,0,0,14.605,55.937875,-4.406500,0.10,0.00,0.00,5.60,10.80,136.30,0,1,0,26,100,-7885,846,14605,3156.50,10,P-GPS,1,1,0,0,0,0,0,1661008584979,3672,3675,3662,3650,0,0,27,,,,,,,0,0,0,-56.00,108.00,1363.00,-887.00,0.00,1536.00,6,503.00,1.00,83.35,1.00,0.00,0.00,0,,,100,100,0,2,0,0,0,2,0,,,,,0.0,0.0,0.0,0.0,0.0,0.0,0
55.937879,-4.406367,50.30,0.00,0.00,8.33,50.60,50.60,0.30,8.43,12396,2022-08-20 15:16:25.082,2022-08-20 16:16:25.082,21,0,0,14.605,55.937875,-4.406500,0.00,0.00,0.00,5.50,10.10,136.20,0,1,0,26,100,-7885,846,14605,3156.50,10,P-GPS,1,1,0,0,0,0,0,1661008585082,3672,3675,3662,3650,0,0,27,,,,,,,0,0,0,-55.00,101.00,1362.00,-887.00,0.00,1536.00,6,503.00,0.00,83.30,0.00,0.00,0.00,0,,,100,100,0,2,0,0,0,2,0,,,,,0.0,0.0,0.0,0.0,0.0,0.0,0
55.937879,-4.406367,50.30,0.00,0.00,8.32,50.60,50.60,0.30,8.43,12496,2022-08-20 15:16:25.182,2022-08-20 16:16:25.182,21,0,0,14.605,55.937875,-4.406500,0.00,0.00,0.00,5.60,9.30,136.20,0,1,0,26,100,-7885,846,14605,3156.50,10,P-GPS,1,1,0,0,0,0,0,1661008585182,3672,3675,3662,3650,0,0,27,,,,,,,0,0,0,-56.00,93.00,1362.00,-887.00,0.00,1536.00,6,503.00,0.00,83.21,0.00,0.00,0.00,0,,,100,100,0,2,0,0,0,2,0,,,,,0.0,0.0,0.0,0.0,0.0,0.0,0
55.937879,-4.406367,50.30,0.00,0.00,8.31,50.60,50.60,0.30,8.43,12594,2022-08-20 15:16:25.281,2022-08-20 16:16:25.280,21,0,0,14.605,55.937875,-4.406500,0.00,0.00,0.00,6.10,9.30,136.30,0,1,0,26,100,-7885,846,14605,3156.50,10,P-GPS,1,1,0,0,0,0,0,1661008585280,3672,3675,3662,3650,0,0,27,,,,,,,0,0,0,-61.00,93.00,1363.00,-887.00,0.00,1536.00,6,503.00,0.00,83.15,0.00,0.00,0.00,0,,,100,100,0,2,0,0,0,2,0,,,,,0.0,0.0,0.0,0.0,0.0,0.0,0
55.937879,-4.406367,50.30,0.00,0.00,8.30,50.60,50.60,0.30,8.43,12697,2022-08-20 15:16:25.383,2022-08-20 16:16:25.383,21,0,0,14.644,55.937875,-4.406500,0.00,0.00,0.00,6.20,8.90,136.40,0,1,0,26,100,-8672,844,14644,3156.50,10,P-GPS,1,1,0,0,0,0,0,1661008585383,3672,3675,3662,3650,0,0,27,,,,,,,0,0,0,-62.00,89.00,1364.00,-887.00,0.00,1536.00,6,503.00,0.00,83.04,0.00,0.00,0.00,0,,,100,100,0,2,0,0,0,2,0,,,,,0.0,0.0,0.0,0.0,0.0,0.0,0
55.937879,-4.406367,50.30,0.00,0.00,8.30,50.60,50.60,0.30,8.43,12795,2022-08-20 15:16:25.481,2022-08-20 16:16:25.481,21,0,0,14.644,55.937875,-4.406500,0.00,0.00,0.00,6.30,9.60,136.40,0,1,0,26,100,-8672,844,14644,3156.50,10,P-GPS,1,1,0,0,0,0,0,1661008585481,3672,3675,3662,3650,0,0,27,,,,,,,0,0,0,-63.00,96.00,1364.00,-887.00,0.00,1536.00,6,503.00,0.00,82.98,0.00,0.00,0.00,0,,,100,100,0,2,0,0,0,2,0,,,,,0.0,0.0,0.0,0.0,0.0,0.0,0
55.937879,-4.406368,50.40,0.00,0.00,8.30,50.60,50.60,0.30,8.43,12894,2022-08-20 15:16:25.580,2022-08-20 16:16:25.580,21,0,0,14.644,55.937875,-4.406500,0.00,0.00,0.00,6.10,10.10,136.40,0,1,0,26,100,-8672,844,14644,3156.50,10,P-GPS,1,1,0,0,0,0,0,1661008585580,3672,3675,3662,3650,0,0,27,,,,,,,0,0,0,-61.00,101.00,1364.00,-887.00,0.00,1536.00,6,504.00,0.00,82.95,0.00,0.00,0.00,0,,,100,100,0,2,0,0,0,2,0,,,,,0.0,0.0,0.0,0.0,0.0,0.0,0
55.937879,-4.406368,50.40,0.00,0.00,8.29,50.60,50.60,0.30,8.43,12993,2022-08-20 15:16:25.679,2022-08-20 16:16:25.679,21,0,0,14.644,55.937875,-4.406500,0.00,0.00,0.00,6.00,10.30,136.40,0,1,0,26,100,-8672,844,14644,3156.50,10,P-GPS,1,1,0,0,0,0,0,1661008585679,3672,3675,3662,3650,0,0,27,,,,,,,0,0,0,-60.00,103.00,1364.00,-887.00,0.00,1536.00,6,504.00,0.00,82.92,0.00,0.00,0.00,0,,,100,100,0,2,0,0,0,2,0,,,,,0.0,0.0,0.0,0.0,0.0,0.0,0
55.937879,-4.406368,50.40,0.00,0.00,8.28,50.60,50.60,0.30,8.43,13091,2022-08-20 15:16:25.778,2022-08-20 16:16:25.778,21,0,0,14.644,55.937875,-4.406500,0.00,0.00,0.00,5.90,10.40,136.40,0,1,0,26,100,-8672,844,14644,3156.50,10,P-GPS,1,1,0,0,0,0,0,1661008585777,3672,3675,3662,3650,0,0,27,,,,,,,0,0,0,-59.00,104.00,1364.00,-887.00,0.00,1536.00,6,504.00,0.00,82.80,0.00,0.00,0.00,0,,,100,100,0,2,0,0,0,2,0,,,,,0.0,0.0,0.0,0.0,0.0,0.0,0
55.937879,-4.406368,50.40,0.00,0.00,8.28,50.60,50.60,0.30,8.43,13193,2022-08-20 15:16:25.880,2022-08-20 16:16:25.879,21,0,0,14.644,55.937875,-4.406500,0.00,0.00,0.00,5.60,10.60,136.40,0,1,0,26,100,-8672,844,14644,3156.50,10,P-GPS,1,1,0,0,0,0,0,1661008585879,3672,3675,3662,3650,0,0,27,,,,,,,0,0,0,-56.00,106.00,1364.00,-887.00,0.00,1536.00,6,504.00,0.00,82.78,0.00,0.00,0.00,0,,,100,100,0,2,0,0,0,2,0,,,,,0.0,0.0,0.0,0.0,0.0,0.0,0
55.937880,-4.406368,50.40,0.00,0.00,8.28,50.60,50.60,0.30,8.43,13294,2022-08-20 15:16:25.981,2022-08-20 16:16:25.980,21,0,0,14.644,55.937875,-4.406500,0.00,0.00,0.00,5.60,10.50,136.50,0,1,0,26,100,-8672,844,14644,3156.50,10,P-GPS,1,1,0,0,0,0,0,1661008585980,3672,3675,3662,3650,0,0,27,,,,,,,0,0,0,-56.00,105.00,1365.00,-887.00,0.00,1536.00,6,504.00,0.00,82.76,0.00,0.00,0.00,0,,,100,100,0,2,0,0,0,2,0,,,,,0.0,0.0,0.0,0.0,0.0,0.0,0
55.937880,-4.406368,50.40,0.00,0.00,8.28,50.60,50.60,0.30,8.43,13395,2022-08-20 15:16:26.081,2022-08-20 16:16:26.081,21,0,0,14.644,55.937875,-4.406500,0.00,0.00,0.00,6.10,10.70,136.50,0,1,0,26,100,-8672,844,14644,3156.50,10,P-GPS,1,1,0,0,0,0,0,1661008586081,3672,3675,3662,3650,0,0,27,,,,,,,0,0,0,-61.00,107.00,1365.00,-887.00,0.00,1536.00,6,504.00,0.00,82.76,0.00,0.00,0.00,0,,,100,100,0,2,0,0,0,2,0,,,,,0.0,0.0,0.0,0.0,0.0,0.0,0
55.937880,-4.406368,50.40,0.00,0.00,8.27,50.60,50.60,0.30,8.43,13491,2022-08-20 15:16:26.177,2022-08-20 16:16:26.177,21,0,0,14.644,55.937875,-4.406500,0.00,0.00,0.00,6.00,11.10,136.60,0,1,0,26,100,-8672,844,14644,3156.50,10,P-GPS,1,1,0,0,0,0,0,1661008586177,3672,3675,3662,3650,0,0,27,,,,,,,0,0,0,-60.00,111.00,1366.00,-887.00,0.00,1536.00,6,504.00,0.00,82.69,0.00,0.00,0.00,0,,,100,100,0,2,0,0,0,2,0,,,,,0.0,0.0,0.0,0.0,0.0,0.0,0
55.937880,-4.406368,50.40,0.00,0.00,8.27,50.60,50.60,0.30,8.43,13595,2022-08-20 15:16:26.282,2022-08-20 16:16:26.281,21,0,0,14.644,55.937875,-4.406500,0.00,0.00,0.00,5.80,11.10,136.60,0,1,0,26,100,-8672,844,14644,3156.50,10,P-GPS,1,1,0,0,0,0,0,1661008586281,3672,3675,3662,3650,0,0,27,,,,,,,0,0,0,-58.00,111.00,1366.00,-887.00,0.00,1536.00,6,504.00,0.00,82.68,0.00,0.00,0.00,0,,,100,100,0,2,0,0,0,2,0,,,,,0.0,0.0,0.0,0.0,0.0,0.0,0
55.937880,-4.406368,50.40,0.00,0.00,8.27,50.60,50.60,0.30,8.43,13691,2022-08-20 15:16:26.377,2022-08-20 16:16:26.377,21,0,0,14.585,55.937875,-4.406500,0.00,0.00,0.00,5.40,10.90,136.40,0,1,0,26,100,-8680,839,14585,3156.50,10,P-GPS,1,1,0,0,0,0,0,1661008586377,3672,3675,3662,3650,0,0,27,,,,,,,0,0,0,-54.00,109.00,1364.00,-887.00,0.00,1536.00,6,504.00,0.00,82.73,0.00,0.00,0.00,0,,,100,100,0,2,0,0,0,2,0,,,,,0.0,0.0,0.0,0.0,0.0,0.0,0
