latitude,longitude,altitude(m),ultrasonicHeight(m),speed(mps),distance(m),max_altitude(m),max_ascent(m),max_speed(mps),max_distance(m),time(millisecond),datetime(utc),datetime(local),satellites,pressure(Pa),temperature(F),voltage(v),home_latitude,home_longitude,velocityX(mps),velocityY(mps),velocityZ(mps),pitch(deg),roll(deg),yaw(deg),powerlevel,isflying,istakingphoto,remainPowerPercent,remainLifePercent,currentCurrent,currentElectricity,currentVoltage,batteryTemperature,dischargeCount,flightmode,isMotorsOn,isTakingVideo,Rc_elevator,Rc_aileron,Rc_throttle,Rc_rudder,Rc_gyro,timestamp,Battery_Cell1,Battery_Cell2,Battery_Cell3,Battery_Cell4,Battery_Cell5,Battery_Cell6,Dronetype,AppVersion,Planename,FlyControllerSerialNumber,RemoteSerialNumber,BatterySerialNumber,CENTER_BATTERY.productDate,CENTER_BATTERY.serialNo,CENTER_BATTERY.fullCapacity,CENTER_BATTERY.productDateRaw,pitchRaw,rollRaw,yawRaw,gimbalPitchRaw,gimbalRollRaw,gimbalYawRaw,flyState,altitudeRaw,speedRaw,distanceRaw,velocityXRaw,velocityYRaw,velocityZRaw,data_reuse,App_Tip,App_Warning,downlinkSignalQuality,uplinkSignalQuality,transmissionChannel,rcModeSwitch,rcHome,rcPause,rcTransform,rcJoystickMode,appMode,FlyControllerSerialNumber_legacy,RemoteSerialNumber_legacy,BatterySerialNumber_legacy,Battery2SerialNumber,frontAvoidDist,backAvoidDist,rightAvoidDist,leftAvoidDist,upAvoidDist,downAvoidDist,isBrakingToAvoid
55.952647,-4.403184,19.70,0.00,0.00,7.47,19.70,19.70,0.00,7.47,0,2022-10-02 09:39:09.835,2022-10-02 10:39:09.835,14,0,0,0.000,55.952643,-4.403304,0.00,0.00,0.00,10.10,0.70,90.00,0,1,0,99,0,0,0,0,2918.50,0,P-GPS,1,0,0,0,0,0,0,1664703549835,4029,4018,4025,4030,0,0,27,Litchi_4.24.1-g,,,0VECFAK0072T52,null,,0,0,0,-101.00,7.00,900.00,0.00,0.00,890.00,6,197.00,0.00,74.74,0.00,0.00,0.00,0,,,100,100,0,2,0,0,0,2,0,,,,null,0.0,0.0,0.0,0.0,0.0,0.0,0
55.952647,-4.403184,19.70,0.00,0.00,7.47,19.70,19.70,0.00,7.47,89,2022-10-02 09:39:09.924,2022-10-02 10:39:09.924,14,0,0,16.025,55.952643,-4.403304,0.00,0.00,0.00,9.90,0.60,89.90,0,1,0,98,100,-6264,3289,16025,2918.50,13,P-GPS,1,0,0,0,0,0,0,1664703549924,4029,4018,4025,4030,0,0,27,Litchi_4.24.1-g,,,0VECFAK0072T52,null,,0,0,0,-99.00,6.00,899.00,0.00,0.00,890.00,6,197.00,0.00,74.74,0.00,0.00,0.00,0,,,100,100,0,2,0,0,0,2,0,,,,null,0.0,0.0,0.0,0.0,0.0,0.0,0
55.952647,-4.403184,19.70,0.00,0.00,7.47,19.70,19.70,0.00,7.47,199,2022-10-02 09:39:10.034,2022-10-02 10:39:10.034,14,0,0,16.025,55.952643,-4.403304,0.00,0.00,0.00,9.70,0.70,89.90,0,1,0,98,100,-6264,3289,16025,2918.50,13,P-GPS,1,0,0,0,0,0,0,1664703550034,4029,4018,4025,4030,0,0,27,Litchi_4.24.1-g,CJTMAVIC,163DFAS001K45C,0VECFAK0072T52,0P2AFAL5340E87,,0,0,0,-97.00,7.00,899.00,0.00,0.00,890.00,6,197.00,0.00,74.71,0.00,0.00,0.00,0,,,100,100,0,2,0,0,0,2,0,,,,null,0.0,0.0,0.0,0.0,0.0,0.0,0
55.952647,-4.403184,19.70,0.00,0.00,7.47,19.70,19.70,0.00,7.47,341,2022-10-02 09:39:10.176,2022-10-02 10:39:10.176,14,0,0,16.025,55.952643,-4.403304,0.00,0.00,0.00,9.80,0.90,89.90,0,1,0,98,100,-6264,3289,16025,2918.50,13,P-GPS,1,0,0,0,0,0,0,1664703550176,4029,4018,4025,4030,0,0,27,,,,,,,0,0,0,-98.00,9.00,899.00,0.00,0.00,890.00,6,197.00,0.00,74.70,0.00,0.00,0.00,0,,,100,100,0,2,0,0,0,2,0,,,,,0.0,0.0,0.0,0.0,0.0,0.0,0
55.952647,-4.403185,19.80,0.00,0.00,7.46,19.80,19.80,0.00,7.47,498,2022-10-02 09:39:10.337,2022-10-02 10:39:10.333,14,0,0,16.025,55.952643,-4.403304,0.00,0.00,0.00,10.00,1.20,90.00,0,1,0,98,100,-6264,3289,16025,2918.50,13,P-GPS,1,0,0,0,0,0,0,1664703550333,4029,4018,4025,4030,0,0,27,,,,,,,0,0,0,-100.00,12.00,900.00,0.00,0.00,890.00,6,198.00,0.00,74.58,0.00,0.00,0.00,0,,,100,100,0,2,0,0,0,2,0,,,,,0.0,0.0,0.0,0.0,0.0,0.0,0
55.952647,-4.403185,19.80,0.00,0.00,7.46,19.80,19.80,0.00,7.47,611,2022-10-02 09:39:10.446,2022-10-02 10:39:10.446,14,0,0,16.025,55.952643,-4.403304,0.00,0.00,0.00,10.10,1.60,90.00,0,1,0,98,100,-6264,3289,16025,2918.50,13,P-GPS,1,0,0,0,0,0,0,1664703550446,4029,4018,4025,4030,0,0,27,,,,,,,0,0,0,-101.00,16.00,900.00,0.00,0.00,890.00,6,198.00,0.00,74.61,0.00,0.00,0.00,0,,,100,100,0,2,0,0,0,2,0,,,,,0.0,0.0,0.0,0.0,0.0,0.0,0
55.952647,-4.403185,19.70,0.00,0.00,7.46,19.80,19.80,0.00,7.47,715,2022-10-02 09:39:10.551,2022-10-02 10:39:10.550,14,0,0,16.025,55.952643,-4.403304,0.00,0.00,0.00,9.90,1.70,90.00,0,1,0,98,100,-6264,3289,16025,2918.50,13,P-GPS,1,0,0,0,0,0,0,1664703550550,4029,4018,4025,4030,0,0,27,,,,,,,0,0,0,-99.00,17.00,900.00,0.00,0.00,890.00,6,197.00,0.00,74.59,0.00,0.00,0.00,0,,,100,100,0,2,0,0,0,2,0,,,,,0.0,0.0,0.0,0.0,0.0,0.0,0
55.952647,-4.403185,19.70,0.00,0.00,7.44,19.80,19.80,0.00,7.47,828,2022-10-02 09:39:10.664,2022-10-02 10:39:10.663,14,0,0,16.025,55.952643,-4.403304,0.00,0.00,0.00,9.80,1.50,90.00,0,1,0,98,100,-6264,3289,16025,2918.50,13,P-GPS,1,0,0,0,0,0,0,1664703550663,4029,4018,4025,4030,0,0,27,,,,,,,0,0,0,-98.00,15.00,900.00,0.00,0.00,890.00,6,197.00,0.00,74.43,0.00,0.00,0.00,0,,,100,100,0,2,0,0,0,2,0,,,,,0.0,0.0,0.0,0.0,0.0,0.0,0
55.952648,-4.403185,19.80,0.00,0.00,7.44,19.80,19.80,0.00,7.47,1001,2022-10-02 09:39:10.837,2022-10-02 10:39:10.836,14,0,0,16.025,55.952643,-4.403304,0.00,0.00,0.00,10.00,1.50,89.90,0,1,0,98,100,-6264,3289,16025,2918.50,13,P-GPS,1,0,0,0,0,0,0,1664703550836,4029,4018,4025,4030,0,0,27,,,,,,,0,0,0,-100.00,15.00,899.00,0.00,0.00,890.00,6,198.00,0.00,74.40,0.00,0.00,0.00,0,,,100,100,0,2,0,0,0,2,0,,,,,0.0,0.0,0.0,0.0,0.0,0.0,0
55.952648,-4.403185,19.80,0.00,0.00,7.44,19.80,19.80,0.00,7.47,1101,2022-10-02 09:39:10.937,2022-10-02 10:39:10.936,14,0,0,16.051,55.952643,-4.403304,0.00,0.00,0.00,10.00,1.40,89.90,0,1,0,98,100,-6451,3288,16051,2919.50,13,P-GPS,1,0,0,0,0,0,0,1664703550936,4029,4018,4025,4030,0,0,27,,,,,,,0,0,0,-100.00,14.00,899.00,0.00,0.00,890.00,6,198.00,0.00,74.38,0.00,0.00,0.00,0,,,100,100,0,2,0,0,0,2,0,,,,,0.0,0.0,0.0,0.0,0.0,0.0,0
55.952648,-4.403185,19.70,0.00,0.00,7.44,19.80,19.80,0.00,7.47,1192,2022-10-02 09:39:11.028,2022-10-02 10:39:11.027,14,0,0,16.051,55.952643,-4.403304,0.00,0.00,0.00,10.20,1.40,89.90,0,1,0,98,100,-6451,3288,16051,2919.50,13,P-GPS,1,0,0,0,0,0,0,1664703551027,4029,4018,4025,4030,0,0,27,,,,,,,0,0,0,-102.00,14.00,899.00,0.00,0.00,890.00,6,197.00,0.00,74.36,0.00,0.00,0.00,0,,,100,100,0,2,0,0,0,2,0,,,,,0.0,0.0,0.0,0.0,0.0,0.0,0
55.952648,-4.403185,19.80,0.00,0.00,7.43,19.80,19.80,0.00,7.47,1291,2022-10-02 09:39:11.126,2022-10-02 10:39:11.126,14,0,0,16.051,55.952643,-4.403304,0.00,0.00,0.00,10.30,1.50,90.00,0,1,0,98,100,-6451,3288,16051,2919.50,13,P-GPS,1,0,0,0,0,0,0,1664703551126,4029,4018,4025,4030,0,0,27,,,,,,,0,0,0,-103.00,15.00,900.00,0.00,0.00,890.00,6,198.00,0.00,74.33,0.00,0.00,0.00,0,,,100,100,0,2,0,0,0,2,0,,,,,0.0,0.0,0.0,0.0,0.0,0.0,0
55.952648,-4.403185,19.80,0.00,0.00,7.43,19.80,19.80,0.00,7.47,1391,2022-10-02 09:39:11.226,2022-10-02 10:39:11.226,14,0,0,16.051,55.952643,-4.403304,0.00,0.00,0.00,10.50,1.40,90.00,0,1,0,98,100,-6451,3288,16051,2919.50,13,P-GPS,1,0,0,0,0,0,0,1664703551226,4029,4018,4025,4030,0,0,27,,,,,,,0,0,0,-105.00,14.00,900.00,0.00,0.00,890.00,6,198.00,0.00,74.30,0.00,0.00,0.00,0,,,100,100,0,2,0,0,0,2,0,,,,,0.0,0.0,0.0,0.0,0.0,0.0,0
55.952648,-4.403185,19.80,0.00,0.00,7.43,19.80,19.80,0.00,7.47,1495,2022-10-02 09:39:11.330,2022-10-02 10:39:11.330,14,0,0,16.051,55.952643,-4.403304,0.00,0.00,0.00,10.60,1.00,90.10,0,1,0,98,100,-6451,3288,16051,2919.50,13,P-GPS,1,0,0,0,0,0,0,1664703551330,4029,4018,4025,4030,0,0,27,,,,,,,0,0,0,-106.00,10.00,901.00,0.00,0.00,890.00,6,198.00,0.00,74.28,0.00,0.00,0.00,0,,,100,100,0,2,0,0,0,2,0,,,,,0.0,0.0,0.0,0.0,0.0,0.0,0
55.952648,-4.403185,19.70,0.00,0.00,7.43,19.80,19.80,0.00,7.47,1602,2022-10-02 09:39:11.437,2022-10-02 10:39:11.437,14,0,0,16.051,55.952643,-4.403304,0.00,0.00,0.00,10.50,1.10,90.10,0,1,0,98,100,-6451,3288,16051,2919.50,13,P-GPS,1,0,0,0,0,0,0,1664703551437,4029,4018,4025,4030,0,0,27,,,,,,,0,0,0,-105.00,11.00,901.00,0.00,0.00,890.00,6,197.00,0.00,74.29,0.00,0.00,0.00,0,,,100,100,0,2,0,0,0,2,0,,,,,0.0,0.0,0.0,0.0,0.0,0.0,0
55.952648,-4.403185,19.80,0.00,0.00,7.43,19.80,19.80,0.00,7.47,1701,2022-10-02 09:39:11.536,2022-10-02 10:39:11.536,14,0,0,16.051,55.952643,-4.403304,0.00,0.00,0.00,10.60,0.90,90.10,0,1,0,98,100,-6451,3288,16051,2919.50,13,P-GPS,1,0,0,0,0,0,0,1664703551536,4029,4018,4025,4030,0,0,27,,,,,,,0,0,0,-106.00,9.00,901.00,0.00,0.00,890.00,6,198.00,0.00,74.28,0.00,0.00,0.00,0,,,100,100,0,2,0,0,0,2,0,,,,,0.0,0.0,0.0,0.0,0.0,0.0,0
55.952648,-4.403185,19.80,0.00,0.00,7.42,19.80,19.80,0.00,7.47,1800,2022-10-02 09:39:11.636,2022-10-02 10:39:11.635,14,0,0,16.051,55.952643,-4.403304,0.00,0.00,0.00,10.70,0.90,90.00,0,1,0,98,100,-6451,3288,16051,2919.50,13,P-GPS,1,0,0,0,0,0,0,1664703551635,4029,4018,4025,4030,0,0,27,,,,,,,0,0,0,-107.00,9.00,900.00,0.00,0.00,890.00,6,198.00,0.00,74.23,0.00,0.00,0.00,0,,,100,100,0,2,0,0,0,2,0,,,,,0.0,0.0,0.0,0.0,0.0,0.0,0
55.952648,-4.403185,19.80,0.00,0.00,7.42,19.80,19.80,0.00,7.47,1895,2022-10-02 09:39:11.731,2022-10-02 10:39:11.731,14,0,0,16.051,55.952643,-4.403304,0.00,0.00,0.00,10.60,1.20,90.10,0,1,0,98,100,-6451,3288,16051,2919.50,13,P-GPS,1,0,0,0,0,0,0,1664703551730,4029,4018,4025,4030,0,0,27,,,,,,,0,0,0,-106.00,12.00,901.00,0.00,0.00,890.00,6,198.00,0.00,74.21,0.00,0.00,0.00,0,,,100,100,0,2,0,0,0,2,0,,,,,0.0,0.0,0.0,0.0,0.0,0.0,0
55.952648,-4.403185,19.90,0.00,0.00,7.41,19.90,19.90,0.00,7.47,1993,2022-10-02 09:39:11.828,2022-10-02 10:39:11.828,14,0,0,16.051,55.952643,-4.403304,0.00,0.00,0.00,10.70,1.30,90.10,0,1,0,98,100,-6451,3288,16051,2919.50,13,P-GPS,1,0,0,0,0,0,0,1664703551828,4029,4018,4025,4030,0,0,27,,,,,,,0,0,0,-107.00,13.00,901.00,0.00,0.00,890.00,6,199.00,0.00,74.15,0.00,0.00,0.00,0,,,100,100,0,2,0,0,0,2,0,,,,,0.0,0.0,0.0,0.0,0.0,0.0,0
55.952648,-4.403185,19.90,0.00,0.00,7.41,19.90,19.90,0.00,7.47,2101,2022-10-02 09:39:11.936,2022-10-02 10:39:11.936,14,0,0,15.974,55.952643,-4.403304,0.00,0.00,0.00,10.40,1.30,90.00,0,1,0,98,100,-6677,3286,15974,2919.50,13,P-GPS,1,0,0,0,0,0,0,1664703551936,4029,4018,4025,4030,0,0,27,,,,,,,0,0,0,-104.00,13.00,900.00,0.00,0.00,890.00,6,199.00,0.00,74.10,0.00,0.00,0.00,0,,,100,100,0,2,0,0,0,2,0,,,,,0.0,0.0,0.0,0.0,0.0,0.0,0
55.952648,-4.403186,19.90,0.00,0.00,7.40,19.90,19.90,0.00,7.47,2202,2022-10-02 09:39:12.037,2022-10-02 10:39:12.037,14,0,0,15.974,55.952643,-4.403304,0.00,0.00,0.00,10.10,1.20,90.10,0,1,0,98,100,-6677,3286,15974,2919.50,13,P-GPS,1,0,0,0,0,0,0,1664703552037,4029,4018,4025,4030,0,0,27,,,,,,,0,0,0,-101.00,12.00,901.00,0.00,0.00,890.00,6,199.00,0.00,74.01,0.00,0.00,0.00,0,,,100,100,0,2,0,0,0,2,0,,,,,0.0,0.0,0.0,0.0,0.0,0.0,0
55.952648,-4.403186,19.80,0.00,0.00,7.39,19.90,19.90,0.00,7.47,2301,2022-10-02 09:39:12.136,2022-10-02 10:39:12.136,14,0,0,15.974,55.952643,-4.403304,0.00,0.00,0.00,9.60,1.50,90.10,0,1,0,98,100,-6677,3286,15974,2919.50,13,P-GPS,1,0,0,0,0,0,0,1664703552136,4029,4018,4025,4030,0,0,27,,,,,,,0,0,0,-96.00,15.00,901.00,0.00,0.00,890.00,6,198.00,0.00,73.93,0.00,0.00,0.00,0,,,100,100,0,2,0,0,0,2,0,,,,,0.0,0.0,0.0,0.0,0.0,0.0,0
55.952648,-4.403186,19.80,0.00,0.00,7.39,19.90,19.90,0.00,7.47,2390,2022-10-02 09:39:12.225,2022-10-02 10:39:12.225,14,0,0,15.974,55.952643,-4.403304,0.00,0.00,0.00,9.30,1.50,90.00,0,1,0,98,100,-6677,3286,15974,2919.50,13,P-GPS,1,0,0,0,0,0,0,1664703552225,4029,4018,4025,4030,0,0,27,,,,,,,0,0,0,-93.00,15.00,900.00,0.00,0.00,890.00,6,198.00,0.00,73.87,0.00,0.00,0.00,0,,,100,100,0,2,0,0,0,2,0,,,,,0.0,0.0,0.0,0.0,0.0,0.0,0
55.952648,-4.403186,19.80,0.00,0.00,7.38,19.90,19.90,0.00,7.47,2506,2022-10-02 09:39:12.341,2022-10-02 10:39:12.341,14,0,0,15.974,55.952643,-4.403304,0.00,0.00,0.00,9.10,1.50,90.00,0,1,0,98,100,-6677,3286,15974,2919.50,13,P-GPS,1,0,0,0,0,0,0,1664703552341,4029,4018,4025,4030,0,0,27,,,,,,,0,0,0,-91.00,15.00,900.00,0.00,0.00,890.00,6,198.00,0.00,73.78,0.00,0.00,0.00,0,,,100,100,0,2,0,0,0,2,0,,,,,0.0,0.0,0.0,0.0,0.0,0.0,0
55.952648,-4.403186,19.80,0.00,0.00,7.38,19.90,19.90,0.00,7.47,2601,2022-10-02 09:39:12.436,2022-10-02 10:39:12.436,14,0,0,15.974,55.952643,-4.403304,0.00,0.00,0.00,9.10,1.50,90.00,0,1,0,98,100,-6677,3286,15974,2919.50,13,P-GPS,1,0,0,0,0,0,0,1664703552436,4029,4018,4025,4030,0,0,27,,,,,,,0,0,0,-91.00,15.00,900.00,0.00,0.00,890.00,6,198.00,0.00,73.78,0.00,0.00,0.00,0,,,100,100,0,2,0,0,0,2,0,,,,,0.0,0.0,0.0,0.0,0.0,0.0,0
55.952648,-4.403186,19.70,0.00,0.00,7.37,19.90,19.90,0.00,7.47,2704,2022-10-02 09:39:12.539,2022-10-02 10:39:12.539,14,0,0,15.974,55.952643,-4.403304,0.00,0.00,0.00,9.10,1.60,90.10,0,1,0,98,100,-6677,3286,15974,2919.50,13,P-GPS,1,0,0,0,0,0,0,1664703552539,4029,4018,4025,4030,0,0,27,,,,,,,0,0,0,-91.00,16.00,901.00,0.00,0.00,890.00,6,197.00,0.00,73.70,0.00,0.00,0.00,0,,,100,100,0,2,0,0,0,2,0,,,,,0.0,0.0,0.0,0.0,0.0,0.0,0
55.952648,-4.403186,19.70,0.00,0.00,7.36,19.90,19.90,0.00,7.47,2800,2022-10-02 09:39:12.636,2022-10-02 10:39:12.635,14,0,0,15.974,55.952643,-4.403304,0.00,0.00,0.00,9.00,1.40,90.10,0,1,0,98,100,-6677,3286,15974,2919.50,13,P-GPS,1,0,0,0,0,0,0,1664703552635,4029,4018,4025,4030,0,0,27,,,,,,,0,0,0,-90.00,14.00,901.00,0.00,0.00,890.00,6,197.00,0.00,73.58,0.00,0.00,0.00,0,,,100,100,0,2,0,0,0,2,0,,,,,0.0,0.0,0.0,0.0,0.0,0.0,0
55.952648,-4.403186,19.70,0.00,0.00,7.35,19.90,19.90,0.00,7.47,2900,2022-10-02 09:39:12.736,2022-10-02 10:39:12.735,14,0,0,15.974,55.952643,-4.403304,0.00,0.00,0.00,8.90,1.30,90.00,0,1,0,98,100,-6677,3286,15974,2919.50,13,P-GPS,1,0,0,0,0,0,0,1664703552735,4029,4018,4025,4030,0,0,27,,,,,,,0,0,0,-89.00,13.00,900.00,0.00,0.00,890.00,6,197.00,0.00,73.50,0.00,0.00,0.00,0,,,100,100,0,2,0,0,0,2,0,,,,,0.0,0.0,0.0,0.0,0.0,0.0,0
55.952648,-4.403187,19.60,0.00,0.00,7.33,19.90,19.90,0.00,7.47,2998,2022-10-02 09:39:12.833,2022-10-02 10:39:12.833,14,0,0,15.974,55.952643,-4.403304,0.00,0.00,0.00,8.80,1.40,90.00,0,1,0,98,100,-6677,3286,15974,2919.50,13,P-GPS,1,0,0,0,0,0,0,1664703552833,4029,4018,4025,4030,0,0,27,,,,,,,0,0,0,-88.00,14.00,900.00,0.00,0.00,890.00,6,196.00,0.00,73.30,0.00,0.00,0.00,0,,,100,100,0,2,0,0,0,2,0,,,,,0.0,0.0,0.0,0.0,0.0,0.0,0
55.952648,-4.403187,19.70,0.00,0.00,7.32,19.90,19.90,0.00,7.47,3107,2022-10-02 09:39:12.942,2022-10-02 10:39:12.942,14,0,0,16.055,55.952643,-4.403304,0.00,0.00,0.00,9.00,1.30,90.00,0,1,0,98,100,-6464,3284,16055,2919.50,13,P-GPS,1,0,0,0,0,0,0,1664703552942,4029,4018,4025,4030,0,0,27,,,,,,,0,0,0,-90.00,13.00,900.00,0.00,0.00,890.00,6,197.00,0.00,73.22,0.00,0.00,0.00,0,,,100,100,0,2,0,0,0,2,0,,,,,0.0,0.0,0.0,0.0,0.0,0.0,0
55.952648,-4.403187,19.70,0.00,0.00,7.32,19.90,19.90,0.00,7.47,3201,2022-10-02 09:39:13.036,2022-10-02 10:39:13.036,14,0,0,16.055,55.952643,-4.403304,0.00,0.00,0.00,9.20,1.50,89.90,0,1,0,98,100,-6464,3284,16055,2919.50,13,P-GPS,1,0,0,0,0,0,0,1664703553036,4029,4018,4025,4030,0,0,27,,,,,,,0,0,0,-92.00,15.00,899.00,0.00,0.00,890.00,6,197.00,0.00,73.25,0.00,0.00,0.00,0,,,100,100,0,2,0,0,0,2,0,,,,,0.0,0.0,0.0,0.0,0.0,0.0,0
55.952648,-4.403187,19.70,0.00,0.00,7.32,19.90,19.90,0.00,7.47,3304,2022-10-02 09:39:13.139,2022-10-02 10:39:13.139,14,0,0,16.055,55.952643,-4.403304,0.00,0.00,0.00,9.40,1.80,89.90,0,1,0,98,100,-6464,3284,16055,2919.50,13,P-GPS,1,0,0,0,0,0,0,1664703553139,4029,4018,4025,4030,0,0,27,,,,,,,0,0,0,-94.00,18.00,899.00,0.00,0.00,890.00,6,197.00,0.00,73.19,0.00,0.00,0.00,0,,,100,100,0,2,0,0,0,2,0,,,,,0.0,0.0,0.0,0.0,0.0,0.0,0
55.952648,-4.403187,19.60,0.00,0.00,7.31,19.90,19.90,0.00,7.47,3391,2022-10-02 09:39:13.226,2022-10-02 10:39:13.226,14,0,0,16.055,55.952643,-4.403304,0.00,0.00,0.00,9.30,1.90,90.00,0,1,0,98,100,-6464,3284,16055,2919.50,13,P-GPS,1,0,0,0,0,0,0,1664703553226,4029,4018,4025,4030,0,0,27,,,,,,,0,0,0,-93.00,19.00,900.00,0.00,0.00,890.00,6,196.00,0.00,73.11,0.00,0.00,0.00,0,,,100,100,0,2,0,0,0,2,0,,,,,0.0,0.0,0.0,0.0,0.0,0.0,0
55.952648,-4.403187,19.70,0.00,0.00,7.31,19.90,19.90,0.00,7.47,3505,2022-10-02 09:39:13.340,2022-10-02 10:39:13.340,14,0,0,16.055,55.952643,-4.403304,0.00,0.00,0.00,9.30,2.00,90.00,0,1,0,98,100,-6464,3284,16055,2919.50,13,P-GPS,1,0,0,0,0,0,0,1664703553340,4029,4018,4025,4030,0,0,27,,,,,,,0,0,0,-93.00,20.00,900.00,0.00,0.00,890.00,6,197.00,0.00,73.07,0.00,0.00,0.00,0,,,100,100,0,2,0,0,0,2,0,,,,,0.0,0.0,0.0,0.0,0.0,0.0,0
55.952648,-4.403187,19.70,0.00,0.00,7.30,19.90,19.90,0.00,7.47,3597,2022-10-02 09:39:13.432,2022-10-02 10:39:13.432,14,0,0,16.055,55.952643,-4.403304,0.00,0.00,0.00,9.50,2.00,90.00,0,1,0,98,100,-6464,3284,16055,2919.50,13,P-GPS,1,0,0,0,0,0,0,1664703553432,4029,4018,4025,4030,0,0,27,,,,,,,0,0,0,-95.00,20.00,900.00,0.00,0.00,890.00,6,197.00,0.00,72.97,0.00,0.00,0.00,0,,,100,100,0,2,0,0,0,2,0,,,,,0.0,0.0,0.0,0.0,0.0,0.0,0
55.952648,-4.403187,19.70,0.00,0.00,7.29,19.90,19.90,0.00,7.47,3697,2022-10-02 09:39:13.532,2022-10-02 10:39:13.532,14,0,0,16.055,55.952643,-4.403304,0.00,0.00,0.00,9.90,1.90,90.00,0,1,0,98,100,-6464,3284,16055,2919.50,13,P-GPS,1,0,0,0,0,0,0,1664703553532,4029,4018,4025,4030,0,0,27,,,,,,,0,0,0,-99.00,19.00,900.00,0.00,0.00,890.00,6,197.00,0.00,72.94,0.00,0.00,0.00,0,,,100,100,0,2,0,0,0,2,0,,,,,0.0,0.0,0.0,0.0,0.0,0.0,0
55.952648,-4.403187,19.70,0.00,0.00,7.30,19.90,19.90,0.00,7.47,3800,2022-10-02 09:39:13.635,2022-10-02 10:39:13.635,14,0,0,16.055,55.952643,-4.403304,0.00,0.00,0.00,9.90,1.70,90.10,0,1,0,98,100,-6464,3284,16055,2919.50,13,P-GPS,1,0,0,0,0,0,0,1664703553635,4029,4018,4025,4030,0,0,27,,,,,,,0,0,0,-99.00,17.00,901.00,0.00,0.00,890.00,6,197.00,0.00,73.00,0.00,0.00,0.00,0,,,100,100,0,2,0,0,0,2,0,,,,,0.0,0.0,0.0,0.0,0.0,0.0,0
55.952648,-4.403187,19.70,0.00,0.00,7.30,19.90,19.90,0.00,7.47,3899,2022-10-02 09:39:13.734,2022-10-02 10:39:13.734,14,0,0,16.055,55.952643,-4.403304,0.00,0.00,0.00,9.80,1.70,90.10,0,1,0,98,100,-6464,3284,16055,2919.50,13,P-GPS,1,0,0,0,0,0,0,1664703553734,4029,4018,4025,4030,0,0,27,,,,,,,0,0,0,-98.00,17.00,901.00,0.00,0.00,890.00,6,197.00,0.00,72.99,0.00,0.00,0.00,0,,,100,100,0,2,0,0,0,2,0,,,,,0.0,0.0,0.0,0.0,0.0,0.0,0
55.952648,-4.403187,19.80,0.00,0.00,7.29,19.90,19.90,0.00,7.47,3999,2022-10-02 09:39:13.835,2022-10-02 10:39:13.834,14,0,0,16.055,55.952643,-4.403304,0.00,0.00,0.00,9.80,1.70,90.00,0,1,0,98,100,-6464,3284,16055,2919.50,13,P-GPS,1,0,0,0,0,0,0,1664703553834,4029,4018,4025,4030,0,0,27,,,,,,,0,0,0,-98.00,17.00,900.00,0.00,0.00,890.00,6,198.00,0.00,72.88,0.00,0.00,0.00,0,,,100,100,0,2,0,0,0,2,0,,,,,0.0,0.0,0.0,0.0,0.0,0.0,0
55.952648,-4.403187,19.80,0.00,0.00,7.29,19.90,19.90,0.00,7.47,4103,2022-10-02 09:39:13.938,2022-10-02 10:39:13.938,14,0,0,16.000,55.952643,-4.403304,0.00,0.00,0.00,10.00,1.40,90.00,0,1,0,98,100,-6549,3282,16000,2920.50,13,P-GPS,1,0,0,0,0,0,0,1664703553938,4029,4018,4025,4030,0,0,27,,,,,,,0,0,0,-100.00,14.00,900.00,0.00,0.00,890.00,6,198.00,0.00,72.87,0.00,0.00,0.00,0,,,100,100,0,2,0,0,0,2,0,,,,,0.0,0.0,0.0,0.0,0.0,0.0,0
55.952648,-4.403187,19.80,0.00,0.00,7.29,19.90,19.90,0.00,7.47,4193,2022-10-02 09:39:14.029,2022-10-02 10:39:14.028,14,0,0,16.000,55.952643,-4.403304,0.00,0.00,0.00,10.00,1.40,90.00,0,1,0,98,100,-6549,3282,16000,2920.50,13,P-GPS,1,0,0,0,0,0,0,1664703554028,4029,4018,4025,4030,0,0,27,,,,,,,0,0,0,-100.00,14.00,900.00,0.00,0.00,890.00,6,198.00,0.00,72.91,0.00,0.00,0.00,0,,,100,100,0,2,0,0,0,2,0,,,,,0.0,0.0,0.0,0.0,0.0,0.0,0
55.952648,-4.403187,19.80,0.00,0.00,7.29,19.90,19.90,0.00,7.47,4294,2022-10-02 09:39:14.129,2022-10-02 10:39:14.129,14,0,0,16.000,55.952643,-4.403304,0.00,0.00,0.00,9.80,1.20,90.10,0,1,0,98,100,-6549,3282,16000,2920.50,13,P-GPS,1,0,0,0,0,0,0,1664703554129,4029,4018,4025,4030,0,0,27,,,,,,,0,0,0,-98.00,12.00,901.00,0.00,0.00,890.00,6,198.00,0.00,72.90,0.00,0.00,0.00,0,,,100,100,0,2,0,0,0,2,0,,,,,0.0,0.0,0.0,0.0,0.0,0.0,0
55.952648,-4.403187,19.90,0.00,0.00,7.28,19.90,19.90,0.00,7.47,4401,2022-10-02 09:39:14.236,2022-10-02 10:39:14.236,14,0,0,16.000,55.952643,-4.403304,0.00,0.00,0.00,9.70,1.10,90.00,0,1,0,98,100,-6549,3282,16000,2920.50,13,P-GPS,1,0,0,0,0,0,0,1664703554236,4029,4018,4025,4030,0,0,27,,,,,,,0,0,0,-97.00,11.00,900.00,0.00,0.00,890.00,6,199.00,0.00,72.82,0.00,0.00,0.00,0,,,100,100,0,2,0,0,0,2,0,,,,,0.0,0.0,0.0,0.0,0.0,0.0,0
55.952648,-4.403188,19.80,0.00,0.00,7.28,19.90,19.90,0.00,7.47,4498,2022-10-02 09:39:14.334,2022-10-02 10:39:14.333,14,0,0,16.000,55.952643,-4.403304,0.00,0.00,0.00,9.70,1.20,90.00,0,1,0,98,100,-6549,3282,16000,2920.50,13,P-GPS,1,0,0,0,0,0,0,1664703554333,4029,4018,4025,4030,0,0,27,,,,,,,0,0,0,-97.00,12.00,900.00,0.00,0.00,890.00,6,198.00,0.00,72.80,0.00,0.00,0.00,0,,,100,100,0,2,0,0,0,2,0,,,,,0.0,0.0,0.0,0.0,0.0,0.0,0
55.952648,-4.403187,19.80,0.00,0.00,7.28,19.90,19.90,0.00,7.47,4596,2022-10-02 09:39:14.431,2022-10-02 10:39:14.431,14,0,0,16.000,55.952643,-4.403304,0.00,0.00,0.00,9.50,1.30,89.90,0,1,0,98,100,-6549,3282,16000,2920.50,13,P-GPS,1,0,0,0,0,0,0,1664703554431,4029,4018,4025,4030,0,0,27,,,,,,,0,0,0,-95.00,13.00,899.00,0.00,0.00,890.00,6,198.00,0.00,72.81,0.00,0.00,0.00,0,,,100,100,0,2,0,0,0,2,0,,,,,0.0,0.0,0.0,0.0,0.0,0.0,0
55.952648,-4.403187,19.80,0.00,0.00,7.28,19.90,19.90,0.00,7.47,4694,2022-10-02 09:39:14.530,2022-10-02 10:39:14.529,14,0,0,16.000,55.952643,-4.403304,0.00,0.00,0.00,9.70,1.30,90.00,0,1,0,98,100,-6549,3282,16000,2920.50,13,P-GPS,1,0,0,0,0,0,0,1664703554529,4029,4018,4025,4030,0,0,27,,,,,,,0,0,0,-97.00,13.00,900.00,0.00,0.00,890.00,6,198.00,0.00,72.81,0.00,0.00,0.00,0,,,100,100,0,2,0,0,0,2,0,,,,,0.0,0.0,0.0,0.0,0.0,0.0,0
55.952648,-4.403188,19.80,0.00,0.00,7.27,19.90,19.90,0.00,7.47,4803,2022-10-02 09:39:14.639,2022-10-02 10:39:14.638,14,0,0,16.000,55.952643,-4.403304,0.00,0.00,0.00,9.70,1.70,90.00,0,1,0,98,100,-6549,3282,16000,2920.50,13,P-GPS,1,0,0,0,0,0,0,1664703554638,4029,4018,4025,4030,0,0,27,,,,,,,0,0,0,-97.00,17.00,900.00,0.00,0.00,890.00,6,198.00,0.00,72.75,0.00,0.00,0.00,0,,,100,100,0,2,0,0,0,2,0,,,,,0.0,0.0,0.0,0.0,0.0,0.0,0
55.952648,-4.403188,19.80,0.00,0.00,7.27,19.90,19.90,0.00,7.47,4913,2022-10-02 09:39:14.748,2022-10-02 10:39:14.748,14,0,0,16.000,55.952643,-4.403304,0.00,0.00,0.00,9.70,1.70,90.00,0,1,0,98,100,-6549,3282,16000,2920.50,13,P-GPS,1,0,0,0,0,0,0,1664703554748,4029,4018,4025,4030,0,0,27,,,,,,,0,0,0,-97.00,17.00,900.00,0.00,0.00,890.00,6,198.00,0.00,72.74,0.00,0.00,0.00,0,,,100,100,0,2,0,0,0,2,0,,,,,0.0,0.0,0.0,0.0,0.0,0.0,0
55.952648,-4.403188,19.80,0.00,0.00,7.28,19.90,19.90,0.00,7.47,5001,2022-10-02 09:39:14.836,2022-10-02 10:39:14.836,14,0,0,16.000,55.952643,-4.403304,0.00,0.00,0.00,9.50,1.70,90.00,0,1,0,98,100,-6549,3282,16000,2920.50,13,P-GPS,1,0,0,0,0,0,0,1664703554836,4029,4018,4025,4030,0,0,27,,,,,,,0,0,0,-95.00,17.00,900.00,0.00,0.00,890.00,6,198.00,0.00,72.76,0.00,0.00,0.00,0,,,100,100,0,2,0,0,0,2,0,,,,,0.0,0.0,0.0,0.0,0.0,0.0,0
55.952648,-4.403188,19.80,0.00,0.00,7.27,19.90,19.90,0.00,7.47,5115,2022-10-02 09:39:14.950,2022-10-02 10:39:14.950,14,0,0,16.011,55.952643,-4.403304,0.00,0.00,0.00,9.40,1.80,90.10,0,1,0,98,100,-6344,3280,16011,2920.50,13,P-GPS,1,0,0,0,0,0,0,1664703554950,4029,4018,4025,4030,0,0,27,,,,,,,0,0,0,-94.00,18.00,901.00,0.00,0.00,890.00,6,198.00,0.00,72.74,0.00,0.00,0.00,0,,,100,100,0,2,0,0,0,2,0,,,,,0.0,0.0,0.0,0.0,0.0,0.0,0
55.952648,-4.403188,19.80,0.00,0.00,7.27,19.90,19.90,0.00,7.47,5209,2022-10-02 09:39:15.044,2022-10-02 10:39:15.044,14,0,0,16.011,55.952643,-4.403304,0.00,0.00,0.00,9.30,2.10,90.00,0,1,0,98,100,-6344,3280,16011,2920.50,13,P-GPS,1,0,0,0,0,0,0,1664703555044,4029,4018,4025,4030,0,0,27,,,,,,,0,0,0,-93.00,21.00,900.00,0.00,0.00,890.00,6,198.00,0.00,72.66,0.00,0.00,0.00,0,,,100,100,0,2,0,0,0,2,0,,,,,0.0,0.0,0.0,0.0,0.0,0.0,0
55.952648,-4.403188,19.80,0.00,0.00,7.26,19.90,19.90,0.00,7.47,5301,2022-10-02 09:39:15.136,2022-10-02 10:39:15.136,14,0,0,16.011,55.952643,-4.403304,0.00,0.00,0.00,9.20,2.10,90.00,0,1,0,98,100,-6344,3280,16011,2920.50,13,P-GPS,1,0,0,0,0,0,0,1664703555136,4029,4018,4025,4030,0,0,27,,,,,,,0,0,0,-92.00,21.00,900.00,0.00,0.00,890.00,6,198.00,0.00,72.64,0.00,0.00,0.00,0,,,100,100,0,2,0,0,0,2,0,,,,,0.0,0.0,0.0,0.0,0.0,0.0,0
55.952648,-4.403188,19.80,0.00,0.00,7.26,19.90,19.90,0.00,7.47,5398,2022-10-02 09:39:15.234,2022-10-02 10:39:15.233,14,0,0,16.011,55.952643,-4.403304,0.00,0.00,0.00,8.90,2.00,90.10,0,1,0,98,100,-6344,3280,16011,2920.50,13,P-GPS,1,0,0,0,0,0,0,1664703555233,4029,4018,4025,4030,0,0,27,,,,,,,0,0,0,-89.00,20.00,901.00,0.00,0.00,890.00,6,198.00,0.00,72.56,0.00,0.00,0.00,0,,,100,100,0,2,0,0,0,2,0,,,,,0.0,0.0,0.0,0.0,0.0,0.0,0
55.952648,-4.403188,19.80,0.00,0.00,7.25,19.90,19.90,0.00,7.47,5496,2022-10-02 09:39:15.332,2022-10-02 10:39:15.331,14,0,0,16.011,55.952643,-4.403304,0.00,0.00,0.00,8.80,1.90,90.10,0,1,0,98,100,-6344,3280,16011,2920.50,13,P-GPS,1,0,0,0,0,0,0,1664703555331,4029,4018,4025,4030,0,0,27,,,,,,,0,0,0,-88.00,19.00,901.00,0.00,0.00,890.00,6,198.00,0.00,72.53,0.00,0.00,0.00,0,,,100,100,0,2,0,0,0,2,0,,,,,0.0,0.0,0.0,0.0,0.0,0.0,0
55.952648,-4.403188,19.80,0.00,0.00,7.26,19.90,19.90,0.00,7.47,5593,2022-10-02 09:39:15.428,2022-10-02 10:39:15.428,14,0,0,16.011,55.952643,-4.403304,0.00,0.00,0.00,9.00,1.60,90.00,0,1,0,98,100,-6344,3280,16011,2920.50,13,P-GPS,1,0,0,0,0,0,0,1664703555428,4029,4018,4025,4030,0,0,27,,,,,,,0,0,0,-90.00,16.00,900.00,0.00,0.00,890.00,6,198.00,0.00,72.58,0.00,0.00,0.00,0,,,100,100,0,2,0,0,0,2,0,,,,,0.0,0.0,0.0,0.0,0.0,0.0,0
55.952647,-4.403188,19.80,0.00,0.00,7.26,19.90,19.90,0.00,7.47,5701,2022-10-02 09:39:15.536,2022-10-02 10:39:15.536,14,0,0,16.011,55.952643,-4.403304,0.00,0.00,0.00,9.00,1.60,90.00,0,1,0,98,100,-6344,3280,16011,2920.50,13,P-GPS,1,0,0,0,0,0,0,1664703555536,4029,4018,4025,4030,0,0,27,,,,,,,0,0,0,-90.00,16.00,900.00,0.00,0.00,890.00,6,198.00,0.00,72.55,0.00,0.00,0.00,0,,,100,100,0,2,0,0,0,2,0,,,,,0.0,0.0,0.0,0.0,0.0,0.0,0
55.952647,-4.403188,19.80,0.00,0.00,7.25,19.90,19.90,0.00,7.47,5794,2022-10-02 09:39:15.630,2022-10-02 10:39:15.629,14,0,0,16.011,55.952643,-4.403304,0.00,0.00,0.00,9.00,1.50,90.00,0,1,0,98,100,-6344,3280,16011,2920.50,13,P-GPS,1,0,0,0,0,0,0,1664703555629,4029,4018,4025,4030,0,0,27,,,,,,,0,0,0,-90.00,15.00,900.00,0.00,0.00,890.00,6,198.00,0.00,72.49,0.00,0.00,0.00,0,,,100,100,0,2,0,0,0,2,0,,,,,0.0,0.0,0.0,0.0,0.0,0.0,0
55.952647,-4.403188,19.80,0.00,0.00,7.25,19.90,19.90,0.00,7.47,5905,2022-10-02 09:39:15.740,2022-10-02 10:39:15.740,14,0,0,16.011,55.952643,-4.403304,0.00,0.00,0.00,8.80,1.20,90.00,0,1,0,98,100,-6344,3280,16011,2920.50,13,P-GPS,1,0,0,0,0,0,0,1664703555740,4029,4018,4025,4030,0,0,27,,,,,,,0,0,0,-88.00,12.00,900.00,0.00,0.00,890.00,6,198.00,0.00,72.45,0.00,0.00,0.00,0,,,100,100,0,2,0,0,0,2,0,,,,,0.0,0.0,0.0,0.0,0.0,0.0,0
55.952647,-4.403188,19.70,0.00,0.00,7.24,19.90,19.90,0.00,7.47,5996,2022-10-02 09:39:15.832,2022-10-02 10:39:15.831,14,0,0,16.011,55.952643,-4.403304,0.00,0.00,0.00,8.60,1.10,90.00,0,1,0,98,100,-6344,3280,16011,2920.50,13,P-GPS,1,0,0,0,0,0,0,1664703555831,4029,4018,4025,4030,0,0,27,,,,,,,0,0,0,-86.00,11.00,900.00,0.00,0.00,890.00,6,197.00,0.00,72.39,0.00,0.00,0.00,0,,,100,100,0,2,0,0,0,2,0,,,,,0.0,0.0,0.0,0.0,0.0,0.0,0
55.952647,-4.403188,19.70,0.00,0.00,7.24,19.90,19.90,0.00,7.47,6105,2022-10-02 09:39:15.940,2022-10-02 10:39:15.940,14,0,0,16.070,55.952643,-4.403304,0.00,0.00,0.00,8.60,1.10,90.10,0,1,0,98,100,-6313,3278,16070,2920.50,13,P-GPS,1,0,0,0,0,0,0,1664703555940,4029,4018,4025,4030,0,0,27,,,,,,,0,0,0,-86.00,11.00,901.00,0.00,0.00,890.00,6,197.00,0.00,72.38,0.00,0.00,0.00,0,,,100,100,0,2,0,0,0,2,0,,,,,0.0,0.0,0.0,0.0,0.0,0.0,0
55.952647,-4.403188,19.70,0.00,0.00,7.23,19.90,19.90,0.00,7.47,6199,2022-10-02 09:39:16.034,2022-10-02 10:39:16.034,14,0,0,16.070,55.952643,-4.403304,0.00,0.00,0.00,8.50,1.10,90.10,0,1,0,98,100,-6313,3278,16070,2920.50,13,P-GPS,1,0,0,0,0,0,0,1664703556034,4029,4018,4025,4030,0,0,27,,,,,,,0,0,0,-85.00,11.00,901.00,0.00,0.00,890.00,6,197.00,0.00,72.28,0.00,0.00,0.00,0,,,100,100,0,2,0,0,0,2,0,,,,,0.0,0.0,0.0,0.0,0.0,0.0,0
55.952647,-4.403188,19.70,0.00,0.00,7.23,19.90,19.90,0.00,7.47,6301,2022-10-02 09:39:16.136,2022-10-02 10:39:16.136,14,0,0,16.070,55.952643,-4.403304,0.00,0.00,0.00,8.70,1.20,90.10,0,1,0,98,100,-6313,3278,16070,2920.50,13,P-GPS,1,0,0,0,0,0,0,1664703556136,4029,4018,4025,4030,0,0,27,,,,,,,0,0,0,-87.00,12.00,901.00,0.00,0.00,890.00,6,197.00,0.00,72.27,0.00,0.00,0.00,0,,,100,100,0,2,0,0,0,2,0,,,,,0.0,0.0,0.0,0.0,0.0,0.0,0
55.952647,-4.403188,19.70,0.00,0.00,7.22,19.90,19.90,0.00,7.47,6400,2022-10-02 09:39:16.236,2022-10-02 10:39:16.235,14,0,0,16.070,55.952643,-4.403304,0.00,0.00,0.00,8.80,1.40,90.10,0,1,0,98,100,-6313,3278,16070,2920.50,13,P-GPS,1,0,0,0,0,0,0,1664703556235,4029,4018,4025,4030,0,0,27,,,,,,,0,0,0,-88.00,14.00,901.00,0.00,0.00,890.00,6,197.00,0.00,72.17,0.00,0.00,0.00,0,,,100,100,0,2,0,0,0,2,0,,,,,0.0,0.0,0.0,0.0,0.0,0.0,0
55.952647,-4.403188,19.70,0.00,0.00,7.22,19.90,19.90,0.00,7.47,6502,2022-10-02 09:39:16.337,2022-10-02 10:39:16.337,14,0,0,16.070,55.952643,-4.403304,0.00,0.00,0.00,8.70,1.40,90.00,0,1,0,98,100,-6313,3278,16070,2920.50,13,P-GPS,1,0,0,0,0,0,0,1664703556337,4029,4018,4025,4030,0,0,27,,,,,,,0,0,0,-87.00,14.00,900.00,0.00,0.00,890.00,6,197.00,0.00,72.16,0.00,0.00,0.00,0,,,100,100,0,2,0,0,0,2,0,,,,,0.0,0.0,0.0,0.0,0.0,0.0,0
55.952647,-4.403188,19.70,0.00,0.00,7.21,19.90,19.90,0.00,7.47,6601,2022-10-02 09:39:16.436,2022-10-02 10:39:16.436,14,0,0,16.070,55.952643,-4.403304,0.00,0.00,0.00,8.60,1.20,90.10,0,1,0,98,100,-6313,3278,16070,2920.50,13,P-GPS,1,0,0,0,0,0,0,1664703556436,4029,4018,4025,4030,0,0,27,,,,,,,0,0,0,-86.00,12.00,901.00,0.00,0.00,890.00,6,197.00,0.00,72.13,0.00,0.00,0.00,0,,,100,100,0,2,0,0,0,2,0,,,,,0.0,0.0,0.0,0.0,0.0,0.0,0
55.952647,-4.403188,19.70,0.00,0.00,7.21,19.90,19.90,0.00,7.47,6701,2022-10-02 09:39:16.536,2022-10-02 10:39:16.536,14,0,0,16.070,55.952643,-4.403304,0.00,0.00,0.00,8.70,1.00,90.10,0,1,0,98,100,-6313,3278,16070,2920.50,13,P-GPS,1,0,0,0,0,0,0,1664703556536,4029,4018,4025,4030,0,0,27,,,,,,,0,0,0,-87.00,10.00,901.00,0.00,0.00,890.00,6,197.00,0.00,72.12,0.00,0.00,0.00,0,,,100,100,0,2,0,0,0,2,0,,,,,0.0,0.0,0.0,0.0,0.0,0.0,0
55.952647,-4.403188,19.70,0.00,0.00,7.22,19.90,19.90,0.00,7.47,6793,2022-10-02 09:39:16.629,2022-10-02 10:39:16.628,14,0,0,16.070,55.952643,-4.403304,0.00,0.00,0.00,9.00,0.80,90.00,0,1,0,98,100,-6313,3278,16070,2920.50,13,P-GPS,1,0,0,0,0,0,0,1664703556628,4029,4018,4025,4030,0,0,27,,,,,,,0,0,0,-90.00,8.00,900.00,0.00,0.00,890.00,6,197.00,0.00,72.16,0.00,0.00,0.00,0,,,100,100,0,2,0,0,0,2,0,,,,,0.0,0.0,0.0,0.0,0.0,0.0,0
55.952647,-4.403188,19.70,0.00,0.00,7.22,19.90,19.90,0.00,7.47,6894,2022-10-02 09:39:16.729,2022-10-02 10:39:16.729,14,0,0,16.070,55.952643,-4.403304,0.00,0.00,0.00,9.10,0.50,90.00,0,1,0,98,100,-6313,3278,16070,2920.50,13,P-GPS,1,0,0,0,0,0,0,1664703556729,4029,4018,4025,4030,0,0,27,,,,,,,0,0,0,-91.00,5.00,900.00,0.00,0.00,890.00,6,197.00,0.00,72.16,0.00,0.00,0.00,0,,,100,100,0,2,0,0,0,2,0,,,,,0.0,0.0,0.0,0.0,0.0,0.0,0
55.952646,-4.403189,19.70,0.00,0.00,7.20,19.90,19.90,0.00,7.47,7001,2022-10-02 09:39:16.837,2022-10-02 10:39:16.836,14,0,0,16.070,55.952643,-4.403304,0.00,0.00,0.00,8.60,0.80,89.90,0,1,0,98,100,-6313,3278,16070,2920.50,13,P-GPS,1,0,0,0,0,0,0,1664703556836,4029,4018,4025,4030,0,0,27,,,,,,,0,0,0,-86.00,8.00,899.00,0.00,0.00,890.00,6,197.00,0.00,72.04,0.00,0.00,0.00,0,,,100,100,0,2,0,0,0,2,0,,,,,0.0,0.0,0.0,0.0,0.0,0.0,0
55.952646,-4.403189,19.70,0.00,0.00,64.45,19.90,19.90,0.00,64.45,7101,2022-10-02 09:39:16.936,2022-10-02 10:39:16.936,14,0,0,16.014,55.952643,-4.403304,0.00,0.00,0.00,8.00,0.60,89.90,0,1,0,98,100,-6168,3277,16014,2921.50,13,P-GPS,1,0,0,0,0,0,0,1664703556936,4029,4018,4025,4030,0,0,27,,,,,,,0,0,0,-80.00,6.00,899.00,0.00,0.00,890.00,6,197.00,0.00,644.45,0.00,0.00,0.00,0,,,100,100,0,2,0,0,0,2,2,,,,,0.0,0.0,0.0,0.0,0.0,0.0,0
55.952646,-4.403189,19.70,0.00,0.00,64.46,19.90,19.90,0.00,64.46,7216,2022-10-02 09:39:17.051,2022-10-02 10:39:17.051,14,0,0,16.014,55.952643,-4.403304,0.00,0.00,0.00,8.00,0.50,90.00,0,1,0,98,100,-6168,3277,16014,2921.50,13,P-GPS,1,0,0,0,0,0,0,1664703557051,4029,4018,4025,4030,0,0,27,,,,,,,0,0,0,-80.00,5.00,900.00,0.00,0.00,890.00,6,197.00,0.00,644.56,0.00,0.00,0.00,0,,,100,100,0,2,0,0,0,2,2,,,,,0.0,0.0,0.0,0.0,0.0,0.0,0
55.952646,-4.403189,19.70,0.00,0.00,64.45,19.90,19.90,0.00,64.46,7301,2022-10-02 09:39:17.136,2022-10-02 10:39:17.136,14,0,0,16.014,55.952643,-4.403304,0.00,0.00,0.00,7.90,0.30,89.90,0,1,0,98,100,-6168,3277,16014,2921.50,13,P-GPS,1,0,0,0,0,0,0,1664703557136,4029,4018,4025,4030,0,0,27,,,,,,,0,0,0,-79.00,3.00,899.00,0.00,0.00,890.00,6,197.00,0.00,644.50,0.00,0.00,0.00,0,,,100,100,0,2,0,0,0,2,2,,,,,0.0,0.0,0.0,0.0,0.0,0.0,0
55.952646,-4.403189,19.60,0.00,0.00,64.45,19.90,19.90,0.00,64.46,7391,2022-10-02 09:39:17.227,2022-10-02 10:39:17.226,14,0,0,16.014,55.952643,-4.403304,0.00,0.00,0.00,7.80,0.30,89.90,0,1,0,98,100,-6168,3277,16014,2921.50,13,P-GPS,1,0,0,0,0,0,0,1664703557226,4029,4018,4025,4030,0,0,27,,,,,,,0,0,0,-78.00,3.00,899.00,0.00,0.00,890.00,6,196.00,0.00,644.52,0.00,0.00,0.00,0,,,100,100,0,2,0,0,0,2,2,,,,,0.0,0.0,0.0,0.0,0.0,0.0,0
55.952646,-4.403189,19.60,0.00,0.00,64.45,19.90,19.90,0.00,64.46,7507,2022-10-02 09:39:17.343,2022-10-02 10:39:17.342,14,0,0,16.014,55.952643,-4.403304,0.00,0.00,0.00,7.90,0.50,89.90,0,1,0,98,100,-6168,3277,16014,2921.50,13,P-GPS,1,0,0,0,0,0,0,1664703557342,4029,4018,4025,4030,0,0,27,,,,,,,0,0,0,-79.00,5.00,899.00,0.00,0.00,890.00,6,196.00,0.00,644.47,0.00,0.00,0.00,0,,,100,100,0,2,0,0,0,2,2,,,,,0.0,0.0,0.0,0.0,0.0,0.0,0
55.952646,-4.403189,19.60,0.00,0.00,64.43,19.90,19.90,0.00,64.46,7601,2022-10-02 09:39:17.436,2022-10-02 10:39:17.436,14,0,0,16.014,55.952643,-4.403304,0.00,0.00,0.00,7.80,0.50,89.90,0,1,0,98,100,-6168,3277,16014,2921.50,13,P-GPS,1,0,0,0,0,0,0,1664703557436,4029,4018,4025,4030,0,0,27,,,,,,,0,0,0,-78.00,5.00,899.00,0.00,0.00,890.00,6,196.00,0.00,644.33,0.00,0.00,0.00,0,,,100,100,0,2,0,0,0,2,2,,,,,0.0,0.0,0.0,0.0,0.0,0.0,0
55.952646,-4.403189,19.60,0.00,0.00,64.43,19.90,19.90,0.00,64.46,7707,2022-10-02 09:39:17.542,2022-10-02 10:39:17.542,14,0,0,16.014,55.952643,-4.403304,0.00,0.00,0.00,7.90,0.30,90.00,0,1,0,98,100,-6168,3277,16014,2921.50,13,P-GPS,1,0,0,0,0,0,0,1664703557542,4029,4018,4025,4030,0,0,27,,,,,,,0,0,0,-79.00,3.00,900.00,0.00,0.00,890.00,6,196.00,0.00,644.27,0.00,0.00,0.00,0,,,100,100,0,2,0,0,0,2,2,,,,,0.0,0.0,0.0,0.0,0.0,0.0,0
55.952646,-4.403189,19.60,0.00,0.00,64.43,19.90,19.90,0.00,64.46,7839,2022-10-02 09:39:17.674,2022-10-02 10:39:17.674,14,0,0,16.014,55.952643,-4.403304,0.00,0.00,0.00,8.20,0.40,89.90,0,1,0,98,100,-6168,3277,16014,2921.50,13,P-GPS,1,0,0,0,0,0,0,1664703557674,4029,4018,4025,4030,0,0,27,,,,,,,0,0,0,-82.00,4.00,899.00,0.00,0.00,890.00,6,196.00,0.00,644.32,0.00,0.00,0.00,0,,,100,100,0,2,0,0,0,2,2,,,,,0.0,0.0,0.0,0.0,0.0,0.0,0
55.952646,-4.403189,19.60,0.00,0.00,64.43,19.90,19.90,0.00,64.46,7996,2022-10-02 09:39:17.832,2022-10-02 10:39:17.832,14,0,0,16.014,55.952643,-4.403304,0.00,0.00,0.00,8.10,0.90,89.90,0,1,0,98,100,-6168,3277,16014,2921.50,13,P-GPS,1,0,0,0,0,0,0,1664703557831,4029,4018,4025,4030,0,0,27,,,,,,,0,0,0,-81.00,9.00,899.00,0.00,0.00,890.00,6,196.00,0.00,644.30,0.00,0.00,0.00,0,,,100,100,0,2,0,0,0,2,2,,,,,0.0,0.0,0.0,0.0,0.0,0.0,0
55.952646,-4.403189,19.60,0.00,0.10,64.43,19.90,19.90,0.10,64.46,8100,2022-10-02 09:39:17.935,2022-10-02 10:39:17.935,14,0,0,16.076,55.952643,-4.403304,0.00,0.00,-0.10,8.50,1.20,89.90,0,1,0,98,100,-5756,3275,16076,2921.50,13,P-GPS,1,0,0,0,0,0,0,1664703557935,4030,4015,4011,4020,0,0,27,,,,,,,0,0,0,-85.00,12.00,899.00,0.00,0.00,890.00,6,196.00,1.00,644.28,0.00,0.00,-1.00,0,,,100,100,0,2,0,0,0,2,2,,,,,0.0,0.0,0.0,0.0,0.0,0.0,0
55.952646,-4.403189,19.70,0.00,0.00,64.43,19.90,19.90,0.10,64.46,8209,2022-10-02 09:39:18.045,2022-10-02 10:39:18.044,14,0,0,16.076,55.952643,-4.403304,0.00,0.00,0.00,8.40,1.20,89.90,0,1,0,98,100,-5756,3275,16076,2921.50,13,P-GPS,1,0,0,0,0,0,0,1664703558044,4030,4015,4011,4020,0,0,27,,,,,,,0,0,0,-84.00,12.00,899.00,0.00,0.00,890.00,6,197.00,0.00,644.29,0.00,0.00,0.00,0,,,100,100,0,2,0,0,0,2,2,,,,,0.0,0.0,0.0,0.0,0.0,0.0,0
55.952646,-4.403189,19.70,0.00,0.00,64.43,19.90,19.90,0.10,64.46,8297,2022-10-02 09:39:18.133,2022-10-02 10:39:18.132,14,0,0,16.076,55.952643,-4.403304,0.00,0.00,0.00,8.10,1.20,89.90,0,1,0,98,100,-5756,3275,16076,2921.50,13,P-GPS,1,0,0,0,0,0,0,1664703558132,4030,4015,4011,4020,0,0,27,,,,,,,0,0,0,-81.00,12.00,899.00,0.00,0.00,890.00,6,197.00,0.00,644.28,0.00,0.00,0.00,0,,,100,100,0,2,0,0,0,2,2,,,,,0.0,0.0,0.0,0.0,0.0,0.0,0
55.952646,-4.403189,19.70,0.00,0.00,64.42,19.90,19.90,0.10,64.46,8396,2022-10-02 09:39:18.231,2022-10-02 10:39:18.231,14,0,0,16.076,55.952643,-4.403304,0.00,0.00,0.00,8.30,1.30,89.90,0,1,0,98,100,-5756,3275,16076,2921.50,13,P-GPS,1,0,0,0,0,0,0,1664703558231,4030,4015,4011,4020,0,0,27,,,,,,,0,0,0,-83.00,13.00,899.00,0.00,0.00,890.00,6,197.00,0.00,644.18,0.00,0.00,0.00,0,,,100,100,0,2,0,0,0,2,2,,,,,0.0,0.0,0.0,0.0,0.0,0.0,0
55.952646,-4.403189,19.70,0.00,0.00,64.42,19.90,19.90,0.10,64.46,8500,2022-10-02 09:39:18.336,2022-10-02 10:39:18.335,14,0,0,16.076,55.952643,-4.403304,0.00,0.00,0.00,8.70,1.20,90.00,0,1,0,98,100,-5756,3275,16076,2921.50,13,P-GPS,1,0,0,0,0,0,0,1664703558335,4030,4015,4011,4020,0,0,27,,,,,,,0,0,0,-87.00,12.00,900.00,0.00,0.00,890.00,6,197.00,0.00,644.15,0.00,0.00,0.00,0,,,100,100,0,2,0,0,0,2,2,,,,,0.0,0.0,0.0,0.0,0.0,0.0,0
55.952646,-4.403189,19.70,0.00,0.00,64.43,19.90,19.90,0.10,64.46,8599,2022-10-02 09:39:18.435,2022-10-02 10:39:18.434,14,0,0,16.076,55.952643,-4.403304,0.00,0.00,0.00,8.60,1.40,89.90,0,1,0,98,100,-5756,3275,16076,2921.50,13,P-GPS,1,0,0,0,0,0,0,1664703558434,4030,4015,4011,4020,0,0,27,,,,,,,0,0,0,-86.00,14.00,899.00,0.00,0.00,890.00,6,197.00,0.00,644.32,0.00,0.00,0.00,0,,,100,100,0,2,0,0,0,2,2,,,,,0.0,0.0,0.0,0.0,0.0,0.0,0
55.952646,-4.403189,19.80,0.00,0.00,64.43,19.90,19.90,0.10,64.46,8710,2022-10-02 09:39:18.546,2022-10-02 10:39:18.545,14,0,0,16.076,55.952643,-4.403304,0.00,0.00,0.00,8.90,1.20,90.00,0,1,0,98,100,-5756,3275,16076,2921.50,13,P-GPS,1,0,0,0,0,0,0,1664703558545,4030,4015,4011,4020,0,0,27,,,,,,,0,0,0,-89.00,12.00,900.00,0.00,0.00,890.00,6,198.00,0.00,644.29,0.00,0.00,0.00,0,,,100,100,0,2,0,0,0,2,2,,,,,0.0,0.0,0.0,0.0,0.0,0.0,0
55.952646,-4.403189,19.80,0.00,0.00,64.41,19.90,19.90,0.10,64.46,8801,2022-10-02 09:39:18.637,2022-10-02 10:39:18.636,14,0,0,16.076,55.952643,-4.403304,0.00,0.00,0.00,8.70,0.90,90.10,0,1,0,98,100,-5756,3275,16076,2921.50,13,P-GPS,1,0,0,0,0,0,0,1664703558636,4030,4015,4011,4020,0,0,27,,,,,,,0,0,0,-87.00,9.00,901.00,0.00,0.00,890.00,6,198.00,0.00,644.14,0.00,0.00,0.00,0,,,100,100,0,2,0,0,0,2,2,,,,,0.0,0.0,0.0,0.0,0.0,0.0,0
55.952646,-4.403189,19.80,0.00,0.00,64.41,19.90,19.90,0.10,64.46,8897,2022-10-02 09:39:18.732,2022-10-02 10:39:18.732,14,0,0,16.076,55.952643,-4.403304,0.00,0.00,0.00,8.10,0.60,90.00,0,1,0,98,100,-5756,3275,16076,2921.50,13,P-GPS,1,0,0,0,0,0,0,1664703558732,4030,4015,4011,4020,0,0,27,,,,,,,0,0,0,-81.00,6.00,900.00,0.00,0.00,890.00,6,198.00,0.00,644.09,0.00,0.00,0.00,0,,,100,100,0,2,0,0,0,2,2,,,,,0.0,0.0,0.0,0.0,0.0,0.0,0
55.952646,-4.403189,19.80,0.00,0.00,64.41,19.90,19.90,0.10,64.46,9002,2022-10-02 09:39:18.838,2022-10-02 10:39:18.837,14,0,0,16.076,55.952643,-4.403304,0.00,0.00,0.00,8.00,0.20,89.90,0,1,0,98,100,-5756,3275,16076,2921.50,13,P-GPS,1,0,0,0,0,0,0,1664703558837,4030,4015,4011,4020,0,0,27,,,,,,,0,0,0,-80.00,2.00,899.00,0.00,0.00,890.00,6,198.00,0.00,644.08,0.00,0.00,0.00,0,,,100,100,0,2,0,0,0,2,2,,,,,0.0,0.0,0.0,0.0,0.0,0.0,0
55.952646,-4.403189,19.80,0.00,0.00,64.40,19.90,19.90,0.10,64.46,9107,2022-10-02 09:39:18.943,2022-10-02 10:39:18.942,14,0,0,16.108,55.952643,-4.403304,0.00,0.00,0.00,7.90,0.50,89.90,0,1,0,98,100,-5580,3274,16108,2921.50,13,P-GPS,1,0,0,0,0,0,0,1664703558942,4030,4015,4011,4020,0,0,27,,,,,,,0,0,0,-79.00,5.00,899.00,0.00,0.00,890.00,6,198.00,0.00,644.03,0.00,0.00,0.00,0,,,100,100,0,2,0,0,0,2,2,,,,,0.0,0.0,0.0,0.0,0.0,0.0,0
55.952646,-4.403189,19.80,0.00,0.00,64.41,19.90,19.90,0.10,64.46,9196,2022-10-02 09:39:19.031,2022-10-02 10:39:19.031,14,0,0,16.108,55.952643,-4.403304,0.00,0.00,0.00,8.20,0.70,90.00,0,1,0,98,100,-5580,3274,16108,2921.50,13,P-GPS,1,0,0,0,0,0,0,1664703559031,4030,4015,4011,4020,0,0,27,,,,,,,0,0,0,-82.00,7.00,900.00,0.00,0.00,890.00,6,198.00,0.00,644.11,0.00,0.00,0.00,0,,,100,100,0,2,0,0,0,2,2,,,,,0.0,0.0,0.0,0.0,0.0,0.0,0
55.952646,-4.403189,19.70,0.00,0.00,64.41,19.90,19.90,0.10,64.46,9301,2022-10-02 09:39:19.136,2022-10-02 10:39:19.136,14,0,0,16.108,55.952643,-4.403304,0.00,0.00,0.00,8.20,0.40,90.00,0,1,0,98,100,-5580,3274,16108,2921.50,13,P-GPS,1,0,0,0,0,0,0,1664703559136,4030,4015,4011,4020,0,0,27,,,,,,,0,0,0,-82.00,4.00,900.00,0.00,0.00,890.00,6,197.00,0.00,644.08,0.00,0.00,0.00,0,,,100,100,0,2,0,0,0,2,2,,,,,0.0,0.0,0.0,0.0,0.0,0.0,0
55.952646,-4.403189,19.80,0.00,0.00,64.40,19.90,19.90,0.10,64.46,9402,2022-10-02 09:39:19.237,2022-10-02 10:39:19.237,14,0,0,16.108,55.952643,-4.403304,0.00,0.00,0.00,8.20,0.80,90.00,0,1,0,98,100,-5580,3274,16108,2921.50,13,P-GPS,1,0,0,0,0,0,0,1664703559237,4030,4015,4011,4020,0,0,27,,,,,,,0,0,0,-82.00,8.00,900.00,0.00,0.00,890.00,6,198.00,0.00,644.03,0.00,0.00,0.00,0,,,100,100,0,2,0,0,0,2,2,,,,,0.0,0.0,0.0,0.0,0.0,0.0,0
55.952646,-4.403189,19.70,0.00,0.00,64.40,19.90,19.90,0.10,64.46,9502,2022-10-02 09:39:19.338,2022-10-02 10:39:19.337,14,0,0,16.108,55.952643,-4.403304,0.00,0.00,0.00,8.40,1.00,89.90,0,1,0,98,100,-5580,3274,16108,2921.50,13,P-GPS,1,0,0,0,0,0,0,1664703559337,4030,4015,4011,4020,0,0,27,,,,,,,0,0,0,-84.00,10.00,899.00,0.00,0.00,890.00,6,197.00,0.00,643.99,0.00,0.00,0.00,0,,,100,100,0,2,0,0,0,2,2,,,,,0.0,0.0,0.0,0.0,0.0,0.0,0
55.952646,-4.403189,19.80,0.00,0.00,64.40,19.90,19.90,0.10,64.46,9605,2022-10-02 09:39:19.441,2022-10-02 10:39:19.440,14,0,0,16.108,55.952643,-4.403304,0.00,0.00,0.00,8.80,1.10,90.10,0,1,0,98,100,-5580,3274,16108,2921.50,13,P-GPS,1,0,0,0,0,0,0,1664703559440,4030,4015,4011,4020,0,0,27,,,,,,,0,0,0,-88.00,11.00,901.00,0.00,0.00,890.00,6,198.00,0.00,644.04,0.00,0.00,0.00,0,,,100,100,0,2,0,0,0,2,2,,,,,0.0,0.0,0.0,0.0,0.0,0.0,0
55.952646,-4.403189,19.80,0.00,0.00,64.40,19.90,19.90,0.10,64.46,9708,2022-10-02 09:39:19.544,2022-10-02 10:39:19.543,14,0,0,16.108,55.952643,-4.403304,0.00,0.00,0.00,8.80,1.40,90.10,0,1,0,98,100,-5580,3274,16108,2921.50,13,P-GPS,1,0,0,0,0,0,0,1664703559543,4030,4015,4011,4020,0,0,27,,,,,,,0,0,0,-88.00,14.00,901.00,0.00,0.00,890.00,6,198.00,0.00,644.00,0.00,0.00,0.00,0,,,100,100,0,2,0,0,0,2,2,,,,,0.0,0.0,0.0,0.0,0.0,0.0,0
55.952646,-4.403189,19.80,0.00,0.00,64.40,19.90,19.90,0.10,64.46,9801,2022-10-02 09:39:19.636,2022-10-02 10:39:19.636,14,0,0,16.108,55.952643,-4.403304,0.00,0.00,0.00,8.40,0.80,90.00,0,1,0,98,100,-5580,3274,16108,2921.50,13,P-GPS,1,0,0,0,0,0,0,1664703559636,4030,4015,4011,4020,0,0,27,,,,,,,0,0,0,-84.00,8.00,900.00,0.00,0.00,890.00,6,198.00,0.00,644.00,0.00,0.00,0.00,0,,,100,100,0,2,0,0,0,2,2,,,,,0.0,0.0,0.0,0.0,0.0,0.0,0
55.952646,-4.403189,19.80,0.00,0.00,64.40,19.90,19.90,0.10,64.46,9905,2022-10-02 09:39:19.741,2022-10-02 10:39:19.741,14,0,0,16.108,55.952643,-4.403304,0.00,0.00,0.00,8.00,0.80,90.00,0,1,0,98,100,-5580,3274,16108,2921.50,13,P-GPS,1,0,0,0,0,0,0,1664703559740,4030,4015,4011,4020,0,0,27,,,,,,,0,0,0,-80.00,8.00,900.00,0.00,0.00,890.00,6,198.00,0.00,643.98,0.00,0.00,0.00,0,,,100,100,0,2,0,0,0,2,2,,,,,0.0,0.0,0.0,0.0,0.0,0.0,0
55.952646,-4.403189,19.90,0.00,0.00,64.40,19.90,19.90,0.10,64.46,10014,2022-10-02 09:39:19.849,2022-10-02 10:39:19.849,14,0,0,16.108,55.952643,-4.403304,0.00,0.00,0.00,7.90,0.80,90.00,0,1,0,98,100,-5580,3274,16108,2921.50,13,P-GPS,1,0,0,0,0,0,0,1664703559849,4030,4015,4011,4020,0,0,27,,,,,,,0,0,0,-79.00,8.00,900.00,0.00,0.00,890.00,6,199.00,0.00,643.96,0.00,0.00,0.00,0,,,100,100,0,2,0,0,0,2,2,,,,,0.0,0.0,0.0,0.0,0.0,0.0,0
55.952646,-4.403189,19.90,0.00,0.00,64.39,19.90,19.90,0.10,64.46,10102,2022-10-02 09:39:19.938,2022-10-02 10:39:19.937,14,0,0,16.040,55.952643,-4.403304,0.00,0.00,0.00,7.60,0.90,90.00,0,1,0,98,100,-5937,3272,16040,2921.50,13,P-GPS,1,0,0,0,0,0,0,1664703559937,4030,4015,4011,4020,0,0,27,,,,,,,0,0,0,-76.00,9.00,900.00,0.00,0.00,890.00,6,199.00,0.00,643.94,0.00,0.00,0.00,0,,,100,100,0,2,0,0,0,2,2,,,,,0.0,0.0,0.0,0.0,0.0,0.0,0
55.952646,-4.403189,19.80,0.00,0.10,64.39,19.90,19.90,0.10,64.46,10202,2022-10-02 09:39:20.038,2022-10-02 10:39:20.037,14,0,0,16.040,55.952643,-4.403304,-0.10,0.00,0.00,7.20,0.50,90.10,0,1,0,98,100,-5937,3272,16040,2921.50,13,P-GPS,1,0,0,0,0,0,0,1664703560037,4030,4015,4011,4020,0,0,27,,,,,,,0,0,0,-72.00,5.00,901.00,0.00,0.00,890.00,6,198.00,1.00,643.87,-1.00,0.00,0.00,0,,,100,100,0,2,0,0,0,2,2,,,,,0.0,0.0,0.0,0.0,0.0,0.0,0
55.952646,-4.403189,19.80,0.00,0.10,64.38,19.90,19.90,0.10,64.46,10301,2022-10-02 09:39:20.139,2022-10-02 10:39:20.136,14,0,0,16.040,55.952643,-4.403304,-0.10,0.00,0.00,6.60,-0.70,90.20,0,1,0,98,100,-5937,3272,16040,2921.50,13,P-GPS,1,0,0,0,0,0,0,1664703560136,4030,4015,4011,4020,0,0,27,,,,,,,0,0,0,-66.00,-7.00,902.00,0.00,0.00,890.00,6,198.00,1.00,643.77,-1.00,0.00,0.00,0,,,100,100,0,2,0,0,0,2,2,,,,,0.0,0.0,0.0,0.0,0.0,0.0,0
55.952645,-4.403189,19.80,0.00,0.10,64.36,19.90,19.90,0.10,64.46,10399,2022-10-02 09:39:20.235,2022-10-02 10:39:20.235,14,0,0,16.040,55.952643,-4.403304,-0.10,0.00,0.00,6.50,-2.00,90.20,0,1,0,98,100,-5937,3272,16040,2921.50,13,P-GPS,1,0,0,0,0,0,0,1664703560234,4030,4015,4011,4020,0,0,27,,,,,,,0,0,0,-65.00,-20.00,902.00,0.00,0.00,890.00,6,198.00,1.00,643.60,-1.00,0.00,0.00,0,,,100,100,0,2,0,0,0,2,2,,,,,0.0,0.0,0.0,0.0,0.0,0.0,0
55.952645,-4.403189,19.80,0.00,0.10,64.34,19.90,19.90,0.10,64.46,10496,2022-10-02 09:39:20.331,2022-10-02 10:39:20.331,14,0,0,16.040,55.952643,-4.403304,-0.10,0.00,0.00,6.90,-2.90,89.90,0,1,0,98,100,-5937,3272,16040,2921.50,13,P-GPS,1,0,0,0,0,0,0,1664703560331,4030,4015,4011,4020,0,0,27,,,,,,,0,0,0,-69.00,-29.00,899.00,0.00,0.00,890.00,6,198.00,1.00,643.45,-1.00,0.00,0.00,0,,,100,100,0,2,0,0,0,2,2,,,,,0.0,0.0,0.0,0.0,0.0,0.0,0
55.952645,-4.403189,19.90,0.00,0.10,64.33,19.90,19.90,0.10,64.46,10601,2022-10-02 09:39:20.436,2022-10-02 10:39:20.436,14,0,0,16.040,55.952643,-4.403304,-0.10,0.00,0.00,6.70,-3.00,89.90,0,1,0,98,100,-5937,3272,16040,2921.50,13,P-GPS,1,0,0,0,0,0,0,1664703560436,4030,4015,4011,4020,0,0,27,,,,,,,0,0,0,-67.00,-30.00,899.00,0.00,0.00,890.00,6,199.00,1.00,643.27,-1.00,0.00,0.00,0,,,100,100,0,2,0,0,0,2,2,,,,,0.0,0.0,0.0,0.0,0.0,0.0,0
55.952645,-4.403189,19.90,0.00,0.10,64.31,19.90,19.90,0.10,64.46,10697,2022-10-02 09:39:20.533,2022-10-02 10:39:20.532,14,0,0,16.040,55.952643,-4.403304,-0.10,0.00,0.00,6.90,-3.30,89.80,0,1,0,98,100,-5937,3272,16040,2921.50,13,P-GPS,1,0,0,0,0,0,0,1664703560532,4030,4015,4011,4020,0,0,27,,,,,,,0,0,0,-69.00,-33.00,898.00,0.00,0.00,890.00,6,199.00,1.00,643.15,-1.00,0.00,0.00,0,,,100,100,0,2,0,0,0,2,2,,,,,0.0,0.0,0.0,0.0,0.0,0.0,0
55.952645,-4.403189,19.90,0.00,0.00,64.30,19.90,19.90,0.10,64.46,10801,2022-10-02 09:39:20.636,2022-10-02 10:39:20.636,14,0,0,16.040,55.952643,-4.403304,0.00,0.00,0.00,6.70,-3.30,89.90,0,1,0,98,100,-5937,3272,16040,2921.50,13,P-GPS,1,0,0,0,0,0,0,1664703560636,4030,4015,4011,4020,0,0,27,,,,,,,0,0,0,-67.00,-33.00,899.00,0.00,0.00,890.00,6,199.00,0.00,642.98,0.00,0.00,0.00,0,,,100,100,0,2,0,0,0,2,2,,,,,0.0,0.0,0.0,0.0,0.0,0.0,0
55.952645,-4.403189,19.80,0.00,0.00,64.29,19.90,19.90,0.10,64.46,10900,2022-10-02 09:39:20.735,2022-10-02 10:39:20.735,14,0,0,16.040,55.952643,-4.403304,0.00,0.00,0.00,6.70,-2.80,89.80,0,1,0,98,100,-5937,3272,16040,2921.50,13,P-GPS,1,0,0,0,0,0,0,1664703560735,4030,4015,4011,4020,0,0,27,,,,,,,0,0,0,-67.00,-28.00,898.00,0.00,0.00,890.00,6,198.00,0.00,642.93,0.00,0.00,0.00,0,,,100,100,0,2,0,0,0,2,2,,,,,0.0,0.0,0.0,0.0,0.0,0.0,0
55.952645,-4.403189,19.80,0.00,0.00,64.30,19.90,19.90,0.10,64.46,11000,2022-10-02 09:39:20.835,2022-10-02 10:39:20.835,14,0,0,16.040,55.952643,-4.403304,0.00,0.00,0.00,6.50,-1.80,89.80,0,1,0,98,100,-5937,3272,16040,2921.50,13,P-GPS,1,0,0,0,0,0,0,1664703560835,4030,4015,4011,4020,0,0,27,,,,,,,0,0,0,-65.00,-18.00,898.00,0.00,0.00,890.00,6,198.00,0.00,642.97,0.00,0.00,0.00,0,,,100,100,0,2,0,0,0,2,2,,,,,0.0,0.0,0.0,0.0,0.0,0.0,0
55.952645,-4.403189,19.80,0.00,0.10,64.30,19.90,19.90,0.10,64.46,11113,2022-10-02 09:39:20.948,2022-10-02 10:39:20.948,14,0,0,16.092,55.952643,-4.403304,0.00,0.00,0.10,6.50,-1.00,89.90,0,1,0,98,100,-5770,3270,16092,2922.50,13,P-GPS,1,0,0,0,0,0,0,1664703560948,4030,4015,4011,4020,0,0,27,,,,,,,0,0,0,-65.00,-10.00,899.00,0.00,0.00,890.00,6,198.00,1.00,643.00,0.00,0.00,1.00,0,,,100,100,0,2,0,0,0,2,2,,,,,0.0,0.0,0.0,0.0,0.0,0.0,0
55.952645,-4.403189,19.80,0.00,0.00,64.29,19.90,19.90,0.10,64.46,11201,2022-10-02 09:39:21.038,2022-10-02 10:39:21.036,14,0,0,16.092,55.952643,-4.403304,0.00,0.00,0.00,6.20,-0.40,89.90,0,1,0,98,100,-5770,3270,16092,2922.50,13,P-GPS,1,0,0,0,0,0,0,1664703561036,4030,4015,4011,4020,0,0,27,,,,,,,0,0,0,-62.00,-4.00,899.00,0.00,0.00,890.00,6,198.00,0.00,642.90,0.00,0.00,0.00,0,,,100,100,0,2,0,0,0,2,2,,,,,0.0,0.0,0.0,0.0,0.0,0.0,0
55.952645,-4.403189,19.80,0.00,0.00,64.29,19.90,19.90,0.10,64.46,11302,2022-10-02 09:39:21.138,2022-10-02 10:39:21.138,14,0,0,16.092,55.952643,-4.403304,0.00,0.00,0.00,6.40,0.00,89.80,0,1,0,98,100,-5770,3270,16092,2922.50,13,P-GPS,1,0,0,0,0,0,0,1664703561137,4030,4015,4011,4020,0,0,27,,,,,,,0,0,0,-64.00,0.00,898.00,0.00,0.00,890.00,6,198.00,0.00,642.94,0.00,0.00,0.00,0,,,100,100,0,2,0,0,0,2,2,,,,,0.0,0.0,0.0,0.0,0.0,0.0,0
55.952645,-4.403189,19.80,0.00,0.00,64.31,19.90,19.90,0.10,64.46,11398,2022-10-02 09:39:21.234,2022-10-02 10:39:21.233,14,0,0,16.092,55.952643,-4.403304,0.00,0.00,0.00,6.70,0.00,90.00,0,1,0,98,100,-5770,3270,16092,2922.50,13,P-GPS,1,0,0,0,0,0,0,1664703561233,4030,4015,4011,4020,0,0,27,,,,,,,0,0,0,-67.00,0.00,900.00,0.00,0.00,890.00,6,198.00,0.00,643.06,0.00,0.00,0.00,0,,,100,100,0,2,0,0,0,2,2,,,,,0.0,0.0,0.0,0.0,0.0,0.0,0
55.952645,-4.403189,19.80,0.00,0.00,64.31,19.90,19.90,0.10,64.46,11498,2022-10-02 09:39:21.333,2022-10-02 10:39:21.333,14,0,0,16.092,55.952643,-4.403304,0.00,0.00,0.00,6.40,0.40,90.00,0,1,0,98,100,-5770,3270,16092,2922.50,13,P-GPS,1,0,0,0,0,0,0,1664703561333,4030,4015,4011,4020,0,0,27,,,,,,,0,0,0,-64.00,4.00,900.00,0.00,0.00,890.00,6,198.00,0.00,643.08,0.00,0.00,0.00,0,,,100,100,0,2,0,0,0,2,2,,,,,0.0,0.0,0.0,0.0,0.0,0.0,0
55.952645,-4.403189,19.80,0.00,0.00,64.30,19.90,19.90,0.10,64.46,11602,2022-10-02 09:39:21.437,2022-10-02 10:39:21.437,14,0,0,16.092,55.952643,-4.403304,0.00,0.00,0.00,6.30,0.30,89.90,0,1,0,98,100,-5770,3270,16092,2922.50,13,P-GPS,1,0,0,0,0,0,0,1664703561437,4030,4015,4011,4020,0,0,27,,,,,,,0,0,0,-63.00,3.00,899.00,0.00,0.00,890.00,6,198.00,0.00,643.05,0.00,0.00,0.00,0,,,100,100,0,2,0,0,0,2,2,,,,,0.0,0.0,0.0,0.0,0.0,0.0,0
55.952645,-4.403189,19.80,0.00,0.00,64.30,19.90,19.90,0.10,64.46,11706,2022-10-02 09:39:21.542,2022-10-02 10:39:21.541,14,0,0,16.092,55.952643,-4.403304,0.00,0.00,0.00,6.50,0.20,90.10,0,1,0,98,100,-5770,3270,16092,2922.50,13,P-GPS,1,0,0,0,0,0,0,1664703561541,4030,4015,4011,4020,0,0,27,,,,,,,0,0,0,-65.00,2.00,901.00,0.00,0.00,890.00,6,198.00,0.00,643.03,0.00,0.00,0.00,0,,,100,100,0,2,0,0,0,2,2,,,,,0.0,0.0,0.0,0.0,0.0,0.0,0
55.952645,-4.403189,19.90,0.00,0.00,64.31,19.90,19.90,0.10,64.46,11813,2022-10-02 09:39:21.648,2022-10-02 10:39:21.648,14,0,0,16.092,55.952643,-4.403304,0.00,0.00,0.00,6.30,-0.20,90.00,0,1,0,98,100,-5770,3270,16092,2922.50,13,P-GPS,1,0,0,0,0,0,0,1664703561648,4030,4015,4011,4020,0,0,27,,,,,,,0,0,0,-63.00,-2.00,900.00,0.00,0.00,890.00,6,199.00,0.00,643.05,0.00,0.00,0.00,0,,,100,100,0,2,0,0,0,2,2,,,,,0.0,0.0,0.0,0.0,0.0,0.0,0
55.952645,-4.403189,19.90,0.00,0.00,64.30,19.90,19.90,0.10,64.46,11901,2022-10-02 09:39:21.736,2022-10-02 10:39:21.736,14,0,0,16.092,55.952643,-4.403304,0.00,0.00,0.00,6.00,-0.50,90.10,0,1,0,98,100,-5770,3270,16092,2922.50,13,P-GPS,1,0,0,0,0,0,0,1664703561736,4030,4015,4011,4020,0,0,27,,,,,,,0,0,0,-60.00,-5.00,901.00,0.00,0.00,890.00,6,199.00,0.00,643.01,0.00,0.00,0.00,0,,,100,100,0,2,0,0,0,2,2,,,,,0.0,0.0,0.0,0.0,0.0,0.0,0
55.952645,-4.403189,19.90,0.00,0.00,64.29,19.90,19.90,0.10,64.46,12005,2022-10-02 09:39:21.840,2022-10-02 10:39:21.840,14,0,0,16.092,55.952643,-4.403304,0.00,0.00,0.00,6.20,-0.90,90.00,0,1,0,98,100,-5770,3270,16092,2922.50,13,P-GPS,1,0,0,0,0,0,0,1664703561840,4030,4015,4011,4020,0,0,27,,,,,,,0,0,0,-62.00,-9.00,900.00,0.00,0.00,890.00,6,199.00,0.00,642.92,0.00,0.00,0.00,0,,,100,100,0,2,0,0,0,2,2,,,,,0.0,0.0,0.0,0.0,0.0,0.0,0
55.952644,-4.403189,19.90,0.00,0.00,64.29,19.90,19.90,0.10,64.46,12103,2022-10-02 09:39:21.938,2022-10-02 10:39:21.938,14,0,0,16.092,55.952643,-4.403304,0.00,0.00,0.00,6.10,-1.40,90.00,0,1,0,98,100,-5770,3270,16092,2922.50,13,P-GPS,1,0,0,0,0,0,0,1664703561938,4030,4015,4011,4020,0,0,27,,,,,,,0,0,0,-61.00,-14.00,900.00,0.00,0.00,890.00,6,199.00,0.00,642.86,0.00,0.00,0.00,0,,,100,100,0,2,0,0,0,2,2,,,,,0.0,0.0,0.0,0.0,0.0,0.0,0
55.952644,-4.403189,19.90,0.00,0.00,64.29,19.90,19.90,0.10,64.46,12197,2022-10-02 09:39:22.032,2022-10-02 10:39:22.032,14,0,0,16.092,55.952643,-4.403304,0.00,0.00,0.00,6.80,-1.70,90.00,0,1,0,98,100,-5770,3270,16092,2922.50,13,P-GPS,1,0,0,0,0,0,0,1664703562032,4030,4015,4011,4020,0,0,27,,,,,,,0,0,0,-68.00,-17.00,900.00,0.00,0.00,890.00,6,199.00,0.00,642.89,0.00,0.00,0.00,0,,,100,100,0,2,0,0,0,2,2,,,,,0.0,0.0,0.0,0.0,0.0,0.0,0
55.952644,-4.403189,19.90,0.00,0.00,64.28,19.90,19.90,0.10,64.46,12302,2022-10-02 09:39:22.137,2022-10-02 10:39:22.137,14,0,0,16.092,55.952643,-4.403304,0.00,0.00,0.00,7.10,-1.90,89.90,0,1,0,98,100,-5770,3270,16092,2922.50,13,P-GPS,1,0,0,0,0,0,0,1664703562137,4030,4015,4011,4020,0,0,27,,,,,,,0,0,0,-71.00,-19.00,899.00,0.00,0.00,890.00,6,199.00,0.00,642.84,0.00,0.00,0.00,0,,,100,100,0,2,0,0,0,2,2,,,,,0.0,0.0,0.0,0.0,0.0,0.0,0
55.952644,-4.403189,19.90,0.00,0.00,64.28,19.90,19.90,0.10,64.46,12402,2022-10-02 09:39:22.237,2022-10-02 10:39:22.237,14,0,0,16.092,55.952643,-4.403304,0.00,0.00,0.00,6.80,-1.40,90.00,0,1,0,98,100,-5770,3270,16092,2922.50,13,P-GPS,1,0,0,0,0,0,0,1664703562237,4030,4015,4011,4020,0,0,27,,,,,,,0,0,0,-68.00,-14.00,900.00,0.00,0.00,890.00,6,199.00,0.00,642.81,0.00,0.00,0.00,0,,,100,100,0,2,0,0,0,2,2,,,,,0.0,0.0,0.0,0.0,0.0,0.0,0
55.952644,-4.403189,19.90,0.00,0.00,64.28,19.90,19.90,0.10,64.46,12510,2022-10-02 09:39:22.345,2022-10-02 10:39:22.345,14,0,0,16.092,55.952643,-4.403304,0.00,0.00,0.00,6.90,-1.20,89.90,0,1,0,98,100,-5770,3270,16092,2922.50,13,P-GPS,1,0,0,0,0,0,0,1664703562345,4030,4015,4011,4020,0,0,27,,,,,,,0,0,0,-69.00,-12.00,899.00,0.00,0.00,890.00,6,199.00,0.00,642.78,0.00,0.00,0.00,0,,,100,100,0,2,0,0,0,2,2,,,,,0.0,0.0,0.0,0.0,0.0,0.0,0
55.952644,-4.403189,19.90,0.00,0.00,64.28,19.90,19.90,0.10,64.46,12695,2022-10-02 09:39:22.530,2022-10-02 10:39:22.530,14,0,0,16.092,55.952643,-4.403304,0.00,0.00,0.00,7.20,-0.40,89.80,0,1,0,98,100,-5770,3270,16092,2922.50,13,P-GPS,1,0,0,0,0,0,0,1664703562530,4030,4015,4011,4020,0,0,27,,,,,,,0,0,0,-72.00,-4.00,898.00,0.00,0.00,890.00,6,199.00,0.00,642.79,0.00,0.00,0.00,0,,,100,100,0,2,0,0,0,2,2,,,,,0.0,0.0,0.0,0.0,0.0,0.0,0
55.952644,-4.403189,19.90,0.00,0.00,64.27,19.90,19.90,0.10,64.46,12802,2022-10-02 09:39:22.638,2022-10-02 10:39:22.637,14,0,0,16.092,55.952643,-4.403304,0.00,0.00,0.00,7.40,-0.20,89.80,0,1,0,98,100,-5770,3270,16092,2922.50,13,P-GPS,1,0,0,0,0,0,0,1664703562637,4030,4015,4011,4020,0,0,27,,,,,,,0,0,0,-74.00,-2.00,898.00,0.00,0.00,890.00,6,199.00,0.00,642.75,0.00,0.00,0.00,0,,,100,100,0,2,0,0,0,2,2,,,,,0.0,0.0,0.0,0.0,0.0,0.0,0
55.952644,-4.403189,20.00,0.00,0.00,64.27,20.00,20.00,0.10,64.46,12899,2022-10-02 09:39:22.734,2022-10-02 10:39:22.734,14,0,0,16.092,55.952643,-4.403304,0.00,0.00,0.00,7.60,0.00,89.90,0,1,0,98,100,-5770,3270,16092,2922.50,13,P-GPS,1,0,0,0,0,0,0,1664703562734,4030,4015,4011,4020,0,0,27,,,,,,,0,0,0,-76.00,0.00,899.00,0.00,0.00,890.00,6,200.00,0.00,642.74,0.00,0.00,0.00,0,,,100,100,0,2,0,0,0,2,2,,,,,0.0,0.0,0.0,0.0,0.0,0.0,0
55.952644,-4.403189,20.00,0.00,0.00,64.27,20.00,20.00,0.10,64.46,13006,2022-10-02 09:39:22.841,2022-10-02 10:39:22.841,14,0,0,16.092,55.952643,-4.403304,0.00,0.00,0.00,7.80,0.00,89.90,0,1,0,98,100,-5770,3270,16092,2922.50,13,P-GPS,1,0,0,0,0,0,0,1664703562841,4030,4015,4011,4020,0,0,27,,,,,,,0,0,0,-78.00,0.00,899.00,0.00,0.00,890.00,6,200.00,0.00,642.73,0.00,0.00,0.00,0,,,100,100,0,2,0,0,0,2,2,,,,,0.0,0.0,0.0,0.0,0.0,0.0,0
55.952644,-4.403189,20.00,0.00,0.00,64.27,20.00,20.00,0.10,64.46,13105,2022-10-02 09:39:22.941,2022-10-02 10:39:22.940,14,0,0,16.061,55.952643,-4.403304,0.00,0.00,0.00,7.90,0.20,89.90,0,1,0,98,100,-6020,3269,16061,2922.50,13,P-GPS,1,0,0,0,0,0,0,1664703562940,4030,4015,4011,4020,0,0,27,,,,,,,0,0,0,-79.00,2.00,899.00,0.00,0.00,890.00,6,200.00,0.00,642.73,0.00,0.00,0.00,0,,,100,100,0,2,0,0,0,2,2,,,,,0.0,0.0,0.0,0.0,0.0,0.0,0
55.952645,-4.403189,20.00,0.00,0.00,64.28,20.00,20.00,0.10,64.46,13209,2022-10-02 09:39:23.044,2022-10-02 10:39:23.044,14,0,0,16.061,55.952643,-4.403304,0.00,0.00,0.00,7.80,0.40,90.00,0,1,0,98,100,-6020,3269,16061,2922.50,13,P-GPS,1,0,0,0,0,0,0,1664703563044,4030,4015,4011,4020,0,0,27,,,,,,,0,0,0,-78.00,4.00,900.00,0.00,0.00,890.00,6,200.00,0.00,642.81,0.00,0.00,0.00,0,,,100,100,0,2,0,0,0,2,2,,,,,0.0,0.0,0.0,0.0,0.0,0.0,0
55.952645,-4.403189,20.00,0.00,0.10,64.28,20.00,20.00,0.10,64.46,13301,2022-10-02 09:39:23.137,2022-10-02 10:39:23.136,14,0,0,16.061,55.952643,-4.403304,0.00,0.00,0.10,7.70,0.60,89.90,0,1,0,98,100,-6020,3269,16061,2922.50,13,P-GPS,1,0,0,0,0,0,0,1664703563136,4030,4015,4011,4020,0,0,27,,,,,,,0,0,0,-77.00,6.00,899.00,0.00,0.00,890.00,6,200.00,1.00,642.82,0.00,0.00,1.00,0,,,100,100,0,2,0,0,0,2,2,,,,,0.0,0.0,0.0,0.0,0.0,0.0,0
55.952645,-4.403189,20.00,0.00,0.10,64.29,20.00,20.00,0.10,64.46,13402,2022-10-02 09:39:23.238,2022-10-02 10:39:23.237,14,0,0,16.061,55.952643,-4.403304,0.00,0.00,0.10,8.00,0.60,89.90,0,1,0,98,100,-6020,3269,16061,2922.50,13,P-GPS,1,0,0,0,0,0,0,1664703563237,4030,4015,4011,4020,0,0,27,,,,,,,0,0,0,-80.00,6.00,899.00,0.00,0.00,890.00,6,200.00,1.00,642.92,0.00,0.00,1.00,0,,,100,100,0,2,0,0,0,2,2,,,,,0.0,0.0,0.0,0.0,0.0,0.0,0
55.952645,-4.403189,20.00,0.00,0.14,64.29,20.00,20.00,0.14,64.46,13496,2022-10-02 09:39:23.331,2022-10-02 10:39:23.331,14,0,0,16.061,55.952643,-4.403304,0.00,0.10,0.10,8.10,0.80,89.80,0,1,0,98,100,-6020,3269,16061,2922.50,13,P-GPS,1,0,0,0,0,0,0,1664703563331,4030,4015,4011,4020,0,0,27,,,,,,,0,0,0,-81.00,8.00,898.00,0.00,0.00,890.00,6,200.00,1.41,642.94,0.00,1.00,1.00,0,,,100,100,0,2,0,0,0,2,2,,,,,0.0,0.0,0.0,0.0,0.0,0.0,0
55.952645,-4.403188,20.00,0.00,0.14,64.30,20.00,20.00,0.14,64.46,13606,2022-10-02 09:39:23.441,2022-10-02 10:39:23.441,14,0,0,16.061,55.952643,-4.403304,0.00,0.10,0.10,8.30,1.10,89.90,0,1,0,98,100,-6020,3269,16061,2922.50,13,P-GPS,1,0,0,0,0,0,0,1664703563441,4030,4015,4011,4020,0,0,27,,,,,,,0,0,0,-83.00,11.00,899.00,0.00,0.00,890.00,6,200.00,1.41,642.96,0.00,1.00,1.00,0,,,100,100,0,2,0,0,0,2,2,,,,,0.0,0.0,0.0,0.0,0.0,0.0,0
55.952645,-4.403188,19.90,0.00,0.14,64.30,20.00,20.00,0.14,64.46,13702,2022-10-02 09:39:23.538,2022-10-02 10:39:23.537,14,0,0,16.061,55.952643,-4.403304,0.00,0.10,0.10,8.50,1.30,89.90,0,1,0,98,100,-6020,3269,16061,2922.50,13,P-GPS,1,0,0,0,0,0,0,1664703563537,4030,4015,4011,4020,0,0,27,,,,,,,0,0,0,-85.00,13.00,899.00,0.00,0.00,890.00,6,199.00,1.41,642.98,0.00,1.00,1.00,0,,,100,100,0,2,0,0,0,2,2,,,,,0.0,0.0,0.0,0.0,0.0,0.0,0
55.952645,-4.403188,19.90,0.00,0.00,64.30,20.00,20.00,0.14,64.46,13803,2022-10-02 09:39:23.639,2022-10-02 10:39:23.638,14,0,0,16.061,55.952643,-4.403304,0.00,0.00,0.00,8.30,1.60,89.90,0,1,0,98,100,-6020,3269,16061,2922.50,13,P-GPS,1,0,0,0,0,0,0,1664703563638,4030,4015,4011,4020,0,0,27,,,,,,,0,0,0,-83.00,16.00,899.00,0.00,0.00,890.00,6,199.00,0.00,643.05,0.00,0.00,0.00,0,,,100,100,0,2,0,0,0,2,2,,,,,0.0,0.0,0.0,0.0,0.0,0.0,0
55.952645,-4.403188,20.00,0.00,0.00,64.31,20.00,20.00,0.14,64.46,13898,2022-10-02 09:39:23.733,2022-10-02 10:39:23.733,14,0,0,16.061,55.952643,-4.403304,0.00,0.00,0.00,8.50,1.80,89.90,0,1,0,98,100,-6020,3269,16061,2922.50,13,P-GPS,1,0,0,0,0,0,0,1664703563733,4030,4015,4011,4020,0,0,27,,,,,,,0,0,0,-85.00,18.00,899.00,0.00,0.00,890.00,6,200.00,0.00,643.08,0.00,0.00,0.00,0,,,100,100,0,2,0,0,0,2,2,,,,,0.0,0.0,0.0,0.0,0.0,0.0,0
55.952645,-4.403188,20.00,0.00,0.00,64.31,20.00,20.00,0.14,64.46,14005,2022-10-02 09:39:23.840,2022-10-02 10:39:23.840,14,0,0,16.061,55.952643,-4.403304,0.00,0.00,0.00,8.40,1.60,89.80,0,1,0,98,100,-6020,3269,16061,2922.50,13,P-GPS,1,0,0,0,0,0,0,1664703563840,4030,4015,4011,4020,0,0,27,,,,,,,0,0,0,-84.00,16.00,898.00,0.00,0.00,890.00,6,200.00,0.00,643.05,0.00,0.00,0.00,0,,,100,100,0,2,0,0,0,2,2,,,,,0.0,0.0,0.0,0.0,0.0,0.0,0
