latitude,longitude,altitude(m),ultrasonicHeight(m),speed(mps),distance(m),max_altitude(m),max_ascent(m),max_speed(mps),max_distance(m),time(millisecond),datetime(utc),datetime(local),satellites,pressure(Pa),temperature(F),voltage(v),home_latitude,home_longitude,velocityX(mps),velocityY(mps),velocityZ(mps),pitch(deg),roll(deg),yaw(deg),powerlevel,isflying,istakingphoto,remainPowerPercent,remainLifePercent,currentCurrent,currentElectricity,currentVoltage,batteryTemperature,dischargeCount,flightmode,isMotorsOn,isTakingVideo,Rc_elevator,Rc_aileron,Rc_throttle,Rc_rudder,Rc_gyro,timestamp,Battery_Cell1,Battery_Cell2,Battery_Cell3,Battery_Cell4,Battery_Cell5,Battery_Cell6,Dronetype,AppVersion,Planename,FlyControllerSerialNumber,RemoteSerialNumber,BatterySerialNumber,CENTER_BATTERY.productDate,CENTER_BATTERY.serialNo,CENTER_BATTERY.fullCapacity,CENTER_BATTERY.productDateRaw,pitchRaw,rollRaw,yawRaw,gimbalPitchRaw,gimbalRollRaw,gimbalYawRaw,flyState,altitudeRaw,speedRaw,distanceRaw,velocityXRaw,velocityYRaw,velocityZRaw,data_reuse,App_Tip,App_Warning,downlinkSignalQuality,uplinkSignalQuality,transmissionChannel,rcModeSwitch,rcHome,rcPause,rcTransform,rcJoystickMode,appMode,FlyControllerSerialNumber_legacy,RemoteSerialNumber_legacy,BatterySerialNumber_legacy,Battery2SerialNumber,frontAvoidDist,backAvoidDist,rightAvoidDist,leftAvoidDist,upAvoidDist,downAvoidDist,isBrakingToAvoid
55.952635,-4.403313,0.20,0.30,0.33,0.34,0.20,0.20,0.33,0.34,0,2022-04-09 20:10:23.471,2022-04-09 21:10:23.470,16,0,0,17.011,55.952637,-4.403310,-0.10,-0.30,-0.10,2.40,-6.40,176.10,0,1,0,98,100,-1992,3256,17011,2948.50,7,P-GPS,1,0,0,0,161,0,0,1649535023470,4170,4138,4151,4167,0,0,27,Litchi_4.22.2-g,CJTMAVIC,163DFAS001K45C,0VECFAK0072T52,0P2AFAL5340E87,,0,0,0,-24.00,-64.00,1761.00,37.00,0.00,1778.00,6,2.00,3.32,3.36,-1.00,-3.00,-1.00,0,,,100,100,0,2,0,0,0,2,0,,,,null,0.0,4.0,0.0,0.0,0.0,0.0,0
55.952634,-4.403313,0.20,0.30,0.22,0.36,0.20,0.20,0.33,0.36,103,2022-04-09 20:10:23.573,2022-04-09 21:10:23.573,16,0,0,17.011,55.952637,-4.403310,0.00,-0.20,-0.10,1.40,-6.40,175.90,0,1,0,98,100,-1992,3256,17011,2948.50,7,P-GPS,1,0,0,0,174,0,0,1649535023573,4170,4138,4151,4167,0,0,27,,,,,,,0,0,0,-14.00,-64.00,1759.00,37.00,0.00,1778.00,6,2.00,2.24,3.60,0.00,-2.00,-1.00,0,,,100,100,0,2,0,0,0,2,0,,,,,0.0,4.0,0.0,0.0,0.0,0.0,0
55.952634,-4.403313,0.30,0.40,0.22,0.39,0.30,0.30,0.33,0.39,200,2022-04-09 20:10:23.671,2022-04-09 21:10:23.670,16,0,0,17.011,55.952637,-4.403310,0.00,-0.20,-0.10,0.90,-5.90,176.10,0,1,0,98,100,-1992,3256,17011,2948.50,7,P-GPS,1,0,0,0,191,0,0,1649535023670,4170,4138,4151,4167,0,0,27,,,,,,,0,0,0,-9.00,-59.00,1761.00,37.00,0.00,1778.00,6,3.00,2.24,3.86,0.00,-2.00,-1.00,0,,,100,100,0,2,0,0,0,2,0,,,,,0.0,4.0,0.0,0.0,0.0,0.0,0
55.952634,-4.403313,0.30,0.40,0.30,0.41,0.30,0.30,0.33,0.41,307,2022-04-09 20:10:23.777,2022-04-09 21:10:23.777,16,0,0,17.011,55.952637,-4.403310,-0.10,-0.20,-0.20,0.80,-5.30,176.10,0,1,0,98,100,-1992,3256,17011,2948.50,7,P-GPS,1,0,0,0,202,0,0,1649535023777,4170,4138,4151,4167,0,0,27,,,,,,,0,0,0,-8.00,-53.00,1761.00,37.00,0.00,1778.00,6,3.00,3.00,4.06,-1.00,-2.00,-2.00,0,,,100,100,0,2,0,0,0,2,0,,,,,0.0,4.0,0.0,0.0,0.0,0.0,0
55.952634,-4.403314,0.30,0.40,0.30,0.43,0.30,0.30,0.33,0.43,396,2022-04-09 20:10:23.867,2022-04-09 21:10:23.866,16,0,0,17.011,55.952637,-4.403310,-0.10,-0.20,-0.20,2.10,-5.40,176.00,0,1,0,98,100,-1992,3256,17011,2948.50,7,P-GPS,1,0,0,0,208,0,0,1649535023866,4170,4138,4151,4167,0,0,27,,,,,,,0,0,0,-21.00,-54.00,1760.00,37.00,0.00,1778.00,6,3.00,3.00,4.27,-1.00,-2.00,-2.00,0,,,100,100,0,2,0,0,0,2,0,,,,,0.0,4.0,0.0,0.0,0.0,0.0,0
55.952634,-4.403314,0.30,0.40,0.37,0.45,0.30,0.30,0.37,0.45,505,2022-04-09 20:10:23.975,2022-04-09 21:10:23.975,16,0,0,17.011,55.952637,-4.403310,-0.10,-0.20,-0.30,3.00,-5.20,175.90,0,1,0,98,100,-1992,3256,17011,2948.50,7,P-GPS,1,0,0,0,217,0,0,1649535023975,4170,4138,4151,4167,0,0,27,,,,,,,0,0,0,-30.00,-52.00,1759.00,37.00,0.00,1778.00,6,3.00,3.74,4.50,-1.00,-2.00,-3.00,0,,,100,100,0,2,0,0,0,2,0,,,,,0.0,4.0,0.0,0.0,0.0,0.0,0
55.952634,-4.403314,0.40,0.50,0.36,0.47,0.40,0.40,0.37,0.47,601,2022-04-09 20:10:24.071,2022-04-09 21:10:24.071,16,0,0,16.352,55.952637,-4.403310,0.00,-0.20,-0.30,3.10,-5.50,176.00,0,1,0,98,100,-5629,3254,16352,2948.50,7,P-GPS,1,0,0,0,224,0,0,1649535024071,4170,4138,4151,4167,0,0,27,,,,,,,0,0,0,-31.00,-55.00,1760.00,37.00,0.00,1778.00,6,4.00,3.61,4.69,0.00,-2.00,-3.00,0,,,100,100,0,2,0,0,0,2,0,,,,,0.0,4.0,0.0,0.0,0.0,0.0,0
55.952634,-4.403314,0.40,0.50,0.32,0.49,0.40,0.40,0.37,0.49,698,2022-04-09 20:10:24.169,2022-04-09 21:10:24.169,16,0,0,16.352,55.952637,-4.403310,0.00,-0.10,-0.30,2.70,-5.10,176.10,0,1,0,98,100,-5629,3254,16352,2948.50,7,P-GPS,1,0,0,0,230,0,0,1649535024168,4170,4138,4151,4167,0,0,27,,,,,,,0,0,0,-27.00,-51.00,1761.00,37.00,0.00,1778.00,6,4.00,3.16,4.85,0.00,-1.00,-3.00,0,,,100,100,0,2,0,0,0,2,0,,,,,0.0,4.0,0.0,0.0,0.0,0.0,0
55.952634,-4.403315,0.40,0.60,0.32,0.49,0.40,0.40,0.37,0.49,806,2022-04-09 20:10:24.277,2022-04-09 21:10:24.276,16,0,0,16.352,55.952637,-4.403310,0.00,-0.10,-0.30,1.80,-4.90,176.20,0,1,0,98,100,-5629,3254,16352,2948.50,7,P-GPS,1,0,0,0,240,0,0,1649535024276,4170,4138,4151,4167,0,0,27,,,,,,,0,0,0,-18.00,-49.00,1762.00,37.00,0.00,1778.00,6,4.00,3.16,4.89,0.00,-1.00,-3.00,0,,,100,100,0,2,0,0,0,2,0,,,,,0.0,4.0,0.0,0.0,0.0,0.0,0
55.952634,-4.403315,0.50,0.60,0.41,0.50,0.50,0.50,0.41,0.50,902,2022-04-09 20:10:24.373,2022-04-09 21:10:24.372,16,0,0,16.352,55.952637,-4.403310,0.00,-0.10,-0.40,1.10,-4.70,176.30,0,1,0,98,100,-5629,3254,16352,2948.50,7,P-GPS,1,0,0,0,242,0,0,1649535024372,4170,4138,4151,4167,0,0,27,,,,,,,0,0,0,-11.00,-47.00,1763.00,37.00,0.00,1778.00,6,5.00,4.12,5.01,0.00,-1.00,-4.00,0,,,100,100,0,2,0,0,0,2,0,,,,,0.0,4.0,0.0,0.0,0.0,0.0,0
55.952633,-4.403315,0.50,0.60,0.41,0.52,0.50,0.50,0.41,0.52,1002,2022-04-09 20:10:24.473,2022-04-09 21:10:24.472,16,0,0,16.352,55.952637,-4.403310,0.00,-0.10,-0.40,1.20,-4.40,176.10,0,1,0,98,100,-5629,3254,16352,2948.50,7,P-GPS,1,0,0,0,243,0,0,1649535024472,4170,4138,4151,4167,0,0,27,,,,,,,0,0,0,-12.00,-44.00,1761.00,37.00,0.00,1778.00,6,5.00,4.12,5.23,0.00,-1.00,-4.00,0,,,100,100,0,2,0,0,0,2,0,,,,,0.0,4.4,0.0,0.0,0.0,0.0,0
55.952633,-4.403315,0.60,0.70,0.41,0.53,0.60,0.60,0.41,0.53,1106,2022-04-09 20:10:24.576,2022-04-09 21:10:24.576,16,0,0,16.352,55.952637,-4.403310,0.00,-0.10,-0.40,1.50,-4.10,176.00,0,1,0,98,100,-5629,3254,16352,2948.50,7,P-GPS,1,0,0,0,243,0,0,1649535024576,4170,4138,4151,4167,0,0,27,,,,,,,0,0,0,-15.00,-41.00,1760.00,37.00,0.00,1778.00,6,6.00,4.12,5.35,0.00,-1.00,-4.00,0,,,100,100,0,2,0,0,0,2,0,,,,,0.0,4.4,0.0,0.0,0.0,0.0,0
55.952633,-4.403315,0.60,0.70,0.41,0.54,0.60,0.60,0.41,0.54,1199,2022-04-09 20:10:24.670,2022-04-09 21:10:24.669,16,0,0,16.352,55.952637,-4.403310,0.00,-0.10,-0.40,1.30,-4.50,176.00,0,1,0,98,100,-5629,3254,16352,2948.50,7,P-GPS,1,0,0,0,246,0,0,1649535024669,4170,4138,4151,4167,0,0,27,,,,,,,0,0,0,-13.00,-45.00,1760.00,37.00,0.00,1778.00,6,6.00,4.12,5.41,0.00,-1.00,-4.00,0,,,100,100,0,2,0,0,0,2,0,,,,,0.0,4.4,0.0,0.0,0.0,0.0,0
55.952633,-4.403316,0.60,0.80,0.41,0.55,0.60,0.60,0.41,0.55,1313,2022-04-09 20:10:24.784,2022-04-09 21:10:24.783,16,0,0,16.352,55.952637,-4.403310,0.00,-0.10,-0.40,1.30,-4.90,176.00,0,1,0,98,100,-5629,3254,16352,2948.50,7,P-GPS,1,0,0,0,255,0,0,1649535024783,4170,4138,4151,4167,0,0,27,,,,,,,0,0,0,-13.00,-49.00,1760.00,37.00,0.00,1778.00,6,6.00,4.12,5.54,0.00,-1.00,-4.00,0,,,100,100,0,2,0,0,0,2,0,,,,,0.0,4.4,0.0,0.0,0.0,0.0,0
55.952633,-4.403316,0.70,0.80,0.41,0.57,0.70,0.70,0.41,0.57,1402,2022-04-09 20:10:24.872,2022-04-09 21:10:24.872,16,0,0,16.352,55.952637,-4.403310,0.00,-0.10,-0.40,1.30,-5.50,176.00,0,1,0,98,100,-5629,3254,16352,2948.50,7,P-GPS,1,0,0,0,259,0,0,1649535024872,4170,4138,4151,4167,0,0,27,,,,,,,0,0,0,-13.00,-55.00,1760.00,37.00,0.00,1778.00,6,7.00,4.12,5.66,0.00,-1.00,-4.00,0,,,100,100,0,2,0,0,0,2,0,,,,,0.0,4.5,0.0,0.0,0.0,0.0,0
55.952633,-4.403316,0.70,0.90,0.41,0.58,0.70,0.70,0.41,0.58,1507,2022-04-09 20:10:24.978,2022-04-09 21:10:24.977,16,0,0,16.352,55.952637,-4.403310,0.00,-0.10,-0.40,1.20,-5.70,176.00,0,1,0,98,100,-5629,3254,16352,2948.50,7,P-GPS,1,0,0,0,259,0,0,1649535024977,4170,4138,4151,4167,0,0,27,,,,,,,0,0,0,-12.00,-57.00,1760.00,37.00,0.00,1778.00,6,7.00,4.12,5.82,0.00,-1.00,-4.00,0,,,100,100,0,2,0,0,0,2,0,,,,,0.0,4.5,0.0,0.0,0.0,0.0,0
55.952633,-4.403316,0.80,0.90,0.41,0.59,0.80,0.80,0.41,0.59,1600,2022-04-09 20:10:25.071,2022-04-09 21:10:25.070,16,0,0,16.271,55.952637,-4.403310,0.00,-0.10,-0.40,1.10,-5.90,175.90,0,1,0,98,100,-6972,3252,16271,2948.50,7,P-GPS,1,0,0,56,259,0,0,1649535025070,4170,4138,4151,4167,0,0,27,,,,,,,0,0,0,-11.00,-59.00,1759.00,37.00,0.00,1778.00,6,8.00,4.12,5.94,0.00,-1.00,-4.00,0,,,100,100,0,2,0,0,0,2,0,,,,,0.0,4.5,0.0,0.0,0.0,0.0,0
55.952633,-4.403316,0.80,1.00,0.41,0.61,0.80,0.80,0.41,0.61,1701,2022-04-09 20:10:25.172,2022-04-09 21:10:25.171,16,0,0,16.271,55.952637,-4.403310,0.00,-0.10,-0.40,1.20,-5.70,176.00,0,1,0,98,100,-6972,3252,16271,2948.50,7,P-GPS,1,0,0,125,259,0,0,1649535025171,4170,4138,4151,4167,0,0,27,,,,,,,0,0,0,-12.00,-57.00,1760.00,37.00,0.00,1778.00,6,8.00,4.12,6.11,0.00,-1.00,-4.00,0,,,100,100,0,2,0,0,0,2,0,,,,,0.0,4.4,0.0,0.0,0.0,0.0,0
55.952633,-4.403316,0.90,1.00,0.51,0.62,0.90,0.90,0.51,0.62,1800,2022-04-09 20:10:25.270,2022-04-09 21:10:25.270,16,0,0,16.271,55.952637,-4.403310,0.00,-0.10,-0.50,1.50,-5.30,176.00,0,1,0,98,100,-6972,3252,16271,2948.50,7,P-GPS,1,0,0,163,259,0,0,1649535025270,4170,4138,4151,4167,0,0,27,,,,,,,0,0,0,-15.00,-53.00,1760.00,37.00,0.00,1778.00,6,9.00,5.10,6.17,0.00,-1.00,-5.00,0,,,100,100,0,2,0,0,0,2,0,,,,,0.0,4.4,0.0,0.0,0.0,0.0,0
55.952633,-4.403317,0.90,1.10,0.51,0.63,0.90,0.90,0.51,0.63,1897,2022-04-09 20:10:25.367,2022-04-09 21:10:25.367,16,0,0,16.271,55.952637,-4.403310,0.00,-0.10,-0.50,1.50,-4.50,176.10,0,1,0,98,100,-6972,3252,16271,2948.50,7,P-GPS,1,0,5,163,259,0,0,1649535025367,4170,4138,4151,4167,0,0,27,,,,,,,0,0,0,-15.00,-45.00,1761.00,37.00,0.00,1778.00,6,9.00,5.10,6.33,0.00,-1.00,-5.00,0,,,100,100,0,2,0,0,0,2,0,,,,,0.0,4.4,0.0,0.0,0.0,0.0,0
55.952633,-4.403317,1.00,1.20,0.54,0.64,1.00,1.00,0.54,0.64,2005,2022-04-09 20:10:25.475,2022-04-09 21:10:25.475,16,0,0,16.271,55.952637,-4.403310,0.00,-0.20,-0.50,1.10,-4.00,176.10,0,1,0,98,100,-6972,3252,16271,2948.50,7,P-GPS,1,0,28,158,257,0,0,1649535025475,4170,4138,4151,4167,0,0,27,,,,,,,0,0,0,-11.00,-40.00,1761.00,37.00,0.00,1778.00,6,10.00,5.39,6.40,0.00,-2.00,-5.00,0,,,100,100,0,2,0,0,0,2,0,,,,,0.0,4.4,0.0,0.0,0.0,0.0,0
55.952633,-4.403317,1.00,1.20,0.54,0.66,1.00,1.00,0.54,0.66,2102,2022-04-09 20:10:25.573,2022-04-09 21:10:25.572,16,0,0,16.271,55.952637,-4.403310,0.00,-0.20,-0.50,0.90,-4.20,176.20,0,1,0,98,100,-6972,3252,16271,2948.50,7,P-GPS,1,0,69,119,255,0,0,1649535025572,4170,4138,4151,4167,0,0,27,,,,,,,0,0,0,-9.00,-42.00,1762.00,37.00,0.00,1778.00,6,10.00,5.39,6.57,0.00,-2.00,-5.00,0,,,100,100,0,2,0,0,0,2,0,,,,,0.0,4.4,0.0,0.0,0.0,0.0,0
55.952633,-4.403318,1.10,1.30,0.54,0.69,1.10,1.10,0.54,0.69,2199,2022-04-09 20:10:25.670,2022-04-09 21:10:25.669,16,0,0,16.271,55.952637,-4.403310,0.00,-0.20,-0.50,0.80,-4.80,176.10,0,1,0,98,100,-6972,3252,16271,2948.50,7,P-GPS,1,0,118,21,254,0,0,1649535025669,4170,4138,4151,4167,0,0,27,,,,,,,0,0,0,-8.00,-48.00,1761.00,37.00,0.00,1778.00,6,11.00,5.39,6.95,0.00,-2.00,-5.00,0,,,100,100,0,2,0,0,0,2,0,,,,,0.0,4.4,0.0,0.0,0.0,0.0,0
55.952633,-4.403318,1.10,1.30,0.45,0.72,1.10,1.10,0.54,0.72,2306,2022-04-09 20:10:25.777,2022-04-09 21:10:25.776,16,0,0,16.271,55.952637,-4.403310,0.00,-0.20,-0.40,0.60,-5.20,176.00,0,1,0,98,100,-6972,3252,16271,2948.50,7,P-GPS,1,0,160,8,254,0,0,1649535025776,4170,4138,4151,4167,0,0,27,,,,,,,0,0,0,-6.00,-52.00,1760.00,37.00,0.00,1778.00,6,11.00,4.47,7.19,0.00,-2.00,-4.00,0,,,100,100,0,2,0,0,0,2,0,,,,,0.0,4.4,0.0,0.0,0.0,0.0,0
55.952633,-4.403318,1.20,1.40,0.45,0.73,1.20,1.20,0.54,0.73,2398,2022-04-09 20:10:25.869,2022-04-09 21:10:25.868,16,0,0,16.271,55.952637,-4.403310,0.00,-0.20,-0.40,0.10,-5.70,176.10,0,1,0,98,100,-6972,3252,16271,2948.50,7,P-GPS,1,0,180,0,254,0,0,1649535025868,4170,4138,4151,4167,0,0,27,,,,,,,0,0,0,-1.00,-57.00,1761.00,37.00,0.00,1778.00,6,12.00,4.47,7.26,0.00,-2.00,-4.00,0,,,100,100,0,2,0,0,0,2,0,,,,,0.0,4.4,0.0,0.0,0.0,0.0,0
55.952633,-4.403319,1.20,1.40,0.45,0.75,1.20,1.20,0.54,0.75,2498,2022-04-09 20:10:25.968,2022-04-09 21:10:25.968,16,0,0,16.271,55.952637,-4.403310,0.00,-0.20,-0.40,-0.70,-5.70,176.20,0,1,0,98,100,-6972,3252,16271,2948.50,7,P-GPS,1,0,185,0,254,0,0,1649535025968,4170,4138,4151,4167,0,0,27,,,,,,,0,0,0,7.00,-57.00,1762.00,37.00,0.00,1778.00,6,12.00,4.47,7.51,0.00,-2.00,-4.00,0,,,100,100,0,2,0,0,0,2,0,,,,,0.0,4.4,0.0,0.0,0.0,0.0,0
55.952633,-4.403319,1.30,1.50,0.45,0.76,1.30,1.30,0.54,0.76,2601,2022-04-09 20:10:26.072,2022-04-09 21:10:26.071,16,0,0,16.268,55.952637,-4.403310,0.00,-0.20,-0.40,-1.00,-5.80,176.10,0,1,0,98,100,-7223,3250,16268,2948.50,7,P-GPS,1,0,177,0,255,0,0,1649535026071,4170,4138,4151,4167,0,0,27,,,,,,,0,0,0,10.00,-58.00,1761.00,37.00,0.00,1778.00,6,13.00,4.47,7.61,0.00,-2.00,-4.00,0,,,100,100,0,2,0,0,0,2,0,,,,,0.0,4.4,0.0,0.0,0.0,0.0,0
55.952632,-4.403319,1.30,1.50,0.46,0.79,1.30,1.30,0.54,0.79,2709,2022-04-09 20:10:26.180,2022-04-09 21:10:26.179,16,0,0,16.268,55.952637,-4.403310,-0.10,-0.20,-0.40,-0.90,-5.40,176.20,0,1,0,98,100,-7223,3250,16268,2948.50,7,P-GPS,1,0,177,92,254,0,0,1649535026179,4066,4034,4048,4074,0,0,27,,,,,,,0,0,0,9.00,-54.00,1762.00,37.00,0.00,1778.00,6,13.00,4.58,7.87,-1.00,-2.00,-4.00,0,,,100,100,0,2,0,0,0,2,0,,,,,0.0,4.4,0.0,0.0,0.0,0.0,0
55.952632,-4.403320,1.40,1.60,0.46,0.83,1.40,1.40,0.54,0.83,2805,2022-04-09 20:10:26.277,2022-04-09 21:10:26.275,16,0,0,16.268,55.952637,-4.403310,-0.10,-0.20,-0.40,-0.80,-5.00,176.20,0,1,0,98,100,-7223,3250,16268,2948.50,7,P-GPS,1,0,178,249,254,0,0,1649535026275,4066,4034,4048,4074,0,0,27,,,,,,,0,0,0,8.00,-50.00,1762.00,37.00,0.00,1778.00,6,14.00,4.58,8.25,-1.00,-2.00,-4.00,0,,,100,100,0,2,0,0,0,2,0,,,,,0.0,4.4,0.0,0.0,0.0,0.0,0
55.952632,-4.403320,1.40,1.70,0.46,0.86,1.40,1.40,0.54,0.86,2902,2022-04-09 20:10:26.372,2022-04-09 21:10:26.372,16,0,0,16.268,55.952637,-4.403310,-0.10,-0.20,-0.40,-0.70,-3.20,176.10,0,1,0,98,100,-7223,3250,16268,2948.50,7,P-GPS,1,0,178,330,254,0,0,1649535026372,4066,4034,4048,4074,0,0,27,,,,,,,0,0,0,7.00,-32.00,1761.00,37.00,0.00,1778.00,6,14.00,4.58,8.57,-1.00,-2.00,-4.00,0,,,100,100,0,2,0,0,0,2,0,,,,,0.0,4.4,0.0,0.0,0.0,0.0,0
55.952632,-4.403320,1.50,1.70,0.51,0.87,1.50,1.50,0.54,0.87,3005,2022-04-09 20:10:26.476,2022-04-09 21:10:26.475,16,0,0,16.268,55.952637,-4.403310,-0.10,-0.30,-0.40,-1.00,-0.60,176.20,0,1,0,98,100,-7223,3250,16268,2948.50,7,P-GPS,1,0,178,345,252,0,0,1649535026475,4066,4034,4048,4074,0,0,27,,,,,,,0,0,0,10.00,-6.00,1762.00,37.00,0.00,1778.00,6,15.00,5.10,8.70,-1.00,-3.00,-4.00,0,,,100,100,0,2,0,0,0,2,0,,,,,0.0,4.4,0.0,0.0,0.0,0.0,0
55.952632,-4.403321,1.50,1.80,0.67,0.91,1.50,1.50,0.67,0.91,3120,2022-04-09 20:10:26.591,2022-04-09 21:10:26.590,16,0,0,16.268,55.952637,-4.403310,-0.20,-0.40,-0.50,-1.00,1.00,176.30,0,1,0,98,100,-7223,3250,16268,2948.50,7,P-GPS,1,0,178,380,251,0,0,1649535026590,4066,4034,4048,4074,0,0,27,,,,,,,0,0,0,10.00,10.00,1763.00,37.00,0.00,1778.00,6,15.00,6.71,9.11,-2.00,-4.00,-5.00,0,,,100,100,0,2,0,0,0,2,0,,,,,0.0,4.4,0.0,0.0,0.0,0.0,0
55.952631,-4.403322,1.60,1.90,0.75,1.03,1.60,1.60,0.75,1.03,3301,2022-04-09 20:10:26.771,2022-04-09 21:10:26.771,16,0,0,16.268,55.952637,-4.403310,-0.20,-0.60,-0.40,-1.70,5.00,176.10,0,1,0,98,100,-7223,3250,16268,2948.50,7,P-GPS,1,0,178,411,249,0,0,1649535026771,4066,4034,4048,4074,0,0,27,,,,,,,0,0,0,17.00,50.00,1761.00,37.00,0.00,1778.00,6,16.00,7.48,10.30,-2.00,-6.00,-4.00,0,,,100,100,0,2,0,0,0,2,0,,,,,0.0,4.4,0.0,0.0,0.0,0.0,0
55.952631,-4.403324,1.70,1.90,0.92,1.10,1.70,1.70,0.92,1.10,3401,2022-04-09 20:10:26.872,2022-04-09 21:10:26.871,16,0,0,16.268,55.952637,-4.403310,-0.20,-0.80,-0.40,-1.90,6.20,176.10,0,1,0,98,100,-7223,3250,16268,2948.50,7,P-GPS,1,0,178,411,250,0,0,1649535026871,4066,4034,4048,4074,0,0,27,,,,,,,0,0,0,19.00,62.00,1761.00,37.00,0.00,1778.00,6,17.00,9.17,11.02,-2.00,-8.00,-4.00,0,,,100,100,0,2,0,0,0,2,0,,,,,0.0,4.4,0.0,0.0,0.0,0.0,0
55.952631,-4.403325,1.70,1.90,1.12,1.20,1.70,1.70,1.12,1.20,3505,2022-04-09 20:10:26.975,2022-04-09 21:10:26.975,16,0,0,16.268,55.952637,-4.403310,-0.30,-1.00,-0.40,-2.20,6.90,176.20,0,1,0,98,100,-7223,3250,16268,2948.50,7,P-GPS,1,0,178,405,258,0,0,1649535026975,4066,4034,4048,4074,0,0,27,,,,,,,0,0,0,22.00,69.00,1762.00,37.00,0.00,1778.00,6,17.00,11.18,11.98,-3.00,-10.00,-4.00,0,,,100,100,0,2,0,0,0,2,0,,,,,0.0,4.5,0.0,0.0,0.0,0.0,0
55.952630,-4.403327,1.80,2.00,1.30,1.31,1.80,1.80,1.30,1.31,3606,2022-04-09 20:10:27.077,2022-04-09 21:10:27.076,16,0,0,16.222,55.952637,-4.403310,-0.30,-1.20,-0.40,-2.50,6.90,176.10,0,1,0,98,100,-7417,3248,16222,2948.50,7,P-GPS,1,0,178,388,259,0,0,1649535027076,4066,4034,4048,4074,0,0,27,,,,,,,0,0,0,25.00,69.00,1761.00,37.00,0.00,1778.00,6,18.00,13.00,13.12,-3.00,-12.00,-4.00,0,,,100,100,0,2,0,0,0,2,0,,,,,0.0,4.5,0.0,0.0,0.0,0.0,0
55.952630,-4.403329,1.80,2.10,1.51,1.45,1.80,1.80,1.51,1.45,3702,2022-04-09 20:10:27.172,2022-04-09 21:10:27.172,16,0,0,16.222,55.952637,-4.403310,-0.40,-1.40,-0.40,-2.40,5.00,176.00,0,1,0,98,100,-7417,3248,16222,2948.50,7,P-GPS,1,0,170,292,259,0,0,1649535027172,4066,4034,4048,4074,0,0,27,,,,,,,0,0,0,24.00,50.00,1760.00,37.00,0.00,1778.00,6,18.00,15.10,14.48,-4.00,-14.00,-4.00,0,,,100,100,0,2,0,0,0,2,0,,,,,0.0,4.5,0.0,0.0,0.0,0.0,0
55.952629,-4.403331,1.90,2.10,1.70,1.60,1.90,1.90,1.70,1.60,3803,2022-04-09 20:10:27.273,2022-04-09 21:10:27.273,16,0,0,16.222,55.952637,-4.403310,-0.40,-1.60,-0.40,-2.20,1.30,175.80,0,1,0,98,100,-7417,3248,16222,2948.50,7,P-GPS,1,0,158,246,268,0,0,1649535027273,4066,4034,4048,4074,0,0,27,,,,,,,0,0,0,22.00,13.00,1758.00,37.00,0.00,1778.00,6,19.00,16.97,15.99,-4.00,-16.00,-4.00,0,,,100,100,0,2,0,0,0,2,0,,,,,0.0,4.5,0.0,0.0,0.0,0.0,0
55.952629,-4.403334,1.90,2.20,1.84,1.77,1.90,1.90,1.84,1.77,3901,2022-04-09 20:10:27.371,2022-04-09 21:10:27.371,16,0,0,16.222,55.952637,-4.403310,-0.50,-1.70,-0.50,-1.80,-1.80,175.60,0,1,0,98,100,-7417,3248,16222,2948.50,7,P-GPS,1,0,158,227,277,0,0,1649535027371,4066,4034,4048,4074,0,0,27,,,,,,,0,0,0,18.00,-18.00,1756.00,37.00,0.00,1778.00,6,19.00,18.41,17.67,-5.00,-17.00,-5.00,0,,,100,100,0,2,0,0,0,2,0,,,,,0.0,4.7,0.0,0.0,0.0,0.0,0
55.952628,-4.403336,2.00,2.30,1.84,1.95,2.00,2.00,1.84,1.95,4002,2022-04-09 20:10:27.475,2022-04-09 21:10:27.472,16,0,0,16.222,55.952637,-4.403310,-0.50,-1.70,-0.50,-1.60,-4.40,175.20,0,1,0,98,100,-7417,3248,16222,2948.50,7,P-GPS,1,0,158,175,277,0,0,1649535027472,4066,4034,4048,4074,0,0,27,,,,,,,0,0,0,16.00,-44.00,1752.00,37.00,0.00,1778.00,6,20.00,18.41,19.45,-5.00,-17.00,-5.00,0,,,100,100,0,2,0,0,0,2,0,,,,,0.0,4.7,0.0,0.0,0.0,0.0,0
55.952627,-4.403339,2.00,2.40,1.84,2.13,2.00,2.00,1.84,2.13,4102,2022-04-09 20:10:27.573,2022-04-09 21:10:27.572,16,0,0,16.222,55.952637,-4.403310,-0.50,-1.70,-0.50,-1.40,-6.20,174.70,0,1,0,98,100,-7417,3248,16222,2948.50,7,P-GPS,1,0,158,159,291,0,0,1649535027572,4066,4034,4048,4074,0,0,27,,,,,,,0,0,0,14.00,-62.00,1747.00,37.00,0.00,1778.00,6,20.00,18.41,21.25,-5.00,-17.00,-5.00,0,,,100,100,0,2,0,0,0,2,0,,,,,0.0,4.7,0.0,0.0,0.0,0.0,0
55.952626,-4.403342,2.10,2.50,1.90,2.32,2.10,2.10,1.90,2.32,4205,2022-04-09 20:10:27.675,2022-04-09 21:10:27.675,16,0,0,16.222,55.952637,-4.403310,-0.60,-1.70,-0.60,-1.50,-6.80,174.70,0,1,0,98,100,-7417,3248,16222,2948.50,7,P-GPS,1,0,158,153,307,0,0,1649535027675,4066,4034,4048,4074,0,0,27,,,,,,,0,0,0,15.00,-68.00,1747.00,37.00,0.00,1778.00,6,21.00,19.00,23.21,-6.00,-17.00,-6.00,0,,,100,100,0,2,0,0,0,2,0,,,,,0.0,12.2,0.0,0.0,0.0,0.0,0
55.952626,-4.403344,2.10,2.60,1.93,2.50,2.10,2.10,1.93,2.50,4300,2022-04-09 20:10:27.771,2022-04-09 21:10:27.770,16,0,0,16.222,55.952637,-4.403310,-0.60,-1.70,-0.70,-1.40,-7.00,174.70,0,1,0,98,100,-7417,3248,16222,2948.50,7,P-GPS,1,0,159,146,316,0,0,1649535027770,4066,4034,4048,4074,0,0,27,,,,,,,0,0,0,14.00,-70.00,1747.00,37.00,0.00,1778.00,6,21.00,19.34,25.00,-6.00,-17.00,-7.00,0,,,100,100,0,2,0,0,0,2,0,,,,,0.0,12.2,0.0,0.0,0.0,0.0,0
55.952625,-4.403347,2.20,2.70,1.93,2.69,2.20,2.20,1.93,2.69,4400,2022-04-09 20:10:27.870,2022-04-09 21:10:27.870,16,0,0,16.222,55.952637,-4.403310,-0.60,-1.70,-0.70,-1.30,-7.80,174.50,0,1,0,98,100,-7417,3248,16222,2948.50,7,P-GPS,1,0,159,146,326,0,0,1649535027870,4066,4034,4048,4074,0,0,27,,,,,,,0,0,0,13.00,-78.00,1745.00,37.00,0.00,1778.00,6,22.00,19.34,26.86,-6.00,-17.00,-7.00,0,,,100,100,0,2,0,0,0,2,0,,,,,0.0,12.8,0.0,0.0,0.0,0.0,0
55.952625,-4.403347,2.20,2.70,1.93,2.69,2.20,2.20,1.93,2.69,4487,2022-04-09 20:10:27.957,2022-04-09 21:10:27.957,16,0,0,16.222,55.952637,-4.403310,-0.60,-1.70,-0.70,-1.30,-7.80,174.50,0,1,0,98,100,-7417,3248,16222,2948.50,7,P-GPS,1,0,159,146,334,0,0,1649535027957,4066,4034,4048,4074,0,0,27,,,,,,,0,0,0,13.00,-78.00,1745.00,37.00,0.00,1778.00,6,22.00,19.34,26.86,-6.00,-17.00,-7.00,0,,,100,100,0,2,0,0,0,2,0,,,,,0.0,12.8,0.0,0.0,0.0,0.0,0
55.952623,-4.403352,2.40,3.00,1.89,3.06,2.40,2.40,1.93,3.06,4600,2022-04-09 20:10:28.070,2022-04-09 21:10:28.070,16,0,0,16.207,55.952637,-4.403310,-0.60,-1.60,-0.80,-0.80,-7.60,174.50,0,1,0,98,100,-7259,3246,16207,2948.50,7,P-GPS,1,0,159,146,339,0,0,1649535028070,4066,4034,4048,4074,0,0,27,,,,,,,0,0,0,8.00,-76.00,1745.00,37.00,0.00,1778.00,6,24.00,18.87,30.57,-6.00,-16.00,-8.00,0,,,100,100,0,2,0,0,0,2,0,,,,,0.0,0.0,0.0,0.0,0.0,0.0,0
55.952623,-4.403354,2.50,3.10,1.85,3.23,2.50,2.50,1.93,3.23,4708,2022-04-09 20:10:28.178,2022-04-09 21:10:28.178,16,0,0,16.207,55.952637,-4.403310,-0.60,-1.50,-0.90,-1.10,-7.90,174.60,0,1,0,98,100,-7259,3246,16207,2948.50,7,P-GPS,1,0,159,146,341,0,0,1649535028178,4066,4034,4048,4074,0,0,27,,,,,,,0,0,0,11.00,-79.00,1746.00,37.00,0.00,1778.00,6,25.00,18.49,32.26,-6.00,-15.00,-9.00,0,,,100,100,0,2,0,0,0,2,0,,,,,0.0,0.0,0.0,0.0,0.0,0.0,0
55.952622,-4.403357,2.60,3.20,1.85,3.42,2.60,2.60,1.93,3.42,4807,2022-04-09 20:10:28.280,2022-04-09 21:10:28.277,16,0,0,16.207,55.952637,-4.403310,-0.60,-1.50,-0.90,-0.80,-8.10,174.60,0,1,0,98,100,-7259,3246,16207,2948.50,7,P-GPS,1,0,159,146,342,0,0,1649535028277,4066,4034,4048,4074,0,0,27,,,,,,,0,0,0,8.00,-81.00,1746.00,37.00,0.00,1778.00,6,26.00,18.49,34.16,-6.00,-15.00,-9.00,0,,,100,100,0,2,0,0,0,2,0,,,,,0.0,0.0,0.0,0.0,0.0,0.0,0
55.952621,-4.403359,2.70,3.30,1.85,3.58,2.70,2.70,1.93,3.58,4902,2022-04-09 20:10:28.373,2022-04-09 21:10:28.372,16,0,0,16.207,55.952637,-4.403310,-0.60,-1.50,-0.90,-0.60,-8.30,174.50,0,1,0,98,100,-7259,3246,16207,2948.50,7,P-GPS,1,0,160,146,347,0,0,1649535028372,4066,4034,4048,4074,0,0,27,,,,,,,0,0,0,6.00,-83.00,1745.00,37.00,0.00,1778.00,6,27.00,18.49,35.81,-6.00,-15.00,-9.00,0,,,100,100,0,2,0,0,0,2,0,,,,,0.0,0.0,0.0,0.0,0.0,0.0,0
55.952620,-4.403361,2.80,3.50,1.77,3.75,2.80,2.80,1.93,3.75,5002,2022-04-09 20:10:28.473,2022-04-09 21:10:28.472,16,0,0,16.207,55.952637,-4.403310,-0.60,-1.40,-0.90,0.00,-7.90,173.70,0,1,0,98,100,-7259,3246,16207,2948.50,7,P-GPS,1,0,166,172,349,0,0,1649535028472,4066,4034,4048,4074,0,0,27,,,,,,,0,0,0,-0.00,-79.00,1737.00,37.00,0.00,1778.00,6,28.00,17.69,37.48,-6.00,-14.00,-9.00,0,,,100,100,0,2,0,0,0,2,0,,,,,0.0,0.0,0.0,0.0,0.0,0.0,0
55.952619,-4.403364,2.80,3.60,1.69,3.91,2.80,2.80,1.93,3.91,5114,2022-04-09 20:10:28.584,2022-04-09 21:10:28.584,16,0,0,16.207,55.952637,-4.403310,-0.60,-1.30,-0.90,-0.70,-7.80,172.20,0,1,0,98,100,-7259,3246,16207,2948.50,7,P-GPS,1,0,184,206,349,0,0,1649535028584,4066,4034,4048,4074,0,0,27,,,,,,,0,0,0,7.00,-78.00,1722.00,37.00,0.00,1778.00,6,28.00,16.91,39.05,-6.00,-13.00,-9.00,0,,,100,100,0,2,0,0,0,2,0,,,,,0.0,0.0,0.0,0.0,0.0,0.0,0
55.952618,-4.403366,2.90,3.70,1.73,4.07,2.90,2.90,1.93,4.07,5200,2022-04-09 20:10:28.671,2022-04-09 21:10:28.670,16,0,0,16.207,55.952637,-4.403310,-0.70,-1.30,-0.90,-1.60,-6.90,171.10,0,1,0,98,100,-7259,3246,16207,2948.50,7,P-GPS,1,0,184,209,351,0,0,1649535028670,4066,4034,4048,4074,0,0,27,,,,,,,0,0,0,16.00,-69.00,1711.00,37.00,0.00,1778.00,6,29.00,17.29,40.66,-7.00,-13.00,-9.00,0,,,100,100,0,2,0,0,0,2,0,,,,,0.0,0.0,0.0,0.0,0.0,0.0,0
55.952618,-4.403368,3.00,3.80,1.73,4.22,3.00,3.00,1.93,4.22,5302,2022-04-09 20:10:28.773,2022-04-09 21:10:28.772,16,0,0,16.207,55.952637,-4.403310,-0.70,-1.30,-0.90,-1.90,-6.10,170.40,0,1,0,98,100,-7259,3246,16207,2948.50,7,P-GPS,1,0,184,221,350,0,0,1649535028772,4066,4034,4048,4074,0,0,27,,,,,,,0,0,0,19.00,-61.00,1704.00,37.00,0.00,1778.00,6,30.00,17.29,42.18,-7.00,-13.00,-9.00,0,,,100,100,0,2,0,0,0,2,0,,,,,0.0,0.0,0.0,0.0,0.0,0.0,0
55.952617,-4.403370,3.10,3.90,1.78,4.36,3.10,3.10,1.93,4.36,5403,2022-04-09 20:10:28.874,2022-04-09 21:10:28.873,16,0,0,16.207,55.952637,-4.403310,-0.70,-1.30,-1.00,-2.50,-6.10,170.00,0,1,0,98,100,-7259,3246,16207,2948.50,7,P-GPS,1,0,184,221,351,0,0,1649535028873,4066,4034,4048,4074,0,0,27,,,,,,,0,0,0,25.00,-61.00,1700.00,37.00,0.00,1778.00,6,31.00,17.83,43.64,-7.00,-13.00,-10.00,0,,,100,100,0,2,0,0,0,2,0,,,,,0.0,0.0,0.0,0.0,0.0,0.0,0
55.952616,-4.403372,3.20,4.00,1.78,4.52,3.20,3.20,1.93,4.52,5514,2022-04-09 20:10:28.985,2022-04-09 21:10:28.984,16,0,0,16.207,55.952637,-4.403310,-0.70,-1.30,-1.00,-2.80,-5.80,169.50,0,1,0,98,100,-7259,3246,16207,2948.50,7,P-GPS,1,0,184,221,351,0,0,1649535028984,4066,4034,4048,4074,0,0,27,,,,,,,0,0,0,28.00,-58.00,1695.00,37.00,0.00,1778.00,6,32.00,17.83,45.16,-7.00,-13.00,-10.00,0,,,100,100,0,2,0,0,0,2,0,,,,,0.0,0.0,0.0,0.0,0.0,0.0,0
55.952616,-4.403374,3.40,4.20,1.75,4.67,3.40,3.40,1.93,4.67,5602,2022-04-09 20:10:29.073,2022-04-09 21:10:29.072,16,0,0,16.075,55.952637,-4.403310,-0.80,-1.20,-1.00,-2.20,-5.80,169.30,0,1,0,98,100,-7681,3244,16075,2948.50,7,P-GPS,1,0,184,221,351,0,0,1649535029072,4066,4034,4048,4074,0,0,27,,,,,,,0,0,0,22.00,-58.00,1693.00,37.00,0.00,1778.00,6,34.00,17.55,46.71,-8.00,-12.00,-10.00,0,,,100,100,0,2,0,0,0,2,0,,,,,0.0,0.0,0.0,0.0,0.0,0.0,0
55.952615,-4.403376,3.50,4.30,1.75,4.83,3.50,3.50,1.93,4.83,5701,2022-04-09 20:10:29.171,2022-04-09 21:10:29.171,16,0,0,16.075,55.952637,-4.403310,-0.80,-1.20,-1.00,-1.90,-6.10,169.30,0,1,0,98,100,-7681,3244,16075,2948.50,7,P-GPS,1,0,182,221,352,0,0,1649535029171,4066,4034,4048,4074,0,0,27,,,,,,,0,0,0,19.00,-61.00,1693.00,37.00,0.00,1778.00,6,35.00,17.55,48.26,-8.00,-12.00,-10.00,0,,,100,100,0,2,0,0,0,2,0,,,,,0.0,0.0,0.0,0.0,0.0,0.0,0
55.952614,-4.403378,3.60,4.40,1.70,4.96,3.60,3.60,1.93,4.96,5801,2022-04-09 20:10:29.272,2022-04-09 21:10:29.271,16,0,0,16.075,55.952637,-4.403310,-0.80,-1.20,-0.90,-1.70,-6.40,169.10,0,1,0,98,100,-7681,3244,16075,2948.50,7,P-GPS,1,0,180,221,352,0,0,1649535029271,4066,4034,4048,4074,0,0,27,,,,,,,0,0,0,17.00,-64.00,1691.00,37.00,0.00,1778.00,6,36.00,17.00,49.60,-8.00,-12.00,-9.00,0,,,100,100,0,2,0,0,0,2,0,,,,,0.0,0.0,0.0,0.0,0.0,0.0,0
55.952613,-4.403380,3.70,4.60,1.77,5.12,3.70,3.70,1.93,5.12,5902,2022-04-09 20:10:29.373,2022-04-09 21:10:29.372,16,0,0,16.075,55.952637,-4.403310,-0.80,-1.30,-0.90,-1.80,-6.30,169.00,0,1,0,98,100,-7681,3244,16075,2948.50,7,P-GPS,1,0,180,221,352,0,0,1649535029372,4066,4034,4048,4074,0,0,27,,,,,,,0,0,0,18.00,-63.00,1690.00,37.00,0.00,1778.00,6,37.00,17.72,51.16,-8.00,-13.00,-9.00,0,,,100,100,0,2,0,0,0,2,0,,,,,0.0,0.0,0.0,0.0,0.0,0.0,0
55.952613,-4.403382,3.80,4.70,1.82,5.29,3.80,3.80,1.93,5.29,5999,2022-04-09 20:10:29.470,2022-04-09 21:10:29.469,16,0,0,16.075,55.952637,-4.403310,-0.80,-1.30,-1.00,-2.30,-5.60,169.10,0,1,0,98,100,-7681,3244,16075,2948.50,7,P-GPS,1,0,180,221,360,0,0,1649535029469,4066,4034,4048,4074,0,0,27,,,,,,,0,0,0,23.00,-56.00,1691.00,37.00,0.00,1778.00,6,38.00,18.25,52.92,-8.00,-13.00,-10.00,0,,,100,100,0,2,0,0,0,2,0,,,,,0.0,0.0,0.0,0.0,0.0,0.0,0
55.952612,-4.403384,3.90,4.90,1.82,5.45,3.90,3.90,1.93,5.45,6099,2022-04-09 20:10:29.570,2022-04-09 21:10:29.569,16,0,0,16.075,55.952637,-4.403310,-0.80,-1.30,-1.00,-2.30,-6.30,169.30,0,1,0,98,100,-7681,3244,16075,2948.50,7,P-GPS,1,0,179,220,372,0,0,1649535029569,4066,4034,4048,4074,0,0,27,,,,,,,0,0,0,23.00,-63.00,1693.00,37.00,0.00,1778.00,6,39.00,18.25,54.52,-8.00,-13.00,-10.00,0,,,100,100,0,2,0,0,0,2,0,,,,,0.0,0.0,0.0,0.0,0.0,0.0,0
55.952612,-4.403386,4.00,5.00,1.88,5.57,4.00,4.00,1.93,5.57,6203,2022-04-09 20:10:29.673,2022-04-09 21:10:29.673,16,0,0,16.075,55.952637,-4.403310,-0.80,-1.30,-1.10,-2.60,-7.10,169.30,0,1,0,98,100,-7681,3244,16075,2948.50,7,P-GPS,1,0,178,220,380,0,0,1649535029673,4066,4034,4048,4074,0,0,27,,,,,,,0,0,0,26.00,-71.00,1693.00,37.00,0.00,1778.00,6,40.00,18.81,55.69,-8.00,-13.00,-11.00,0,,,100,100,0,2,0,0,0,2,0,,,,,0.0,0.0,0.0,0.0,0.0,0.0,0
55.952611,-4.403389,4.10,5.20,1.88,5.73,4.10,4.10,1.93,5.73,6313,2022-04-09 20:10:29.783,2022-04-09 21:10:29.783,16,0,0,16.075,55.952637,-4.403310,-0.80,-1.30,-1.10,-2.70,-6.90,169.20,0,1,0,98,100,-7681,3244,16075,2948.50,7,P-GPS,1,0,178,210,382,0,0,1649535029783,4066,4034,4048,4074,0,0,27,,,,,,,0,0,0,27.00,-69.00,1692.00,37.00,0.00,1778.00,6,41.00,18.81,57.28,-8.00,-13.00,-11.00,0,,,100,100,0,2,0,0,0,2,0,,,,,0.0,0.0,0.0,0.0,0.0,0.0,0
55.952610,-4.403391,4.20,5.40,1.98,5.91,4.20,4.20,1.98,5.91,6441,2022-04-09 20:10:29.911,2022-04-09 21:10:29.911,16,0,0,16.075,55.952637,-4.403310,-0.90,-1.30,-1.20,-2.40,-7.10,169.20,0,1,0,98,100,-7681,3244,16075,2948.50,7,P-GPS,1,0,177,204,384,0,0,1649535029911,4066,4034,4048,4074,0,0,27,,,,,,,0,0,0,24.00,-71.00,1692.00,37.00,0.00,1778.00,6,42.00,19.85,59.09,-9.00,-13.00,-12.00,0,,,100,100,0,2,0,0,0,2,0,,,,,0.0,0.0,0.0,0.0,0.0,0.0,0
55.952608,-4.403395,4.50,5.70,1.98,6.21,4.50,4.50,1.98,6.21,6602,2022-04-09 20:10:30.073,2022-04-09 21:10:30.072,16,0,0,16.051,55.952637,-4.403310,-0.90,-1.30,-1.20,-1.50,-8.60,169.30,0,1,0,98,100,-7938,3242,16051,2949.50,7,P-GPS,1,0,177,199,384,0,0,1649535030072,4066,4034,4048,4074,0,0,27,,,,,,,0,0,0,15.00,-86.00,1693.00,37.00,0.00,1778.00,6,45.00,19.85,62.13,-9.00,-13.00,-12.00,0,,,100,100,0,2,0,0,0,2,0,,,,,0.0,0.0,0.0,0.0,0.0,0.0,0
55.952607,-4.403397,4.60,5.90,1.98,6.37,4.60,4.60,1.98,6.37,6703,2022-04-09 20:10:30.173,2022-04-09 21:10:30.173,16,0,0,16.051,55.952637,-4.403310,-0.90,-1.30,-1.20,-1.80,-8.20,169.30,0,1,0,98,100,-7938,3242,16051,2949.50,7,P-GPS,1,0,175,189,387,0,0,1649535030173,4066,4034,4048,4074,0,0,27,,,,,,,0,0,0,18.00,-82.00,1693.00,37.00,0.00,1778.00,6,46.00,19.85,63.74,-9.00,-13.00,-12.00,0,,,100,100,0,2,0,0,0,2,0,,,,,0.0,0.0,0.0,0.0,0.0,0.0,0
55.952607,-4.403399,4.70,6.10,1.98,6.54,4.70,4.70,1.98,6.54,6799,2022-04-09 20:10:30.269,2022-04-09 21:10:30.269,16,0,0,16.051,55.952637,-4.403310,-0.90,-1.30,-1.20,-2.00,-8.00,169.30,0,1,0,98,100,-7938,3242,16051,2949.50,7,P-GPS,1,0,174,188,408,0,0,1649535030269,4066,4034,4048,4074,0,0,27,,,,,,,0,0,0,20.00,-80.00,1693.00,37.00,0.00,1778.00,6,47.00,19.85,65.44,-9.00,-13.00,-12.00,0,,,100,100,0,2,0,0,0,2,0,,,,,0.0,0.0,0.0,0.0,0.0,0.0,0
55.952606,-4.403401,4.80,6.30,1.98,6.70,4.80,4.80,1.98,6.70,6902,2022-04-09 20:10:30.372,2022-04-09 21:10:30.372,16,0,0,16.051,55.952637,-4.403310,-0.90,-1.20,-1.30,-2.00,-7.60,169.20,0,1,0,98,100,-7938,3242,16051,2949.50,7,P-GPS,1,0,173,184,431,0,0,1649535030372,4066,4034,4048,4074,0,0,27,,,,,,,0,0,0,20.00,-76.00,1692.00,37.00,0.00,1778.00,6,48.00,19.85,67.02,-9.00,-12.00,-13.00,0,,,100,100,0,2,0,0,0,2,0,,,,,0.0,0.0,0.0,0.0,0.0,0.0,0
55.952605,-4.403403,5.00,6.40,2.05,6.85,5.00,5.00,2.05,6.85,6995,2022-04-09 20:10:30.465,2022-04-09 21:10:30.465,16,0,0,16.051,55.952637,-4.403310,-0.90,-1.20,-1.40,-2.00,-7.40,169.10,0,1,0,98,100,-7938,3242,16051,2949.50,7,P-GPS,1,0,173,179,446,0,0,1649535030465,4066,4034,4048,4074,0,0,27,,,,,,,0,0,0,20.00,-74.00,1691.00,37.00,0.00,1778.00,6,50.00,20.52,68.51,-9.00,-12.00,-14.00,0,,,100,100,0,2,0,0,0,2,0,,,,,0.0,0.0,0.0,0.0,0.0,0.0,0
55.952604,-4.403405,5.10,6.60,2.19,7.00,5.10,5.10,2.19,7.00,7097,2022-04-09 20:10:30.568,2022-04-09 21:10:30.567,16,0,0,16.051,55.952637,-4.403310,-0.90,-1.20,-1.60,-1.60,-7.60,169.20,0,1,0,98,100,-7938,3242,16051,2949.50,7,P-GPS,1,0,173,176,451,0,0,1649535030567,4066,4034,4048,4074,0,0,27,,,,,,,0,0,0,16.00,-76.00,1692.00,37.00,0.00,1778.00,6,51.00,21.93,70.05,-9.00,-12.00,-16.00,0,,,100,100,0,2,0,0,0,2,0,,,,,0.0,0.0,0.0,0.0,0.0,0.0,0
55.952603,-4.403407,5.30,6.80,2.15,7.14,5.30,5.30,2.19,7.14,7200,2022-04-09 20:10:30.675,2022-04-09 21:10:30.670,16,0,0,16.051,55.952637,-4.403310,-0.80,-1.20,-1.60,-1.80,-7.60,169.20,0,1,0,98,100,-7938,3242,16051,2949.50,7,P-GPS,1,0,173,178,450,0,0,1649535030670,4066,4034,4048,4074,0,0,27,,,,,,,0,0,0,18.00,-76.00,1692.00,37.00,0.00,1778.00,6,53.00,21.54,71.42,-8.00,-12.00,-16.00,0,,,100,100,0,2,0,0,0,2,0,,,,,0.0,0.0,0.0,0.0,0.0,0.0,0
55.952603,-4.403409,5.50,7.00,2.18,7.29,5.50,5.50,2.19,7.29,7296,2022-04-09 20:10:30.766,2022-04-09 21:10:30.766,16,0,0,16.051,55.952637,-4.403310,-0.80,-1.10,-1.70,-2.40,-7.90,169.30,0,1,0,98,100,-7938,3242,16051,2949.50,7,P-GPS,1,0,173,181,448,0,0,1649535030766,4066,4034,4048,4074,0,0,27,,,,,,,0,0,0,24.00,-79.00,1693.00,37.00,0.00,1778.00,6,55.00,21.77,72.90,-8.00,-11.00,-17.00,0,,,100,100,0,2,0,0,0,2,0,,,,,0.0,0.0,0.0,0.0,0.0,0.0,0
55.952602,-4.403411,5.60,7.20,2.18,7.44,5.60,5.60,2.19,7.44,7397,2022-04-09 20:10:30.867,2022-04-09 21:10:30.867,16,0,0,16.051,55.952637,-4.403310,-0.80,-1.10,-1.70,-2.60,-7.80,169.30,0,1,0,98,100,-7938,3242,16051,2949.50,7,P-GPS,1,0,173,193,437,0,0,1649535030867,4066,4034,4048,4074,0,0,27,,,,,,,0,0,0,26.00,-78.00,1693.00,37.00,0.00,1778.00,6,56.00,21.77,74.38,-8.00,-11.00,-17.00,0,,,100,100,0,2,0,0,0,2,0,,,,,0.0,0.0,0.0,0.0,0.0,0.0,0
55.952601,-4.403413,5.80,7.40,2.10,7.58,5.80,5.80,2.19,7.58,7499,2022-04-09 20:10:30.970,2022-04-09 21:10:30.969,16,0,0,16.051,55.952637,-4.403310,-0.80,-1.10,-1.60,-2.60,-7.60,169.20,0,1,0,98,100,-7938,3242,16051,2949.50,7,P-GPS,1,0,174,234,432,0,0,1649535030969,4066,4034,4048,4074,0,0,27,,,,,,,0,0,0,26.00,-76.00,1692.00,37.00,0.00,1778.00,6,58.00,21.00,75.81,-8.00,-11.00,-16.00,0,,,100,100,0,2,0,0,0,2,0,,,,,0.0,0.0,0.0,0.0,0.0,0.0,0
55.952600,-4.403415,6.00,7.60,2.10,7.73,6.00,6.00,2.19,7.73,7597,2022-04-09 20:10:31.067,2022-04-09 21:10:31.067,16,0,0,16.057,55.952637,-4.403310,-0.80,-1.10,-1.60,-2.40,-6.40,169.20,0,1,0,98,100,-7787,3240,16057,2950.50,7,P-GPS,1,0,179,272,432,0,0,1649535031067,4066,4034,4048,4074,0,0,27,,,,,,,0,0,0,24.00,-64.00,1692.00,37.00,0.00,1778.00,6,60.00,21.00,77.31,-8.00,-11.00,-16.00,0,,,100,100,0,2,0,0,0,2,0,,,,,0.0,0.0,0.0,0.0,0.0,0.0,0
55.952599,-4.403416,6.10,7.80,2.10,7.87,6.10,6.10,2.19,7.87,7697,2022-04-09 20:10:31.168,2022-04-09 21:10:31.167,16,0,0,16.057,55.952637,-4.403310,-0.80,-1.10,-1.60,-2.10,-4.90,169.30,0,1,0,98,100,-7787,3240,16057,2950.50,7,P-GPS,1,0,180,274,431,0,0,1649535031167,4066,4034,4048,4074,0,0,27,,,,,,,0,0,0,21.00,-49.00,1693.00,37.00,0.00,1778.00,6,61.00,21.00,78.73,-8.00,-11.00,-16.00,0,,,100,100,0,2,0,0,0,2,0,,,,,0.0,0.0,0.0,0.0,0.0,0.0,0
55.952599,-4.403418,6.30,7.90,2.10,7.99,6.30,6.30,2.19,7.99,7800,2022-04-09 20:10:31.271,2022-04-09 21:10:31.270,16,0,0,16.057,55.952637,-4.403310,-0.80,-1.10,-1.60,-2.30,-3.80,169.20,0,1,0,98,100,-7787,3240,16057,2950.50,7,P-GPS,1,0,180,279,432,0,0,1649535031270,4066,4034,4048,4074,0,0,27,,,,,,,0,0,0,23.00,-38.00,1692.00,37.00,0.00,1778.00,6,63.00,21.00,79.92,-8.00,-11.00,-16.00,0,,,100,100,0,2,0,0,0,2,0,,,,,0.0,0.0,0.0,0.0,0.0,0.0,0
55.952598,-4.403420,6.50,8.10,2.10,8.13,6.50,6.50,2.19,8.13,7909,2022-04-09 20:10:31.379,2022-04-09 21:10:31.379,16,0,0,16.057,55.952637,-4.403310,-0.80,-1.10,-1.60,-2.70,-3.00,169.20,0,1,0,98,100,-7787,3240,16057,2950.50,7,P-GPS,1,0,180,280,432,0,0,1649535031379,4066,4034,4048,4074,0,0,27,,,,,,,0,0,0,27.00,-30.00,1692.00,37.00,0.00,1778.00,6,65.00,21.00,81.33,-8.00,-11.00,-16.00,0,,,100,100,0,2,0,0,0,2,0,,,,,0.0,0.0,0.0,0.0,0.0,0.0,0
55.952597,-4.403422,6.60,8.30,2.10,8.29,6.60,6.60,2.19,8.29,7999,2022-04-09 20:10:31.470,2022-04-09 21:10:31.469,16,0,0,16.057,55.952637,-4.403310,-0.80,-1.10,-1.60,-2.70,-2.80,169.10,0,1,0,98,100,-7787,3240,16057,2950.50,7,P-GPS,1,0,180,280,433,0,0,1649535031469,4066,4034,4048,4074,0,0,27,,,,,,,0,0,0,27.00,-28.00,1691.00,37.00,0.00,1778.00,6,66.00,21.00,82.88,-8.00,-11.00,-16.00,0,,,100,100,0,2,0,0,0,2,0,,,,,0.0,0.0,0.0,0.0,0.0,0.0,0
55.952596,-4.403424,6.80,8.50,2.15,8.44,6.80,6.80,2.19,8.44,8108,2022-04-09 20:10:31.579,2022-04-09 21:10:31.578,16,0,0,16.057,55.952637,-4.403310,-0.80,-1.20,-1.60,-3.10,-2.50,169.20,0,1,0,98,100,-7787,3240,16057,2950.50,7,P-GPS,1,0,180,281,435,0,0,1649535031578,4066,4034,4048,4074,0,0,27,,,,,,,0,0,0,31.00,-25.00,1692.00,37.00,0.00,1778.00,6,68.00,21.54,84.36,-8.00,-12.00,-16.00,0,,,100,100,0,2,0,0,0,2,0,,,,,0.0,0.0,0.0,0.0,0.0,0.0,0
55.952596,-4.403426,7.00,8.60,2.15,8.59,7.00,7.00,2.19,8.59,8205,2022-04-09 20:10:31.676,2022-04-09 21:10:31.675,16,0,0,16.057,55.952637,-4.403310,-0.80,-1.20,-1.60,-3.30,-3.00,169.30,0,1,0,98,100,-7787,3240,16057,2950.50,7,P-GPS,1,0,179,281,435,0,0,1649535031675,4066,4034,4048,4074,0,0,27,,,,,,,0,0,0,33.00,-30.00,1693.00,37.00,0.00,1778.00,6,70.00,21.54,85.86,-8.00,-12.00,-16.00,0,,,100,100,0,2,0,0,0,2,0,,,,,0.0,0.0,0.0,0.0,0.0,0.0,0
55.952595,-4.403428,7.10,8.80,2.21,8.74,7.10,7.10,2.21,8.74,8308,2022-04-09 20:10:31.778,2022-04-09 21:10:31.778,16,0,0,16.057,55.952637,-4.403310,-0.80,-1.30,-1.60,-3.60,-3.10,169.40,0,1,0,98,100,-7787,3240,16057,2950.50,7,P-GPS,1,0,178,281,436,0,0,1649535031778,4066,4034,4048,4074,0,0,27,,,,,,,0,0,0,36.00,-31.00,1694.00,37.00,0.00,1778.00,6,71.00,22.11,87.44,-8.00,-13.00,-16.00,0,,,100,100,0,2,0,0,0,2,0,,,,,0.0,0.0,0.0,0.0,0.0,0.0,0
55.952594,-4.403430,7.30,9.00,2.25,8.89,7.30,7.30,2.25,8.89,8395,2022-04-09 20:10:31.865,2022-04-09 21:10:31.865,16,0,0,16.057,55.952637,-4.403310,-0.90,-1.30,-1.60,-3.80,-3.50,169.40,0,1,0,98,100,-7787,3240,16057,2950.50,7,P-GPS,1,0,178,281,437,0,0,1649535031865,4066,4034,4048,4074,0,0,27,,,,,,,0,0,0,38.00,-35.00,1694.00,37.00,0.00,1778.00,6,73.00,22.49,88.94,-9.00,-13.00,-16.00,0,,,100,100,0,2,0,0,0,2,0,,,,,0.0,0.0,0.0,0.0,0.0,0.0,0
55.952593,-4.403432,7.50,9.20,2.31,9.06,7.50,7.50,2.31,9.06,8507,2022-04-09 20:10:31.978,2022-04-09 21:10:31.977,16,0,0,16.057,55.952637,-4.403310,-0.90,-1.40,-1.60,-3.90,-3.30,169.60,0,1,0,98,100,-7787,3240,16057,2950.50,7,P-GPS,1,0,178,281,440,0,0,1649535031977,4066,4034,4048,4074,0,0,27,,,,,,,0,0,0,39.00,-33.00,1696.00,37.00,0.00,1778.00,6,75.00,23.09,90.60,-9.00,-14.00,-16.00,0,,,100,100,0,2,0,0,0,2,0,,,,,0.0,0.0,0.0,0.0,0.0,0.0,0
55.952593,-4.403434,7.70,9.40,2.38,9.22,7.70,7.70,2.38,9.22,8606,2022-04-09 20:10:32.076,2022-04-09 21:10:32.076,16,0,0,15.969,55.952637,-4.403310,-0.90,-1.40,-1.70,-4.00,-3.90,169.60,0,1,0,98,100,-8386,3237,15969,2950.50,7,P-GPS,1,0,176,280,442,0,0,1649535032076,4066,4034,4048,4074,0,0,27,,,,,,,0,0,0,40.00,-39.00,1696.00,37.00,0.00,1778.00,6,77.00,23.79,92.23,-9.00,-14.00,-17.00,0,,,100,100,0,2,0,0,0,2,0,,,,,0.0,0.0,0.0,0.0,0.0,0.0,0
55.952592,-4.403437,7.80,9.60,2.44,9.40,7.80,7.80,2.44,9.40,8712,2022-04-09 20:10:32.183,2022-04-09 21:10:32.182,16,0,0,15.969,55.952637,-4.403310,-0.90,-1.50,-1.70,-3.70,-4.90,169.60,0,1,0,98,100,-8386,3237,15969,2950.50,7,P-GPS,1,0,175,279,442,0,0,1649535032182,4066,4034,4048,4074,0,0,27,,,,,,,0,0,0,37.00,-49.00,1696.00,37.00,0.00,1778.00,6,78.00,24.39,94.01,-9.00,-15.00,-17.00,0,,,100,100,0,2,0,0,0,2,0,,,,,0.0,0.0,0.0,0.0,0.0,0.0,0
55.952590,-4.403442,8.20,10.00,2.41,9.76,8.20,8.20,2.44,9.76,8906,2022-04-09 20:10:32.376,2022-04-09 21:10:32.376,16,0,0,15.969,55.952637,-4.403310,-1.00,-1.50,-1.60,-2.80,-6.10,169.30,0,1,0,98,100,-8386,3237,15969,2950.50,7,P-GPS,1,0,175,277,444,0,0,1649535032376,4066,4034,4048,4074,0,0,27,,,,,,,0,0,0,28.00,-61.00,1693.00,37.00,0.00,1778.00,6,82.00,24.10,97.58,-10.00,-15.00,-16.00,0,,,100,100,0,2,0,0,0,2,0,,,,,0.0,0.0,0.0,0.0,0.0,0.0,0
55.952589,-4.403444,8.30,10.20,2.54,9.96,8.30,8.30,2.54,9.96,8997,2022-04-09 20:10:32.467,2022-04-09 21:10:32.467,16,0,0,15.969,55.952637,-4.403310,-1.00,-1.60,-1.70,-2.80,-5.80,169.30,0,1,0,98,100,-8386,3237,15969,2950.50,7,P-GPS,1,0,175,272,444,0,0,1649535032467,4066,4034,4048,4074,0,0,27,,,,,,,0,0,0,28.00,-58.00,1693.00,37.00,0.00,1778.00,6,83.00,25.40,99.63,-10.00,-16.00,-17.00,0,,,100,100,0,2,0,0,0,2,0,,,,,0.0,0.0,0.0,0.0,0.0,0.0,0
55.952588,-4.403447,8.50,10.40,2.54,10.15,8.50,8.50,2.54,10.15,9131,2022-04-09 20:10:32.602,2022-04-09 21:10:32.601,16,0,0,15.969,55.952637,-4.403310,-1.00,-1.60,-1.70,-2.50,-5.80,169.30,0,1,0,98,100,-8386,3237,15969,2950.50,7,P-GPS,1,0,175,269,444,0,0,1649535032601,4066,4034,4048,4074,0,0,27,,,,,,,0,0,0,25.00,-58.00,1693.00,37.00,0.00,1778.00,6,85.00,25.40,101.53,-10.00,-16.00,-17.00,0,,,100,100,0,2,0,0,0,2,0,,,,,0.0,0.0,0.0,0.0,0.0,0.0,0
55.952586,-4.403452,8.90,10.80,2.54,10.55,8.90,8.90,2.54,10.55,9315,2022-04-09 20:10:32.785,2022-04-09 21:10:32.785,16,0,0,15.969,55.952637,-4.403310,-1.00,-1.60,-1.70,-2.80,-6.00,169.20,0,1,0,98,100,-8386,3237,15969,2950.50,7,P-GPS,1,0,175,263,445,0,0,1649535032785,4066,4034,4048,4074,0,0,27,,,,,,,0,0,0,28.00,-60.00,1692.00,37.00,0.00,1778.00,6,89.00,25.40,105.55,-10.00,-16.00,-17.00,0,,,100,100,0,2,0,0,0,2,0,,,,,0.0,0.0,0.0,0.0,0.0,0.0,0
55.952585,-4.403455,9.00,11.00,2.54,10.77,9.00,9.00,2.54,10.77,9442,2022-04-09 20:10:32.912,2022-04-09 21:10:32.912,16,0,0,15.969,55.952637,-4.403310,-1.00,-1.60,-1.70,-3.00,-6.20,169.20,0,1,0,98,100,-8386,3237,15969,2950.50,7,P-GPS,1,0,175,253,446,0,0,1649535032912,4066,4034,4048,4074,0,0,27,,,,,,,0,0,0,30.00,-62.00,1692.00,37.00,0.00,1778.00,6,90.00,25.40,107.69,-10.00,-16.00,-17.00,0,,,100,100,0,2,0,0,0,2,0,,,,,0.0,0.0,0.0,0.0,0.0,0.0,0
55.952583,-4.403461,9.40,0.00,2.54,11.18,9.40,9.40,2.54,11.18,9600,2022-04-09 20:10:33.070,2022-04-09 21:10:33.070,16,0,0,16.069,55.952637,-4.403310,-1.00,-1.60,-1.70,-2.70,-6.50,169.30,0,1,0,98,100,-7772,3235,16069,2950.50,7,P-GPS,1,0,175,240,446,0,0,1649535033070,4066,4034,4048,4074,0,0,27,,,,,,,0,0,0,27.00,-65.00,1693.00,37.00,0.00,1778.00,6,94.00,25.40,111.80,-10.00,-16.00,-17.00,0,,,100,100,0,2,0,0,0,2,0,,,,,0.0,0.0,0.0,0.0,0.0,0.0,0
55.952582,-4.403464,9.50,0.00,2.54,11.38,9.50,9.50,2.54,11.38,9706,2022-04-09 20:10:33.176,2022-04-09 21:10:33.176,16,0,0,16.069,55.952637,-4.403310,-1.00,-1.60,-1.70,-2.80,-6.80,169.20,0,1,0,98,100,-7772,3235,16069,2950.50,7,P-GPS,1,0,175,243,447,0,0,1649535033176,4066,4034,4048,4074,0,0,27,,,,,,,0,0,0,28.00,-68.00,1692.00,37.00,0.00,1778.00,6,95.00,25.40,113.80,-10.00,-16.00,-17.00,0,,,100,100,0,2,0,0,0,2,0,,,,,0.0,0.0,0.0,0.0,0.0,0.0,0
55.952581,-4.403466,9.70,0.00,2.54,11.58,9.70,9.70,2.54,11.58,9797,2022-04-09 20:10:33.268,2022-04-09 21:10:33.268,16,0,0,16.069,55.952637,-4.403310,-1.00,-1.60,-1.70,-2.60,-7.10,169.20,0,1,0,98,100,-7772,3235,16069,2950.50,7,P-GPS,1,0,175,243,448,0,0,1649535033267,4066,4034,4048,4074,0,0,27,,,,,,,0,0,0,26.00,-71.00,1692.00,37.00,0.00,1778.00,6,97.00,25.40,115.77,-10.00,-16.00,-17.00,0,,,100,100,0,2,0,0,0,2,0,,,,,0.0,0.0,0.0,0.0,0.0,0.0,0
55.952581,-4.403469,9.90,0.00,2.54,11.78,9.90,9.90,2.54,11.78,9925,2022-04-09 20:10:33.396,2022-04-09 21:10:33.395,16,0,0,16.069,55.952637,-4.403310,-1.00,-1.60,-1.70,-2.70,-7.10,169.20,0,1,0,98,100,-7772,3235,16069,2950.50,7,P-GPS,1,0,175,242,451,0,0,1649535033395,4066,4034,4048,4074,0,0,27,,,,,,,0,0,0,27.00,-71.00,1692.00,37.00,0.00,1778.00,6,99.00,25.40,117.76,-10.00,-16.00,-17.00,0,,,100,100,0,2,0,0,0,2,0,,,,,0.0,0.0,0.0,0.0,0.0,0.0,0
55.952578,-4.403474,10.20,0.00,2.54,12.16,10.20,10.20,2.54,12.16,10108,2022-04-09 20:10:33.578,2022-04-09 21:10:33.578,16,0,0,16.069,55.952637,-4.403310,-1.00,-1.60,-1.70,-2.80,-6.90,169.30,0,1,0,98,100,-7772,3235,16069,2950.50,7,P-GPS,1,0,175,238,458,0,0,1649535033578,4066,4034,4048,4074,0,0,27,,,,,,,0,0,0,28.00,-69.00,1693.00,37.00,0.00,1778.00,6,102.00,25.40,121.61,-10.00,-16.00,-17.00,0,,,100,100,0,2,0,0,0,2,0,,,,,0.0,0.0,0.0,0.0,0.0,0.0,0
55.952578,-4.403477,10.40,0.00,2.61,12.34,10.40,10.40,2.61,12.34,10196,2022-04-09 20:10:33.666,2022-04-09 21:10:33.666,16,0,0,16.069,55.952637,-4.403310,-1.00,-1.60,-1.80,-2.80,-6.70,169.30,0,1,0,98,100,-7772,3235,16069,2950.50,7,P-GPS,1,0,175,237,468,0,0,1649535033666,4066,4034,4048,4074,0,0,27,,,,,,,0,0,0,28.00,-67.00,1693.00,37.00,0.00,1778.00,6,104.00,26.08,123.44,-10.00,-16.00,-18.00,0,,,100,100,0,2,0,0,0,2,0,,,,,0.0,0.0,0.0,0.0,0.0,0.0,0
55.952577,-4.403479,10.60,0.00,2.61,12.54,10.60,10.60,2.61,12.54,10307,2022-04-09 20:10:33.777,2022-04-09 21:10:33.777,16,0,0,16.069,55.952637,-4.403310,-1.00,-1.60,-1.80,-2.70,-6.60,169.20,0,1,0,98,100,-7772,3235,16069,2950.50,7,P-GPS,1,0,175,237,477,0,0,1649535033777,4066,4034,4048,4074,0,0,27,,,,,,,0,0,0,27.00,-66.00,1692.00,37.00,0.00,1778.00,6,106.00,26.08,125.36,-10.00,-16.00,-18.00,0,,,100,100,0,2,0,0,0,2,0,,,,,0.0,0.0,0.0,0.0,0.0,0.0,0
55.952576,-4.403482,10.80,0.00,2.68,12.70,10.80,10.80,2.68,12.70,10395,2022-04-09 20:10:33.865,2022-04-09 21:10:33.865,16,0,0,16.069,55.952637,-4.403310,-1.00,-1.60,-1.90,-2.50,-7.00,169.10,0,1,0,98,100,-7772,3235,16069,2950.50,7,P-GPS,1,0,175,237,478,0,0,1649535033865,4066,4034,4048,4074,0,0,27,,,,,,,0,0,0,25.00,-70.00,1691.00,37.00,0.00,1778.00,6,108.00,26.78,127.02,-10.00,-16.00,-19.00,0,,,100,100,0,2,0,0,0,2,0,,,,,0.0,0.0,0.0,0.0,0.0,0.0,0
55.952575,-4.403484,11.00,0.00,2.62,12.89,11.00,11.00,2.68,12.89,10498,2022-04-09 20:10:33.969,2022-04-09 21:10:33.968,16,0,0,16.069,55.952637,-4.403310,-1.00,-1.50,-1.90,-2.20,-7.30,169.20,0,1,0,98,100,-7772,3235,16069,2950.50,7,P-GPS,1,0,175,237,479,0,0,1649535033968,4066,4034,4048,4074,0,0,27,,,,,,,0,0,0,22.00,-73.00,1692.00,37.00,0.00,1778.00,6,110.00,26.19,128.89,-10.00,-15.00,-19.00,0,,,100,100,0,2,0,0,0,2,0,,,,,0.0,0.0,0.0,0.0,0.0,0.0,0
55.952574,-4.403486,11.20,0.00,2.62,13.06,11.20,11.20,2.68,13.06,10596,2022-04-09 20:10:34.066,2022-04-09 21:10:34.066,16,0,0,16.047,55.952637,-4.403310,-1.00,-1.50,-1.90,-2.50,-6.90,169.30,0,1,0,98,100,-7513,3233,16047,2951.50,7,P-GPS,1,0,161,196,461,0,0,1649535034066,4066,4034,4048,4074,0,0,27,,,,,,,0,0,0,25.00,-69.00,1693.00,37.00,0.00,1778.00,6,112.00,26.19,130.60,-10.00,-15.00,-19.00,0,,,100,100,0,2,0,0,0,2,0,,,,,0.0,0.0,0.0,0.0,0.0,0.0,0
55.952573,-4.403489,11.40,0.00,2.55,13.24,11.40,11.40,2.68,13.24,10710,2022-04-09 20:10:34.181,2022-04-09 21:10:34.180,16,0,0,16.047,55.952637,-4.403310,-1.00,-1.50,-1.80,-2.30,-7.80,169.40,0,1,0,98,100,-7513,3233,16047,2951.50,7,P-GPS,1,0,49,43,411,0,0,1649535034180,4066,4034,4048,4074,0,0,27,,,,,,,0,0,0,23.00,-78.00,1694.00,37.00,0.00,1778.00,6,114.00,25.48,132.41,-10.00,-15.00,-18.00,0,,,100,100,0,2,0,0,0,2,0,,,,,0.0,0.0,0.0,0.0,0.0,0.0,0
55.952572,-4.403491,11.50,0.00,2.41,13.44,11.50,11.50,2.68,13.44,10808,2022-04-09 20:10:34.279,2022-04-09 21:10:34.278,16,0,0,16.047,55.952637,-4.403310,-1.00,-1.50,-1.60,0.80,-14.00,169.20,0,1,0,98,100,-7513,3233,16047,2951.50,7,P-GPS,1,0,0,0,321,0,0,1649535034278,4066,4034,4048,4074,0,0,27,,,,,,,0,0,0,-8.00,-140.00,1692.00,37.00,0.00,1778.00,6,115.00,24.10,134.35,-10.00,-15.00,-16.00,0,,,100,100,0,2,0,0,0,2,0,,,,,0.0,0.0,0.0,0.0,0.0,0.0,0
55.952572,-4.403494,11.70,0.00,2.05,13.61,11.70,11.70,2.68,13.61,10907,2022-04-09 20:10:34.378,2022-04-09 21:10:34.377,16,0,0,16.047,55.952637,-4.403310,-0.90,-1.40,-1.20,3.80,-20.20,168.50,0,1,0,98,100,-7513,3233,16047,2951.50,7,P-GPS,1,0,0,0,141,0,0,1649535034377,4066,4034,4048,4074,0,0,27,,,,,,,0,0,0,-38.00,-202.00,1685.00,37.00,0.00,1778.00,6,117.00,20.52,136.09,-9.00,-14.00,-12.00,0,,,100,100,0,2,0,0,0,2,0,,,,,0.0,0.0,0.0,0.0,0.0,0.0,0
55.952571,-4.403496,11.80,0.00,1.72,13.78,11.80,11.80,2.68,13.78,10997,2022-04-09 20:10:34.468,2022-04-09 21:10:34.467,16,0,0,16.047,55.952637,-4.403310,-0.80,-1.30,-0.80,5.20,-23.40,168.10,0,1,0,98,100,-7513,3233,16047,2951.50,7,P-GPS,1,0,0,0,0,0,0,1649535034467,4066,4034,4048,4074,0,0,27,,,,,,,0,0,0,-52.00,-234.00,1681.00,37.00,0.00,1778.00,6,118.00,17.23,137.82,-8.00,-13.00,-8.00,0,,,100,100,0,2,0,0,0,2,0,,,,,0.0,0.0,0.0,0.0,0.0,0.0,0
55.952570,-4.403498,11.90,0.00,1.40,13.93,11.90,11.90,2.68,13.93,11113,2022-04-09 20:10:34.584,2022-04-09 21:10:34.583,16,0,0,16.047,55.952637,-4.403310,-0.70,-1.10,-0.50,5.40,-24.00,168.10,0,1,0,98,100,-7513,3233,16047,2951.50,7,P-GPS,1,0,0,0,0,0,0,1649535034583,4066,4034,4048,4074,0,0,27,,,,,,,0,0,0,-54.00,-240.00,1681.00,37.00,0.00,1778.00,6,119.00,13.96,139.26,-7.00,-11.00,-5.00,0,,,100,100,0,2,0,0,0,2,0,,,,,0.0,0.0,0.0,0.0,0.0,0.0,0
55.952569,-4.403501,11.90,0.00,0.81,14.18,11.90,11.90,2.68,14.18,11308,2022-04-09 20:10:34.779,2022-04-09 21:10:34.779,16,0,0,16.047,55.952637,-4.403310,-0.40,-0.70,-0.10,4.10,-20.30,168.30,0,1,0,98,100,-7513,3233,16047,2951.50,7,P-GPS,1,0,0,0,0,0,0,1649535034778,4066,4034,4048,4074,0,0,27,,,,,,,0,0,0,-41.00,-203.00,1683.00,37.00,0.00,1778.00,6,119.00,8.12,141.83,-4.00,-7.00,-1.00,0,,,100,100,0,2,0,0,0,2,0,,,,,0.0,0.0,0.0,0.0,0.0,0.0,0
55.952568,-4.403502,11.90,0.00,0.63,14.25,11.90,11.90,2.68,14.25,11402,2022-04-09 20:10:34.872,2022-04-09 21:10:34.872,16,0,0,16.047,55.952637,-4.403310,-0.20,-0.60,0.00,2.30,-17.90,168.80,0,1,0,98,100,-7513,3233,16047,2951.50,7,P-GPS,1,0,0,0,0,0,0,1649535034872,4066,4034,4048,4074,0,0,27,,,,,,,0,0,0,-23.00,-179.00,1688.00,37.00,0.00,1778.00,6,119.00,6.32,142.46,-2.00,-6.00,0.00,0,,,100,100,0,2,0,0,0,2,0,,,,,0.0,0.0,0.0,0.0,0.0,0.0,0
55.952568,-4.403503,11.90,0.00,0.41,14.30,11.90,11.90,2.68,14.30,11511,2022-04-09 20:10:34.982,2022-04-09 21:10:34.981,16,0,0,16.047,55.952637,-4.403310,-0.10,-0.40,0.00,1.20,-15.70,169.00,0,1,0,98,100,-7513,3233,16047,2951.50,7,P-GPS,1,0,0,0,0,0,0,1649535034981,4066,4034,4048,4074,0,0,27,,,,,,,0,0,0,-12.00,-157.00,1690.00,37.00,0.00,1778.00,6,119.00,4.12,143.01,-1.00,-4.00,0.00,0,,,100,100,0,2,0,0,0,2,0,,,,,0.0,0.0,0.0,0.0,0.0,0.0,0
55.952568,-4.403504,11.90,0.00,0.30,14.34,11.90,11.90,2.68,14.34,11609,2022-04-09 20:10:35.080,2022-04-09 21:10:35.079,16,0,0,15.953,55.952637,-4.403310,0.00,-0.30,0.00,0.70,-13.60,169.10,0,1,0,97,100,-8094,3231,15953,2951.50,7,P-GPS,1,0,0,0,0,0,0,1649535035079,4066,4034,4048,4074,0,0,27,,,,,,,0,0,0,-7.00,-136.00,1691.00,37.00,0.00,1778.00,6,119.00,3.00,143.38,0.00,-3.00,0.00,0,,,100,100,0,2,0,0,0,2,0,,,,,0.0,0.0,0.0,0.0,0.0,0.0,0
55.952568,-4.403504,11.90,0.00,0.20,14.36,11.90,11.90,2.68,14.36,11697,2022-04-09 20:10:35.168,2022-04-09 21:10:35.167,16,0,0,15.953,55.952637,-4.403310,0.00,-0.20,0.00,-0.10,-12.20,169.20,0,1,0,97,100,-8094,3231,15953,2951.50,7,P-GPS,1,0,0,0,0,0,0,1649535035167,4066,4034,4048,4074,0,0,27,,,,,,,0,0,0,1.00,-122.00,1692.00,37.00,0.00,1778.00,6,119.00,2.00,143.65,0.00,-2.00,0.00,0,,,100,100,0,2,0,0,0,2,0,,,,,0.0,0.0,0.0,0.0,0.0,0.0,0
55.952568,-4.403504,11.90,0.00,0.10,14.36,11.90,11.90,2.68,14.36,11799,2022-04-09 20:10:35.270,2022-04-09 21:10:35.269,16,0,0,15.953,55.952637,-4.403310,0.00,-0.10,0.00,-1.10,-11.40,169.30,0,1,0,97,100,-8094,3231,15953,2951.50,7,P-GPS,1,0,0,0,0,0,0,1649535035269,4066,4034,4048,4074,0,0,27,,,,,,,0,0,0,11.00,-114.00,1693.00,37.00,0.00,1778.00,6,119.00,1.00,143.61,0.00,-1.00,0.00,0,,,100,100,0,2,0,0,0,2,0,,,,,0.0,0.0,0.0,0.0,0.0,0.0,0
55.952568,-4.403504,11.90,0.00,0.10,14.37,11.90,11.90,2.68,14.37,11911,2022-04-09 20:10:35.382,2022-04-09 21:10:35.381,16,0,0,15.953,55.952637,-4.403310,0.10,0.00,0.00,-2.00,-10.70,169.40,0,1,0,97,100,-8094,3231,15953,2951.50,7,P-GPS,1,0,0,0,0,0,0,1649535035381,4066,4034,4048,4074,0,0,27,,,,,,,0,0,0,20.00,-107.00,1694.00,37.00,0.00,1778.00,6,119.00,1.00,143.72,1.00,0.00,0.00,0,,,100,100,0,2,0,0,0,2,0,,,,,0.0,0.0,0.0,0.0,0.0,0.0,0
55.952568,-4.403505,11.90,0.00,0.10,14.39,11.90,11.90,2.68,14.39,12100,2022-04-09 20:10:35.570,2022-04-09 21:10:35.570,16,0,0,15.953,55.952637,-4.403310,0.10,0.00,0.00,-2.30,-9.20,169.40,0,1,0,97,100,-8094,3231,15953,2951.50,7,P-GPS,1,0,0,0,0,0,0,1649535035570,4066,4034,4048,4074,0,0,27,,,,,,,0,0,0,23.00,-92.00,1694.00,37.00,0.00,1778.00,6,119.00,1.00,143.90,1.00,0.00,0.00,0,,,100,100,0,2,0,0,0,2,0,,,,,0.0,0.0,0.0,0.0,0.0,0.0,0
55.952568,-4.403504,11.90,0.00,0.10,14.38,11.90,11.90,2.68,14.39,12199,2022-04-09 20:10:35.670,2022-04-09 21:10:35.669,16,0,0,15.953,55.952637,-4.403310,0.10,0.00,0.00,-2.00,-9.10,169.40,0,1,0,97,100,-8094,3231,15953,2951.50,7,P-GPS,1,0,0,0,0,0,0,1649535035669,4066,4034,4048,4074,0,0,27,,,,,,,0,0,0,20.00,-91.00,1694.00,37.00,0.00,1778.00,6,119.00,1.00,143.75,1.00,0.00,0.00,0,,,100,100,0,2,0,0,0,2,0,,,,,0.0,0.0,0.0,0.0,0.0,0.0,0
55.952568,-4.403505,11.90,0.00,0.10,14.38,11.90,11.90,2.68,14.39,12312,2022-04-09 20:10:35.782,2022-04-09 21:10:35.782,16,0,0,15.953,55.952637,-4.403310,0.10,0.00,0.00,-2.20,-9.10,169.60,0,1,0,97,100,-8094,3231,15953,2951.50,7,P-GPS,1,0,0,0,0,0,0,1649535035782,4066,4034,4048,4074,0,0,27,,,,,,,0,0,0,22.00,-91.00,1696.00,37.00,0.00,1778.00,6,119.00,1.00,143.78,1.00,0.00,0.00,0,,,100,100,0,2,0,0,0,2,0,,,,,0.0,0.0,0.0,0.0,0.0,0.0,0
55.952569,-4.403505,11.90,0.00,0.00,14.36,11.90,11.90,2.68,14.39,12413,2022-04-09 20:10:35.884,2022-04-09 21:10:35.883,16,0,0,15.953,55.952637,-4.403310,0.00,0.00,0.00,-2.20,-8.50,169.60,0,1,0,97,100,-8094,3231,15953,2951.50,7,P-GPS,1,0,0,0,0,0,0,1649535035883,4066,4034,4048,4074,0,0,27,,,,,,,0,0,0,22.00,-85.00,1696.00,37.00,0.00,1778.00,6,119.00,0.00,143.64,0.00,0.00,0.00,0,,,100,100,0,2,0,0,0,2,0,,,,,0.0,0.0,0.0,0.0,0.0,0.0,0
55.952569,-4.403504,11.90,0.00,0.00,14.36,11.90,11.90,2.68,14.39,12499,2022-04-09 20:10:35.970,2022-04-09 21:10:35.969,16,0,0,15.953,55.952637,-4.403310,0.00,0.00,0.00,-1.60,-7.40,169.40,0,1,0,97,100,-8094,3231,15953,2951.50,7,P-GPS,1,0,0,0,0,0,0,1649535035969,4066,4034,4048,4074,0,0,27,,,,,,,0,0,0,16.00,-74.00,1694.00,37.00,0.00,1778.00,6,119.00,0.00,143.62,0.00,0.00,0.00,0,,,100,100,0,2,0,0,0,2,0,,,,,0.0,0.0,0.0,0.0,0.0,0.0,0
55.952569,-4.403504,11.90,0.00,0.10,14.35,11.90,11.90,2.68,14.39,12596,2022-04-09 20:10:36.067,2022-04-09 21:10:36.066,16,0,0,16.032,55.952637,-4.403310,0.00,0.10,0.00,-1.20,-6.80,169.40,0,1,0,97,100,-6563,3229,16032,2951.50,7,P-GPS,1,0,0,0,0,0,0,1649535036066,4066,4034,4048,4074,0,0,27,,,,,,,0,0,0,12.00,-68.00,1694.00,37.00,0.00,1778.00,6,119.00,1.00,143.52,0.00,1.00,0.00,0,,,100,100,0,2,0,0,0,2,0,,,,,0.0,0.0,0.0,0.0,0.0,0.0,0
55.952569,-4.403504,11.90,0.00,0.10,14.35,11.90,11.90,2.68,14.39,12711,2022-04-09 20:10:36.182,2022-04-09 21:10:36.181,16,0,0,16.032,55.952637,-4.403310,0.00,0.10,0.00,-0.70,-6.30,169.40,0,1,0,97,100,-6563,3229,16032,2951.50,7,P-GPS,1,0,0,0,0,0,0,1649535036181,4025,3986,3995,4025,0,0,27,,,,,,,0,0,0,7.00,-63.00,1694.00,37.00,0.00,1778.00,6,119.00,1.00,143.51,0.00,1.00,0.00,0,,,100,100,0,2,0,0,0,2,0,,,,,0.0,0.0,0.0,0.0,0.0,0.0,0
55.952569,-4.403504,11.90,0.00,0.10,14.33,11.90,11.90,2.68,14.39,12908,2022-04-09 20:10:36.378,2022-04-09 21:10:36.378,16,0,0,16.032,55.952637,-4.403310,0.00,0.10,0.00,0.30,-5.70,169.40,0,1,0,97,100,-6563,3229,16032,2951.50,7,P-GPS,1,0,0,0,0,0,0,1649535036378,4025,3986,3995,4025,0,0,27,,,,,,,0,0,0,-3.00,-57.00,1694.00,37.00,0.00,1778.00,6,119.00,1.00,143.31,0.00,1.00,0.00,0,,,100,100,0,2,0,0,0,2,0,,,,,0.0,0.0,0.0,0.0,0.0,0.0,0
55.952569,-4.403504,11.90,0.00,0.00,14.32,11.90,11.90,2.68,14.39,12998,2022-04-09 20:10:36.468,2022-04-09 21:10:36.468,16,0,0,16.032,55.952637,-4.403310,0.00,0.00,0.00,-0.20,-5.70,169.40,0,1,0,97,100,-6563,3229,16032,2951.50,7,P-GPS,1,0,0,0,0,0,0,1649535036468,4025,3986,3995,4025,0,0,27,,,,,,,0,0,0,2.00,-57.00,1694.00,37.00,0.00,1778.00,6,119.00,0.00,143.16,0.00,0.00,0.00,0,,,100,100,0,2,0,0,0,2,0,,,,,0.0,0.0,0.0,0.0,0.0,0.0,0
55.952569,-4.403504,11.90,0.00,0.00,14.31,11.90,11.90,2.68,14.39,13117,2022-04-09 20:10:36.588,2022-04-09 21:10:36.587,16,0,0,16.032,55.952637,-4.403310,0.00,0.00,0.00,-0.80,-5.90,169.40,0,1,0,97,100,-6563,3229,16032,2951.50,7,P-GPS,1,0,0,0,0,0,0,1649535036587,4025,3986,3995,4025,0,0,27,,,,,,,0,0,0,8.00,-59.00,1694.00,37.00,0.00,1778.00,6,119.00,0.00,143.14,0.00,0.00,0.00,0,,,100,100,0,2,0,0,0,2,0,,,,,0.0,0.0,0.0,0.0,0.0,0.0,0
55.952569,-4.403503,11.80,0.00,0.00,14.29,11.90,11.90,2.68,14.39,13210,2022-04-09 20:10:36.681,2022-04-09 21:10:36.680,16,0,0,16.032,55.952637,-4.403310,0.00,0.00,0.00,-0.70,-6.20,169.50,0,1,0,97,100,-6563,3229,16032,2951.50,7,P-GPS,1,0,0,0,0,0,0,1649535036680,4025,3986,3995,4025,0,0,27,,,,,,,0,0,0,7.00,-62.00,1695.00,37.00,0.00,1778.00,6,118.00,0.00,142.91,0.00,0.00,0.00,0,,,100,100,0,2,0,0,0,2,0,,,,,0.0,0.0,0.0,0.0,0.0,0.0,0
55.952569,-4.403503,11.80,0.00,0.00,14.29,11.90,11.90,2.68,14.39,13312,2022-04-09 20:10:36.783,2022-04-09 21:10:36.783,16,0,0,16.032,55.952637,-4.403310,0.00,0.00,0.00,0.20,-6.20,169.50,0,1,0,97,100,-6563,3229,16032,2951.50,7,P-GPS,1,0,0,0,0,0,0,1649535036782,4025,3986,3995,4025,0,0,27,,,,,,,0,0,0,-2.00,-62.00,1695.00,37.00,0.00,1778.00,6,118.00,0.00,142.88,0.00,0.00,0.00,0,,,100,100,0,2,0,0,0,2,0,,,,,0.0,0.0,0.0,0.0,0.0,0.0,0
55.952569,-4.403503,11.80,0.00,0.00,14.27,11.90,11.90,2.68,14.39,13414,2022-04-09 20:10:36.885,2022-04-09 21:10:36.884,16,0,0,16.032,55.952637,-4.403310,0.00,0.00,0.00,-0.80,-5.10,169.60,0,1,0,97,100,-6563,3229,16032,2951.50,7,P-GPS,1,0,0,0,0,0,0,1649535036884,4025,3986,3995,4025,0,0,27,,,,,,,0,0,0,8.00,-51.00,1696.00,37.00,0.00,1778.00,6,118.00,0.00,142.65,0.00,0.00,0.00,0,,,100,100,0,2,0,0,0,2,0,,,,,0.0,0.0,0.0,0.0,0.0,0.0,0
55.952569,-4.403503,11.80,0.00,0.00,14.26,11.90,11.90,2.68,14.39,13512,2022-04-09 20:10:36.982,2022-04-09 21:10:36.982,16,0,0,16.032,55.952637,-4.403310,0.00,0.00,0.00,-1.00,-4.90,169.60,0,1,0,97,100,-6563,3229,16032,2951.50,7,P-GPS,1,0,0,0,0,0,0,1649535036982,4025,3986,3995,4025,0,0,27,,,,,,,0,0,0,10.00,-49.00,1696.00,37.00,0.00,1778.00,6,118.00,0.00,142.60,0.00,0.00,0.00,0,,,100,100,0,2,0,0,0,2,0,,,,,0.0,0.0,0.0,0.0,0.0,0.0,0
55.952569,-4.403503,11.80,0.00,0.00,14.24,11.90,11.90,2.68,14.39,13696,2022-04-09 20:10:37.167,2022-04-09 21:10:37.166,16,0,0,16.118,55.952637,-4.403310,0.00,0.00,0.00,0.20,-6.10,169.30,0,1,0,97,100,-6881,3227,16118,2952.50,7,P-GPS,1,0,0,0,0,0,0,1649535037166,4025,3986,3995,4025,0,0,27,,,,,,,0,0,0,-2.00,-61.00,1693.00,37.00,0.00,1778.00,6,118.00,0.00,142.35,0.00,0.00,0.00,0,,,100,100,0,2,0,0,0,2,0,,,,,0.0,0.0,0.0,0.0,0.0,0.0,0
55.952569,-4.403502,11.80,0.00,0.00,14.23,11.90,11.90,2.68,14.39,13799,2022-04-09 20:10:37.269,2022-04-09 21:10:37.269,16,0,0,16.118,55.952637,-4.403310,0.00,0.00,0.00,-0.90,-5.80,169.20,0,1,0,97,100,-6881,3227,16118,2952.50,7,P-GPS,1,0,0,0,0,0,0,1649535037269,4025,3986,3995,4025,0,0,27,,,,,,,0,0,0,9.00,-58.00,1692.00,37.00,0.00,1778.00,6,118.00,0.00,142.27,0.00,0.00,0.00,0,,,100,100,0,2,0,0,0,2,0,,,,,0.0,0.0,0.0,0.0,0.0,0.0,0
55.952569,-4.403502,11.80,0.00,0.10,14.22,11.90,11.90,2.68,14.39,13914,2022-04-09 20:10:37.384,2022-04-09 21:10:37.384,16,0,0,16.118,55.952637,-4.403310,0.10,0.00,0.00,-2.30,-5.90,169.30,0,1,0,97,100,-6881,3227,16118,2952.50,7,P-GPS,1,0,0,0,0,0,0,1649535037384,4025,3986,3995,4025,0,0,27,,,,,,,0,0,0,23.00,-59.00,1693.00,37.00,0.00,1778.00,6,118.00,1.00,142.22,1.00,0.00,0.00,0,,,100,100,0,2,0,0,0,2,0,,,,,0.0,0.0,0.0,0.0,0.0,0.0,0
55.952569,-4.403502,11.80,0.00,0.00,14.20,11.90,11.90,2.68,14.39,14100,2022-04-09 20:10:37.571,2022-04-09 21:10:37.570,16,0,0,16.118,55.952637,-4.403310,0.00,0.00,0.00,-3.20,-7.10,169.60,0,1,0,97,100,-6881,3227,16118,2952.50,7,P-GPS,1,0,0,0,0,0,0,1649535037570,4025,3986,3995,4025,0,0,27,,,,,,,0,0,0,32.00,-71.00,1696.00,37.00,0.00,1778.00,6,118.00,0.00,141.98,0.00,0.00,0.00,0,,,100,100,0,2,0,0,0,2,0,,,,,0.0,0.0,0.0,0.0,0.0,0.0,0
55.952570,-4.403502,11.80,0.00,0.00,14.19,11.90,11.90,2.68,14.39,14217,2022-04-09 20:10:37.688,2022-04-09 21:10:37.687,16,0,0,16.118,55.952637,-4.403310,0.00,0.00,0.00,-2.60,-7.00,169.50,0,1,0,97,100,-6881,3227,16118,2952.50,7,P-GPS,1,0,0,0,0,0,0,1649535037687,4025,3986,3995,4025,0,0,27,,,,,,,0,0,0,26.00,-70.00,1695.00,37.00,0.00,1778.00,6,118.00,0.00,141.89,0.00,0.00,0.00,0,,,100,100,0,2,0,0,0,2,0,,,,,0.0,0.0,0.0,0.0,0.0,0.0,0
55.952570,-4.403502,11.80,0.00,0.00,14.19,11.90,11.90,2.68,14.39,14421,2022-04-09 20:10:37.891,2022-04-09 21:10:37.891,16,0,0,16.118,55.952637,-4.403310,0.00,0.00,0.00,-2.80,-6.90,169.60,0,1,0,97,100,-6881,3227,16118,2952.50,7,P-GPS,1,0,0,0,0,0,0,1649535037891,4025,3986,3995,4025,0,0,27,,,,,,,0,0,0,28.00,-69.00,1696.00,37.00,0.00,1778.00,6,118.00,0.00,141.85,0.00,0.00,0.00,0,,,100,100,0,2,0,0,0,2,0,,,,,0.0,0.0,0.0,0.0,0.0,0.0,0
55.952570,-4.403502,11.80,0.00,0.00,14.19,11.90,11.90,2.68,14.39,14516,2022-04-09 20:10:37.986,2022-04-09 21:10:37.986,16,0,0,16.118,55.952637,-4.403310,0.00,0.00,0.00,-2.50,-6.80,169.50,0,1,0,97,100,-6881,3227,16118,2952.50,7,P-GPS,1,0,0,0,0,0,0,1649535037986,4025,3986,3995,4025,0,0,27,,,,,,,0,0,0,25.00,-68.00,1695.00,37.00,0.00,1778.00,6,118.00,0.00,141.85,0.00,0.00,0.00,0,,,100,100,0,2,0,0,0,2,0,,,,,0.0,0.0,0.0,0.0,0.0,0.0,0
