latitude,longitude,altitude(m),ultrasonicHeight(m),speed(mps),distance(m),max_altitude(m),max_ascent(m),max_speed(mps),max_distance(m),time(millisecond),datetime(utc),datetime(local),satellites,pressure(Pa),temperature(F),voltage(v),home_latitude,home_longitude,velocityX(mps),velocityY(mps),velocityZ(mps),pitch(deg),roll(deg),yaw(deg),powerlevel,isflying,istakingphoto,remainPowerPercent,remainLifePercent,currentCurrent,currentElectricity,currentVoltage,batteryTemperature,dischargeCount,flightmode,isMotorsOn,isTakingVideo,Rc_elevator,Rc_aileron,Rc_throttle,Rc_rudder,Rc_gyro,timestamp,Battery_Cell1,Battery_Cell2,Battery_Cell3,Battery_Cell4,Battery_Cell5,Battery_Cell6,Dronetype,AppVersion,Planename,FlyControllerSerialNumber,RemoteSerialNumber,BatterySerialNumber,CENTER_BATTERY.productDate,CENTER_BATTERY.serialNo,CENTER_BATTERY.fullCapacity,CENTER_BATTERY.productDateRaw,pitchRaw,rollRaw,yawRaw,gimbalPitchRaw,gimbalRollRaw,gimbalYawRaw,flyState,altitudeRaw,speedRaw,distanceRaw,velocityXRaw,velocityYRaw,velocityZRaw,data_reuse,App_Tip,App_Warning,downlinkSignalQuality,uplinkSignalQuality,transmissionChannel,rcModeSwitch,rcHome,rcPause,rcTransform,rcJoystickMode,appMode,FlyControllerSerialNumber_legacy,RemoteSerialNumber_legacy,BatterySerialNumber_legacy,Battery2SerialNumber,frontAvoidDist,backAvoidDist,rightAvoidDist,leftAvoidDist,upAvoidDist,downAvoidDist,isBrakingToAvoid
55.951960,-4.402127,80.00,0.00,0.00,104.75,80.00,80.00,0.00,104.75,0,2022-10-02 09:55:27.583,2022-10-02 10:55:27.582,19,0,0,15.055,55.952636,-4.403293,0.00,0.00,0.00,4.80,3.50,126.70,0,1,0,50,0,-6749,1666,15055,2731.50,0,P-GPS,1,1,0,0,0,0,0,1664704527582,0,0,0,0,0,0,27,Litchi_4.24.1-g,,,,null,,0,0,0,-48.00,35.00,1267.00,-896.00,0.00,1191.00,6,800.00,0.00,1047.46,0.00,0.00,0.00,0,,,100,100,0,2,0,0,0,2,0,,,,null,0.0,0.0,0.0,0.0,0.0,0.0,0
55.951960,-4.402127,80.00,0.00,0.10,104.73,80.00,80.00,0.10,104.75,101,2022-10-02 09:55:27.684,2022-10-02 10:55:27.683,19,0,0,15.055,55.952636,-4.403293,0.00,0.00,-0.10,4.90,3.50,126.70,0,1,0,50,0,-6749,1666,15055,2731.50,0,P-GPS,1,1,0,0,0,0,0,1664704527683,0,0,0,0,0,0,27,Litchi_4.24.1-g,,,,null,,0,0,0,-49.00,35.00,1267.00,-896.00,0.00,1191.00,6,800.00,1.00,1047.33,0.00,0.00,-1.00,0,,,100,100,0,2,0,0,0,2,0,,,,null,0.0,0.0,0.0,0.0,0.0,0.0,0
55.951960,-4.402127,80.10,0.00,0.00,104.73,80.10,80.10,0.10,104.75,203,2022-10-02 09:55:27.785,2022-10-02 10:55:27.785,19,0,0,15.055,55.952636,-4.403293,0.00,0.00,0.00,5.50,3.40,126.70,0,1,0,50,0,-6749,1666,15055,2731.50,0,P-GPS,1,1,0,0,0,0,0,1664704527785,0,0,0,0,0,0,27,Litchi_4.24.1-g,,,,null,,0,0,0,-55.00,34.00,1267.00,-896.00,0.00,1191.00,6,801.00,0.00,1047.29,0.00,0.00,0.00,0,,,100,100,0,2,0,0,0,2,0,,,,null,0.0,0.0,0.0,0.0,0.0,0.0,0
55.951960,-4.402127,80.10,0.00,0.00,104.74,80.10,80.10,0.10,104.75,316,2022-10-02 09:55:27.898,2022-10-02 10:55:27.898,19,0,0,15.055,55.952636,-4.403293,0.00,0.00,0.00,5.70,3.40,126.80,0,1,0,50,0,-6749,1666,15055,2731.50,0,P-GPS,1,1,0,0,0,0,0,1664704527898,0,0,0,0,0,0,27,Litchi_4.24.1-g,CJTMAVIC,163DFAS001K45C,0VECFAK0072T52,0P2AFAL5340E87,,0,0,0,-57.00,34.00,1268.00,-896.00,0.00,1191.00,6,801.00,0.00,1047.35,0.00,0.00,0.00,0,,,100,100,0,2,0,0,0,2,0,,,,null,0.0,0.0,0.0,0.0,0.0,0.0,0
55.951960,-4.402127,80.10,0.00,0.00,104.73,80.10,80.10,0.10,104.75,510,2022-10-02 09:55:28.093,2022-10-02 10:55:28.092,19,0,0,15.055,55.952636,-4.403293,0.00,0.00,0.00,5.60,3.60,126.80,0,1,0,50,0,-6749,1666,15055,2731.50,0,P-GPS,1,1,0,0,0,0,0,1664704528092,0,0,0,0,0,0,27,,,,,,,0,0,0,-56.00,36.00,1268.00,-896.00,0.00,1191.00,6,801.00,0.00,1047.34,0.00,0.00,0.00,0,,,100,100,0,2,0,0,0,2,0,,,,,0.0,0.0,0.0,0.0,0.0,0.0,0
55.951960,-4.402127,80.10,0.00,0.00,104.73,80.10,80.10,0.10,104.75,601,2022-10-02 09:55:28.184,2022-10-02 10:55:28.183,19,0,0,15.055,55.952636,-4.403293,0.00,0.00,0.00,5.70,3.60,126.80,0,1,0,50,0,-6749,1666,15055,2731.50,0,P-GPS,1,1,0,0,0,0,0,1664704528183,0,0,0,0,0,0,27,,,,,,,0,0,0,-57.00,36.00,1268.00,-896.00,0.00,1191.00,6,801.00,0.00,1047.32,0.00,0.00,0.00,0,,,100,100,0,2,0,0,0,2,0,,,,,0.0,0.0,0.0,0.0,0.0,0.0,0
55.951960,-4.402127,80.10,0.00,0.00,104.73,80.10,80.10,0.10,104.75,702,2022-10-02 09:55:28.285,2022-10-02 10:55:28.285,19,0,0,15.055,55.952636,-4.403293,0.00,0.00,0.00,5.90,3.60,126.90,0,1,0,50,0,-6749,1666,15055,2731.50,0,P-GPS,1,1,0,0,0,0,0,1664704528284,0,0,0,0,0,0,27,,,,,,,0,0,0,-59.00,36.00,1269.00,-896.00,0.00,1191.00,6,801.00,0.00,1047.25,0.00,0.00,0.00,0,,,100,100,0,2,0,0,0,2,0,,,,,0.0,0.0,0.0,0.0,0.0,0.0,0
55.951960,-4.402127,80.10,0.00,0.00,104.72,80.10,80.10,0.10,104.75,803,2022-10-02 09:55:28.385,2022-10-02 10:55:28.385,19,0,0,15.055,55.952636,-4.403293,0.00,0.00,0.00,6.00,3.70,127.00,0,1,0,50,0,-6749,1666,15055,2731.50,0,P-GPS,1,1,0,0,0,0,0,1664704528385,0,0,0,0,0,0,27,,,,,,,0,0,0,-60.00,37.00,1270.00,-896.00,0.00,1191.00,6,801.00,0.00,1047.24,0.00,0.00,0.00,0,,,100,100,0,2,0,0,0,2,0,,,,,0.0,0.0,0.0,0.0,0.0,0.0,0
55.951960,-4.402127,80.10,0.00,0.00,104.71,80.10,80.10,0.10,104.75,902,2022-10-02 09:55:28.484,2022-10-02 10:55:28.484,19,0,0,15.055,55.952636,-4.403293,0.00,0.00,0.00,5.90,3.80,127.10,0,1,0,50,0,-6749,1666,15055,2731.50,0,P-GPS,1,1,0,0,0,0,0,1664704528484,0,0,0,0,0,0,27,,,,,,,0,0,0,-59.00,38.00,1271.00,-896.00,0.00,1191.00,6,801.00,0.00,1047.11,0.00,0.00,0.00,0,,,100,100,0,2,0,0,0,2,0,,,,,0.0,0.0,0.0,0.0,0.0,0.0,0
55.951961,-4.402127,80.10,0.00,0.00,104.71,80.10,80.10,0.10,104.75,1003,2022-10-02 09:55:28.585,2022-10-02 10:55:28.585,19,0,0,15.055,55.952636,-4.403293,0.00,0.00,0.00,5.90,3.90,127.00,0,1,0,50,100,-6777,1664,15055,3063.50,13,P-GPS,1,1,0,0,0,0,0,1664704528585,0,0,0,0,0,0,27,,,,,,,0,0,0,-59.00,39.00,1270.00,-896.00,0.00,1191.00,6,801.00,0.00,1047.10,0.00,0.00,0.00,0,,,100,100,0,2,0,0,0,2,0,,,,,0.0,0.0,0.0,0.0,0.0,0.0,0
55.951960,-4.402127,80.10,0.00,0.00,104.71,80.10,80.10,0.10,104.75,1102,2022-10-02 09:55:28.684,2022-10-02 10:55:28.684,19,0,0,15.055,55.952636,-4.403293,0.00,0.00,0.00,6.00,4.00,127.00,0,1,0,50,100,-6777,1664,15055,3063.50,13,P-GPS,1,1,0,0,0,0,0,1664704528684,0,0,0,0,0,0,27,,,,,,,0,0,0,-60.00,40.00,1270.00,-896.00,0.00,1191.00,6,801.00,0.00,1047.13,0.00,0.00,0.00,0,,,100,100,0,2,0,0,0,2,0,,,,,0.0,0.0,0.0,0.0,0.0,0.0,0
55.951960,-4.402127,80.10,0.00,0.00,104.71,80.10,80.10,0.10,104.75,1202,2022-10-02 09:55:28.784,2022-10-02 10:55:28.784,19,0,0,15.055,55.952636,-4.403293,0.00,0.00,0.00,6.20,4.20,127.10,0,1,0,50,100,-6777,1664,15055,3063.50,13,P-GPS,1,1,0,0,0,0,0,1664704528784,0,0,0,0,0,0,27,,,,,,,0,0,0,-62.00,42.00,1271.00,-896.00,0.00,1191.00,6,801.00,0.00,1047.14,0.00,0.00,0.00,0,,,100,100,0,2,0,0,0,2,0,,,,,0.0,0.0,0.0,0.0,0.0,0.0,0
55.951960,-4.402127,80.20,0.00,0.00,104.71,80.20,80.20,0.10,104.75,1304,2022-10-02 09:55:28.886,2022-10-02 10:55:28.886,19,0,0,15.055,55.952636,-4.403293,0.00,0.00,0.00,6.30,4.30,127.10,0,1,0,50,100,-6777,1664,15055,3063.50,13,P-GPS,1,1,0,0,0,0,0,1664704528886,0,0,0,0,0,0,27,,,,,,,0,0,0,-63.00,43.00,1271.00,-896.00,0.00,1191.00,6,802.00,0.00,1047.14,0.00,0.00,0.00,0,,,100,100,0,2,0,0,0,2,0,,,,,0.0,0.0,0.0,0.0,0.0,0.0,0
55.951960,-4.402127,80.20,0.00,0.00,104.72,80.20,80.20,0.10,104.75,1402,2022-10-02 09:55:28.985,2022-10-02 10:55:28.985,19,0,0,15.055,55.952636,-4.403293,0.00,0.00,0.00,6.40,4.50,127.10,0,1,0,50,100,-6777,1664,15055,3063.50,13,P-GPS,1,1,0,0,0,0,0,1664704528984,0,0,0,0,0,0,27,,,,,,,0,0,0,-64.00,45.00,1271.00,-896.00,0.00,1191.00,6,802.00,0.00,1047.16,0.00,0.00,0.00,0,,,100,100,0,2,0,0,0,2,0,,,,,0.0,0.0,0.0,0.0,0.0,0.0,0
55.951960,-4.402127,80.20,0.00,0.00,104.72,80.20,80.20,0.10,104.75,1517,2022-10-02 09:55:29.099,2022-10-02 10:55:29.099,19,0,0,15.055,55.952636,-4.403293,0.00,0.00,0.00,6.50,4.60,127.20,0,1,0,50,100,-6777,1664,15055,3063.50,13,P-GPS,1,1,0,0,0,0,0,1664704529099,0,0,0,0,0,0,27,,,,,,,0,0,0,-65.00,46.00,1272.00,-896.00,0.00,1191.00,6,802.00,0.00,1047.23,0.00,0.00,0.00,0,,,100,100,0,2,0,0,0,2,0,,,,,0.0,0.0,0.0,0.0,0.0,0.0,0
55.951960,-4.402127,80.10,0.00,0.00,104.74,80.20,80.20,0.10,104.75,1701,2022-10-02 09:55:29.283,2022-10-02 10:55:29.283,19,0,0,15.055,55.952636,-4.403293,0.00,0.00,0.00,6.50,4.30,127.20,0,1,0,50,100,-6777,1664,15055,3063.50,13,P-GPS,1,1,0,0,0,0,0,1664704529283,0,0,0,0,0,0,27,,,,,,,0,0,0,-65.00,43.00,1272.00,-896.00,0.00,1191.00,6,801.00,0.00,1047.36,0.00,0.00,0.00,0,,,100,100,0,2,0,0,0,2,0,,,,,0.0,0.0,0.0,0.0,0.0,0.0,0
55.951960,-4.402127,80.10,0.00,0.00,104.74,80.20,80.20,0.10,104.75,1820,2022-10-02 09:55:29.403,2022-10-02 10:55:29.402,19,0,0,15.055,55.952636,-4.403293,0.00,0.00,0.00,6.60,4.30,127.20,0,1,0,50,100,-6777,1664,15055,3063.50,13,P-GPS,1,1,0,0,0,0,0,1664704529402,0,0,0,0,0,0,27,,,,,,,0,0,0,-66.00,43.00,1272.00,-896.00,0.00,1191.00,6,801.00,0.00,1047.40,0.00,0.00,0.00,0,,,100,100,0,2,0,0,0,2,0,,,,,0.0,0.0,0.0,0.0,0.0,0.0,0
55.951960,-4.402127,80.20,0.00,0.00,104.74,80.20,80.20,0.10,104.75,1904,2022-10-02 09:55:29.486,2022-10-02 10:55:29.486,19,0,0,15.055,55.952636,-4.403293,0.00,0.00,0.00,6.70,4.30,127.20,0,1,0,50,100,-6777,1664,15055,3063.50,13,P-GPS,1,1,0,0,0,0,0,1664704529486,0,0,0,0,0,0,27,,,,,,,0,0,0,-67.00,43.00,1272.00,-896.00,0.00,1191.00,6,802.00,0.00,1047.42,0.00,0.00,0.00,0,,,100,100,0,2,0,0,0,2,0,,,,,0.0,0.0,0.0,0.0,0.0,0.0,0
55.951960,-4.402127,80.20,0.00,0.00,104.75,80.20,80.20,0.10,104.75,2001,2022-10-02 09:55:29.584,2022-10-02 10:55:29.583,19,0,0,15.055,55.952636,-4.403293,0.00,0.00,0.00,6.90,4.40,127.20,0,1,0,50,100,-6777,1664,15055,3063.50,13,P-GPS,1,1,0,0,0,0,0,1664704529583,0,0,0,0,0,0,27,,,,,,,0,0,0,-69.00,44.00,1272.00,-896.00,0.00,1191.00,6,802.00,0.00,1047.46,0.00,0.00,0.00,0,,,100,100,0,2,0,0,0,2,0,,,,,0.0,0.0,0.0,0.0,0.0,0.0,0
55.951960,-4.402127,80.20,0.00,0.00,104.76,80.20,80.20,0.10,104.76,2112,2022-10-02 09:55:29.695,2022-10-02 10:55:29.695,19,0,0,15.033,55.952636,-4.403293,0.00,0.00,0.00,6.90,4.40,127.10,0,1,0,50,100,-7010,1662,15033,3063.50,13,P-GPS,1,1,0,0,0,0,0,1664704529694,0,0,0,0,0,0,27,,,,,,,0,0,0,-69.00,44.00,1271.00,-896.00,0.00,1191.00,6,802.00,0.00,1047.57,0.00,0.00,0.00,0,,,100,100,0,2,0,0,0,2,0,,,,,0.0,0.0,0.0,0.0,0.0,0.0,0
55.951960,-4.402127,80.20,0.00,0.00,104.76,80.20,80.20,0.10,104.76,2202,2022-10-02 09:55:29.785,2022-10-02 10:55:29.784,19,0,0,15.033,55.952636,-4.403293,0.00,0.00,0.00,6.60,4.50,127.10,0,1,0,50,100,-7010,1662,15033,3063.50,13,P-GPS,1,1,0,0,0,0,0,1664704529784,0,0,0,0,0,0,27,,,,,,,0,0,0,-66.00,45.00,1271.00,-896.00,0.00,1191.00,6,802.00,0.00,1047.61,0.00,0.00,0.00,0,,,100,100,0,2,0,0,0,2,0,,,,,0.0,0.0,0.0,0.0,0.0,0.0,0
55.951960,-4.402127,80.20,0.00,0.00,104.76,80.20,80.20,0.10,104.76,2291,2022-10-02 09:55:29.873,2022-10-02 10:55:29.873,19,0,0,15.033,55.952636,-4.403293,0.00,0.00,0.00,6.60,4.50,127.10,0,1,0,50,100,-7010,1662,15033,3063.50,13,P-GPS,1,1,0,0,0,0,0,1664704529873,0,0,0,0,0,0,27,,,,,,,0,0,0,-66.00,45.00,1271.00,-896.00,0.00,1191.00,6,802.00,0.00,1047.61,0.00,0.00,0.00,0,,,100,100,0,2,0,0,0,2,0,,,,,0.0,0.0,0.0,0.0,0.0,0.0,0
55.951960,-4.402127,80.20,0.00,0.00,104.76,80.20,80.20,0.10,104.76,2401,2022-10-02 09:55:29.983,2022-10-02 10:55:29.983,19,0,0,15.033,55.952636,-4.403293,0.00,0.00,0.00,6.50,4.50,127.10,0,1,0,50,100,-7010,1662,15033,3063.50,13,P-GPS,1,1,0,0,0,0,0,1664704529983,0,0,0,0,0,0,27,,,,,,,0,0,0,-65.00,45.00,1271.00,-896.00,0.00,1191.00,6,802.00,0.00,1047.60,0.00,0.00,0.00,0,,,100,100,0,2,0,0,0,2,0,,,,,0.0,0.0,0.0,0.0,0.0,0.0,0
55.951960,-4.402127,80.20,0.00,0.00,104.77,80.20,80.20,0.10,104.77,2503,2022-10-02 09:55:30.086,2022-10-02 10:55:30.085,19,0,0,15.033,55.952636,-4.403293,0.00,0.00,0.00,6.50,4.60,127.00,0,1,0,50,100,-7010,1662,15033,3063.50,13,P-GPS,1,1,0,0,0,0,0,1664704530085,0,0,0,0,0,0,27,,,,,,,0,0,0,-65.00,46.00,1270.00,-896.00,0.00,1191.00,6,802.00,0.00,1047.69,0.00,0.00,0.00,0,,,100,100,0,2,0,0,0,2,0,,,,,0.0,0.0,0.0,0.0,0.0,0.0,0
55.951960,-4.402127,80.20,0.00,0.00,104.77,80.20,80.20,0.10,104.77,2604,2022-10-02 09:55:30.187,2022-10-02 10:55:30.186,19,0,0,15.033,55.952636,-4.403293,0.00,0.00,0.00,6.50,4.50,127.10,0,1,0,50,100,-7010,1662,15033,3063.50,13,P-GPS,1,1,0,0,0,0,0,1664704530186,0,0,0,0,0,0,27,,,,,,,0,0,0,-65.00,45.00,1271.00,-896.00,0.00,1191.00,6,802.00,0.00,1047.73,0.00,0.00,0.00,0,,,100,100,0,2,0,0,0,2,0,,,,,0.0,0.0,0.0,0.0,0.0,0.0,0
55.951960,-4.402127,80.20,0.00,0.00,104.77,80.20,80.20,0.10,104.77,2698,2022-10-02 09:55:30.280,2022-10-02 10:55:30.280,19,0,0,15.033,55.952636,-4.403293,0.00,0.00,0.00,6.90,4.40,127.20,0,1,0,50,100,-7010,1662,15033,3063.50,13,P-GPS,1,1,0,0,0,0,0,1664704530280,0,0,0,0,0,0,27,,,,,,,0,0,0,-69.00,44.00,1272.00,-896.00,0.00,1191.00,6,802.00,0.00,1047.72,0.00,0.00,0.00,0,,,100,100,0,2,0,0,0,2,0,,,,,0.0,0.0,0.0,0.0,0.0,0.0,0
55.951960,-4.402127,80.20,0.00,0.00,104.78,80.20,80.20,0.10,104.78,2801,2022-10-02 09:55:30.383,2022-10-02 10:55:30.383,19,0,0,15.033,55.952636,-4.403293,0.00,0.00,0.00,6.90,4.90,127.20,0,1,0,50,100,-7010,1662,15033,3063.50,13,P-GPS,1,1,0,0,0,0,0,1664704530383,0,0,0,0,0,0,27,,,,,,,0,0,0,-69.00,49.00,1272.00,-896.00,0.00,1191.00,6,802.00,0.00,1047.75,0.00,0.00,0.00,0,,,100,100,0,2,0,0,0,2,0,,,,,0.0,0.0,0.0,0.0,0.0,0.0,0
55.951960,-4.402127,80.10,0.00,0.00,104.77,80.20,80.20,0.10,104.78,2901,2022-10-02 09:55:30.483,2022-10-02 10:55:30.483,19,0,0,15.033,55.952636,-4.403293,0.00,0.00,0.00,6.60,5.20,127.20,0,1,0,50,100,-7010,1662,15033,3063.50,13,P-GPS,1,1,0,0,0,0,0,1664704530483,0,0,0,0,0,0,27,,,,,,,0,0,0,-66.00,52.00,1272.00,-896.00,0.00,1191.00,6,801.00,0.00,1047.70,0.00,0.00,0.00,0,,,100,100,0,2,0,0,0,2,0,,,,,0.0,0.0,0.0,0.0,0.0,0.0,0
55.951960,-4.402127,80.10,0.00,0.00,104.77,80.20,80.20,0.10,104.78,3001,2022-10-02 09:55:30.583,2022-10-02 10:55:30.583,19,0,0,15.033,55.952636,-4.403293,0.00,0.00,0.00,6.60,5.70,127.30,0,1,0,50,100,-7010,1662,15033,3063.50,13,P-GPS,1,1,0,0,0,0,0,1664704530583,0,0,0,0,0,0,27,,,,,,,0,0,0,-66.00,57.00,1273.00,-896.00,0.00,1191.00,6,801.00,0.00,1047.70,0.00,0.00,0.00,0,,,100,100,0,2,0,0,0,2,0,,,,,0.0,0.0,0.0,0.0,0.0,0.0,0
55.951960,-4.402126,80.20,0.00,0.00,104.78,80.20,80.20,0.10,104.78,3101,2022-10-02 09:55:30.684,2022-10-02 10:55:30.683,19,0,0,15.033,55.952636,-4.403293,0.00,0.00,0.00,6.60,5.90,127.20,0,1,0,50,100,-7010,1662,15033,3063.50,13,P-GPS,1,1,0,0,0,0,0,1664704530683,0,0,0,0,0,0,27,,,,,,,0,0,0,-66.00,59.00,1272.00,-896.00,0.00,1191.00,6,802.00,0.00,1047.80,0.00,0.00,0.00,0,,,100,100,0,2,0,0,0,2,0,,,,,0.0,0.0,0.0,0.0,0.0,0.0,0
55.951960,-4.402126,80.20,0.00,0.00,104.78,80.20,80.20,0.10,104.78,3202,2022-10-02 09:55:30.784,2022-10-02 10:55:30.784,19,0,0,15.033,55.952636,-4.403293,0.00,0.00,0.00,6.60,6.10,127.20,0,1,0,50,100,-7010,1662,15033,3063.50,13,P-GPS,1,1,0,0,0,0,0,1664704530784,0,0,0,0,0,0,27,,,,,,,0,0,0,-66.00,61.00,1272.00,-896.00,0.00,1191.00,6,802.00,0.00,1047.80,0.00,0.00,0.00,0,,,100,100,0,2,0,0,0,2,0,,,,,0.0,0.0,0.0,0.0,0.0,0.0,0
55.951960,-4.402126,80.20,0.00,0.00,104.77,80.20,80.20,0.10,104.78,3299,2022-10-02 09:55:30.881,2022-10-02 10:55:30.881,19,0,0,15.033,55.952636,-4.403293,0.00,0.00,0.00,6.40,6.20,127.10,0,1,0,50,100,-7010,1662,15033,3063.50,13,P-GPS,1,1,0,0,0,0,0,1664704530881,0,0,0,0,0,0,27,,,,,,,0,0,0,-64.00,62.00,1271.00,-896.00,0.00,1191.00,6,802.00,0.00,1047.74,0.00,0.00,0.00,0,,,100,100,0,2,0,0,0,2,0,,,,,0.0,0.0,0.0,0.0,0.0,0.0,0
55.951960,-4.402126,80.20,0.00,0.00,104.77,80.20,80.20,0.10,104.78,3401,2022-10-02 09:55:30.984,2022-10-02 10:55:30.983,19,0,0,15.033,55.952636,-4.403293,0.00,0.00,0.00,6.40,6.20,127.10,0,1,0,50,100,-7010,1662,15033,3063.50,13,P-GPS,1,1,0,0,0,0,0,1664704530983,0,0,0,0,0,0,27,,,,,,,0,0,0,-64.00,62.00,1271.00,-896.00,0.00,1191.00,6,802.00,0.00,1047.74,0.00,0.00,0.00,0,,,100,100,0,2,0,0,0,2,0,,,,,0.0,0.0,0.0,0.0,0.0,0.0,0
55.951960,-4.402126,80.20,0.00,0.00,104.77,80.20,80.20,0.10,104.78,3502,2022-10-02 09:55:31.085,2022-10-02 10:55:31.084,19,0,0,15.033,55.952636,-4.403293,0.00,0.00,0.00,6.50,6.00,127.10,0,1,0,50,100,-7010,1662,15033,3063.50,13,P-GPS,1,1,0,0,0,0,0,1664704531084,0,0,0,0,0,0,27,,,,,,,0,0,0,-65.00,60.00,1271.00,-896.00,0.00,1191.00,6,802.00,0.00,1047.74,0.00,0.00,0.00,0,,,100,100,0,2,0,0,0,2,0,,,,,0.0,0.0,0.0,0.0,0.0,0.0,0
55.951960,-4.402126,80.20,0.00,0.00,104.77,80.20,80.20,0.10,104.78,3599,2022-10-02 09:55:31.181,2022-10-02 10:55:31.181,19,0,0,15.033,55.952636,-4.403293,0.00,0.00,0.00,6.50,5.90,127.10,0,1,0,50,100,-7010,1662,15033,3063.50,13,P-GPS,1,1,0,0,0,0,0,1664704531181,0,0,0,0,0,0,27,,,,,,,0,0,0,-65.00,59.00,1271.00,-896.00,0.00,1191.00,6,802.00,0.00,1047.74,0.00,0.00,0.00,0,,,100,100,0,2,0,0,0,2,0,,,,,0.0,0.0,0.0,0.0,0.0,0.0,0
55.951960,-4.402126,80.20,0.00,0.00,104.78,80.20,80.20,0.10,104.78,3699,2022-10-02 09:55:31.282,2022-10-02 10:55:31.281,19,0,0,15.033,55.952636,-4.403293,0.00,0.00,0.00,6.40,6.00,127.00,0,1,0,50,100,-7010,1662,15033,3063.50,13,P-GPS,1,1,0,0,0,0,0,1664704531281,0,0,0,0,0,0,27,,,,,,,0,0,0,-64.00,60.00,1270.00,-896.00,0.00,1191.00,6,802.00,0.00,1047.82,0.00,0.00,0.00,0,,,100,100,0,2,0,0,0,2,0,,,,,0.0,0.0,0.0,0.0,0.0,0.0,0
55.951960,-4.402126,80.20,0.00,0.00,104.78,80.20,80.20,0.10,104.78,3802,2022-10-02 09:55:31.384,2022-10-02 10:55:31.384,19,0,0,15.033,55.952636,-4.403293,0.00,0.00,0.00,6.30,5.70,127.10,0,1,0,50,100,-7010,1662,15033,3063.50,13,P-GPS,1,1,0,0,0,0,0,1664704531384,0,0,0,0,0,0,27,,,,,,,0,0,0,-63.00,57.00,1271.00,-896.00,0.00,1191.00,6,802.00,0.00,1047.82,0.00,0.00,0.00,0,,,100,100,0,2,0,0,0,2,0,,,,,0.0,0.0,0.0,0.0,0.0,0.0,0
55.951960,-4.402126,80.20,0.00,0.00,104.78,80.20,80.20,0.10,104.78,3902,2022-10-02 09:55:31.484,2022-10-02 10:55:31.484,19,0,0,15.033,55.952636,-4.403293,0.00,0.00,0.00,6.10,5.70,127.10,0,1,0,50,100,-7010,1662,15033,3063.50,13,P-GPS,1,1,0,0,0,0,0,1664704531484,0,0,0,0,0,0,27,,,,,,,0,0,0,-61.00,57.00,1271.00,-896.00,0.00,1191.00,6,802.00,0.00,1047.75,0.00,0.00,0.00,0,,,100,100,0,2,0,0,0,2,0,,,,,0.0,0.0,0.0,0.0,0.0,0.0,0
55.951960,-4.402126,80.20,0.00,0.00,104.77,80.20,80.20,0.10,104.78,3999,2022-10-02 09:55:31.582,2022-10-02 10:55:31.581,19,0,0,15.033,55.952636,-4.403293,0.00,0.00,0.00,6.10,5.70,127.20,0,1,0,50,100,-7010,1662,15033,3063.50,13,P-GPS,1,1,0,0,0,0,0,1664704531581,0,0,0,0,0,0,27,,,,,,,0,0,0,-61.00,57.00,1272.00,-896.00,0.00,1191.00,6,802.00,0.00,1047.74,0.00,0.00,0.00,0,,,100,100,0,2,0,0,0,2,0,,,,,0.0,0.0,0.0,0.0,0.0,0.0,0
55.951961,-4.402126,80.20,0.00,0.00,104.77,80.20,80.20,0.10,104.78,4098,2022-10-02 09:55:31.681,2022-10-02 10:55:31.680,19,0,0,14.999,55.952636,-4.403293,0.00,0.00,0.00,6.00,5.90,127.10,0,1,0,50,100,-7010,1662,14999,3063.50,13,P-GPS,1,1,0,0,0,0,0,1664704531680,0,0,0,0,0,0,27,,,,,,,0,0,0,-60.00,59.00,1271.00,-896.00,0.00,1191.00,6,802.00,0.00,1047.68,0.00,0.00,0.00,0,,,100,100,0,2,0,0,0,2,0,,,,,0.0,0.0,0.0,0.0,0.0,0.0,0
55.951961,-4.402126,80.20,0.00,0.00,104.77,80.20,80.20,0.10,104.78,4195,2022-10-02 09:55:31.777,2022-10-02 10:55:31.777,19,0,0,14.999,55.952636,-4.403293,0.00,0.00,0.00,5.80,6.10,127.10,0,1,0,50,100,-7010,1662,14999,3063.50,13,P-GPS,1,1,0,0,0,0,0,1664704531777,0,0,0,0,0,0,27,,,,,,,0,0,0,-58.00,61.00,1271.00,-896.00,0.00,1191.00,6,802.00,0.00,1047.67,0.00,0.00,0.00,0,,,100,100,0,2,0,0,0,2,0,,,,,0.0,0.0,0.0,0.0,0.0,0.0,0
55.951961,-4.402126,80.20,0.00,0.00,104.77,80.20,80.20,0.10,104.78,4295,2022-10-02 09:55:31.878,2022-10-02 10:55:31.877,19,0,0,14.999,55.952636,-4.403293,0.00,0.00,0.00,5.80,6.40,127.10,0,1,0,50,100,-7010,1662,14999,3063.50,13,P-GPS,1,1,0,0,0,0,0,1664704531877,0,0,0,0,0,0,27,,,,,,,0,0,0,-58.00,64.00,1271.00,-896.00,0.00,1191.00,6,802.00,0.00,1047.69,0.00,0.00,0.00,0,,,100,100,0,2,0,0,0,2,0,,,,,0.0,0.0,0.0,0.0,0.0,0.0,0
55.951961,-4.402126,80.10,0.00,0.00,104.77,80.20,80.20,0.10,104.78,4403,2022-10-02 09:55:31.987,2022-10-02 10:55:31.985,19,0,0,14.999,55.952636,-4.403293,0.00,0.00,0.00,6.10,6.40,127.10,0,1,0,50,100,-7010,1662,14999,3063.50,13,P-GPS,1,1,0,0,0,0,0,1664704531985,0,0,0,0,0,0,27,,,,,,,0,0,0,-61.00,64.00,1271.00,-896.00,0.00,1191.00,6,801.00,0.00,1047.69,0.00,0.00,0.00,0,,,100,100,0,2,0,0,0,2,0,,,,,0.0,0.0,0.0,0.0,0.0,0.0,0
55.951961,-4.402126,80.10,0.00,0.00,104.76,80.20,80.20,0.10,104.78,4498,2022-10-02 09:55:32.080,2022-10-02 10:55:32.080,19,0,0,14.999,55.952636,-4.403293,0.00,0.00,0.00,6.10,6.30,127.20,0,1,0,50,100,-7010,1662,14999,3063.50,13,P-GPS,1,1,0,0,0,0,0,1664704532080,0,0,0,0,0,0,27,,,,,,,0,0,0,-61.00,63.00,1272.00,-896.00,0.00,1191.00,6,801.00,0.00,1047.61,0.00,0.00,0.00,0,,,100,100,0,2,0,0,0,2,0,,,,,0.0,0.0,0.0,0.0,0.0,0.0,0
55.951961,-4.402126,80.10,0.00,0.00,104.76,80.20,80.20,0.10,104.78,4596,2022-10-02 09:55:32.179,2022-10-02 10:55:32.178,19,0,0,14.999,55.952636,-4.403293,0.00,0.00,0.00,6.20,6.10,127.10,0,1,0,50,100,-7010,1662,14999,3063.50,13,P-GPS,1,1,0,0,0,0,0,1664704532178,0,0,0,0,0,0,27,,,,,,,0,0,0,-62.00,61.00,1271.00,-896.00,0.00,1191.00,6,801.00,0.00,1047.62,0.00,0.00,0.00,0,,,100,100,0,2,0,0,0,2,0,,,,,0.0,0.0,0.0,0.0,0.0,0.0,0
55.951961,-4.402126,80.10,0.00,0.00,104.76,80.20,80.20,0.10,104.78,4704,2022-10-02 09:55:32.286,2022-10-02 10:55:32.286,19,0,0,14.999,55.952636,-4.403293,0.00,0.00,0.00,6.20,6.20,127.20,0,1,0,50,100,-7010,1662,14999,3063.50,13,P-GPS,1,1,0,0,0,0,0,1664704532286,0,0,0,0,0,0,27,,,,,,,0,0,0,-62.00,62.00,1272.00,-896.00,0.00,1191.00,6,801.00,0.00,1047.55,0.00,0.00,0.00,0,,,100,100,0,2,0,0,0,2,0,,,,,0.0,0.0,0.0,0.0,0.0,0.0,0
55.951961,-4.402126,80.10,0.00,0.00,104.76,80.20,80.20,0.10,104.78,4799,2022-10-02 09:55:32.382,2022-10-02 10:55:32.381,19,0,0,14.999,55.952636,-4.403293,0.00,0.00,0.00,6.00,6.30,127.10,0,1,0,50,100,-7010,1662,14999,3063.50,13,P-GPS,1,1,0,0,0,0,0,1664704532381,0,0,0,0,0,0,27,,,,,,,0,0,0,-60.00,63.00,1271.00,-896.00,0.00,1191.00,6,801.00,0.00,1047.56,0.00,0.00,0.00,0,,,100,100,0,2,0,0,0,2,0,,,,,0.0,0.0,0.0,0.0,0.0,0.0,0
55.951960,-4.402126,80.10,0.00,0.00,104.77,80.20,80.20,0.10,104.78,4901,2022-10-02 09:55:32.484,2022-10-02 10:55:32.483,19,0,0,14.999,55.952636,-4.403293,0.00,0.00,0.00,6.10,6.20,127.10,0,1,0,50,100,-7010,1662,14999,3063.50,13,P-GPS,1,1,0,0,0,0,0,1664704532483,0,0,0,0,0,0,27,,,,,,,0,0,0,-61.00,62.00,1271.00,-896.00,0.00,1191.00,6,801.00,0.00,1047.70,0.00,0.00,0.00,0,,,100,100,0,2,0,0,0,2,0,,,,,0.0,0.0,0.0,0.0,0.0,0.0,0
55.951960,-4.402126,80.10,0.00,0.00,104.77,80.20,80.20,0.10,104.78,5002,2022-10-02 09:55:32.584,2022-10-02 10:55:32.584,19,0,0,15.038,55.952636,-4.403293,0.00,0.00,0.00,6.30,6.10,127.10,0,1,0,50,100,-6885,1658,15038,3063.50,13,P-GPS,1,1,0,0,0,0,0,1664704532584,0,0,0,0,0,0,27,,,,,,,0,0,0,-63.00,61.00,1271.00,-896.00,0.00,1191.00,6,801.00,0.00,1047.73,0.00,0.00,0.00,0,,,100,100,0,2,0,0,0,2,0,,,,,0.0,0.0,0.0,0.0,0.0,0.0,0
55.951960,-4.402126,80.10,0.00,0.00,104.77,80.20,80.20,0.10,104.78,5101,2022-10-02 09:55:32.683,2022-10-02 10:55:32.683,19,0,0,15.038,55.952636,-4.403293,0.00,0.00,0.00,6.40,5.90,127.10,0,1,0,50,100,-6885,1658,15038,3063.50,13,P-GPS,1,1,0,0,0,0,0,1664704532683,0,0,0,0,0,0,27,,,,,,,0,0,0,-64.00,59.00,1271.00,-896.00,0.00,1191.00,6,801.00,0.00,1047.72,0.00,0.00,0.00,0,,,100,100,0,2,0,0,0,2,0,,,,,0.0,0.0,0.0,0.0,0.0,0.0,0
55.951960,-4.402126,80.10,0.00,0.00,104.78,80.20,80.20,0.10,104.78,5199,2022-10-02 09:55:32.781,2022-10-02 10:55:32.781,19,0,0,15.038,55.952636,-4.403293,0.00,0.00,0.00,6.40,5.80,127.10,0,1,0,50,100,-6885,1658,15038,3063.50,13,P-GPS,1,1,0,0,0,0,0,1664704532781,0,0,0,0,0,0,27,,,,,,,0,0,0,-64.00,58.00,1271.00,-896.00,0.00,1191.00,6,801.00,0.00,1047.76,0.00,0.00,0.00,0,,,100,100,0,2,0,0,0,2,0,,,,,0.0,0.0,0.0,0.0,0.0,0.0,0
55.951960,-4.402126,80.10,0.00,0.00,104.77,80.20,80.20,0.10,104.78,5303,2022-10-02 09:55:32.886,2022-10-02 10:55:32.885,19,0,0,15.038,55.952636,-4.403293,0.00,0.00,0.00,6.50,5.80,127.10,0,1,0,50,100,-6885,1658,15038,3063.50,13,P-GPS,1,1,0,0,0,0,0,1664704532885,0,0,0,0,0,0,27,,,,,,,0,0,0,-65.00,58.00,1271.00,-896.00,0.00,1191.00,6,801.00,0.00,1047.75,0.00,0.00,0.00,0,,,100,100,0,2,0,0,0,2,0,,,,,0.0,0.0,0.0,0.0,0.0,0.0,0
55.951960,-4.402126,80.10,0.00,0.00,104.78,80.20,80.20,0.10,104.78,5402,2022-10-02 09:55:32.985,2022-10-02 10:55:32.984,19,0,0,15.038,55.952636,-4.403293,0.00,0.00,0.00,6.60,5.90,127.10,0,1,0,50,100,-6885,1658,15038,3063.50,13,P-GPS,1,1,0,0,0,0,0,1664704532984,0,0,0,0,0,0,27,,,,,,,0,0,0,-66.00,59.00,1271.00,-896.00,0.00,1191.00,6,801.00,0.00,1047.78,0.00,0.00,0.00,0,,,100,100,0,2,0,0,0,2,0,,,,,0.0,0.0,0.0,0.0,0.0,0.0,0
55.951960,-4.402126,80.00,0.00,0.00,104.78,80.20,80.20,0.10,104.78,5501,2022-10-02 09:55:33.083,2022-10-02 10:55:33.083,19,0,0,15.038,55.952636,-4.403293,0.00,0.00,0.00,6.60,5.60,127.00,0,1,0,50,100,-6885,1658,15038,3063.50,13,P-GPS,1,1,0,0,0,0,0,1664704533083,0,0,0,0,0,0,27,,,,,,,0,0,0,-66.00,56.00,1270.00,-896.00,0.00,1191.00,6,800.00,0.00,1047.79,0.00,0.00,0.00,0,,,100,100,0,2,0,0,0,2,0,,,,,0.0,0.0,0.0,0.0,0.0,0.0,0
55.951960,-4.402126,80.00,0.00,0.00,104.78,80.20,80.20,0.10,104.78,5598,2022-10-02 09:55:33.181,2022-10-02 10:55:33.180,19,0,0,15.038,55.952636,-4.403293,0.00,0.00,0.00,6.40,5.70,127.10,0,1,0,50,100,-6885,1658,15038,3063.50,13,P-GPS,1,1,0,0,0,0,0,1664704533180,0,0,0,0,0,0,27,,,,,,,0,0,0,-64.00,57.00,1271.00,-896.00,0.00,1191.00,6,800.00,0.00,1047.82,0.00,0.00,0.00,0,,,100,100,0,2,0,0,0,2,0,,,,,0.0,0.0,0.0,0.0,0.0,0.0,0
55.951960,-4.402126,80.00,0.00,0.00,104.79,80.20,80.20,0.10,104.79,5710,2022-10-02 09:55:33.292,2022-10-02 10:55:33.292,19,0,0,15.038,55.952636,-4.403293,0.00,0.00,0.00,6.30,5.50,127.00,0,1,0,50,100,-6885,1658,15038,3063.50,13,P-GPS,1,1,0,0,0,0,0,1664704533292,0,0,0,0,0,0,27,,,,,,,0,0,0,-63.00,55.00,1270.00,-896.00,0.00,1191.00,6,800.00,0.00,1047.87,0.00,0.00,0.00,0,,,100,100,0,2,0,0,0,2,0,,,,,0.0,0.0,0.0,0.0,0.0,0.0,0
55.951960,-4.402126,80.00,0.00,0.00,104.79,80.20,80.20,0.10,104.79,5801,2022-10-02 09:55:33.383,2022-10-02 10:55:33.383,19,0,0,15.038,55.952636,-4.403293,0.00,0.00,0.00,6.20,5.50,127.00,0,1,0,50,100,-6885,1658,15038,3063.50,13,P-GPS,1,1,0,0,0,0,0,1664704533383,0,0,0,0,0,0,27,,,,,,,0,0,0,-62.00,55.00,1270.00,-896.00,0.00,1191.00,6,800.00,0.00,1047.89,0.00,0.00,0.00,0,,,100,100,0,2,0,0,0,2,0,,,,,0.0,0.0,0.0,0.0,0.0,0.0,0
55.951960,-4.402126,80.00,0.00,0.00,104.77,80.20,80.20,0.10,104.79,5900,2022-10-02 09:55:33.482,2022-10-02 10:55:33.482,19,0,0,15.038,55.952636,-4.403293,0.00,0.00,0.00,6.00,5.40,127.00,0,1,0,50,100,-6885,1658,15038,3063.50,13,P-GPS,1,1,0,0,0,0,0,1664704533482,0,0,0,0,0,0,27,,,,,,,0,0,0,-60.00,54.00,1270.00,-896.00,0.00,1191.00,6,800.00,0.00,1047.74,0.00,0.00,0.00,0,,,100,100,0,2,0,0,0,2,0,,,,,0.0,0.0,0.0,0.0,0.0,0.0,0
55.951960,-4.402126,80.00,0.00,0.00,104.77,80.20,80.20,0.10,104.79,6004,2022-10-02 09:55:33.587,2022-10-02 10:55:33.586,19,0,0,15.010,55.952636,-4.403293,0.00,0.00,0.00,5.90,5.50,127.00,0,1,0,50,100,-7300,1656,15010,3063.50,13,P-GPS,1,1,0,0,0,0,0,1664704533586,0,0,0,0,0,0,27,,,,,,,0,0,0,-59.00,55.00,1270.00,-896.00,0.00,1191.00,6,800.00,0.00,1047.74,0.00,0.00,0.00,0,,,100,100,0,2,0,0,0,2,0,,,,,0.0,0.0,0.0,0.0,0.0,0.0,0
55.951960,-4.402126,80.00,0.00,0.00,104.78,80.20,80.20,0.10,104.79,6101,2022-10-02 09:55:33.683,2022-10-02 10:55:33.683,19,0,0,15.010,55.952636,-4.403293,0.00,0.00,0.00,5.90,5.90,127.10,0,1,0,50,100,-7300,1656,15010,3063.50,13,P-GPS,1,1,0,0,0,0,0,1664704533683,0,0,0,0,0,0,27,,,,,,,0,0,0,-59.00,59.00,1271.00,-896.00,0.00,1191.00,6,800.00,0.00,1047.76,0.00,0.00,0.00,0,,,100,100,0,2,0,0,0,2,0,,,,,0.0,0.0,0.0,0.0,0.0,0.0,0
55.951960,-4.402126,80.00,0.00,0.00,104.78,80.20,80.20,0.10,104.79,6201,2022-10-02 09:55:33.784,2022-10-02 10:55:33.783,19,0,0,15.010,55.952636,-4.403293,0.00,0.00,0.00,5.90,6.00,127.10,0,1,0,50,100,-7300,1656,15010,3063.50,13,P-GPS,1,1,0,0,0,0,0,1664704533783,0,0,0,0,0,0,27,,,,,,,0,0,0,-59.00,60.00,1271.00,-896.00,0.00,1191.00,6,800.00,0.00,1047.78,0.00,0.00,0.00,0,,,100,100,0,2,0,0,0,2,0,,,,,0.0,0.0,0.0,0.0,0.0,0.0,0
55.951960,-4.402126,80.00,0.00,0.00,104.77,80.20,80.20,0.10,104.79,6310,2022-10-02 09:55:33.894,2022-10-02 10:55:33.893,19,0,0,15.010,55.952636,-4.403293,0.00,0.00,0.00,6.00,5.90,127.10,0,1,0,50,100,-7300,1656,15010,3063.50,13,P-GPS,1,1,0,0,0,0,0,1664704533892,0,0,0,0,0,0,27,,,,,,,0,0,0,-60.00,59.00,1271.00,-896.00,0.00,1191.00,6,800.00,0.00,1047.72,0.00,0.00,0.00,0,,,100,100,0,2,0,0,0,2,0,,,,,0.0,0.0,0.0,0.0,0.0,0.0,0
55.951960,-4.402126,80.10,0.00,0.00,104.77,80.20,80.20,0.10,104.79,6401,2022-10-02 09:55:33.983,2022-10-02 10:55:33.983,19,0,0,15.010,55.952636,-4.403293,0.00,0.00,0.00,6.20,5.90,127.10,0,1,0,50,100,-7300,1656,15010,3063.50,13,P-GPS,1,1,0,0,0,0,0,1664704533983,0,0,0,0,0,0,27,,,,,,,0,0,0,-62.00,59.00,1271.00,-896.00,0.00,1191.00,6,801.00,0.00,1047.73,0.00,0.00,0.00,0,,,100,100,0,2,0,0,0,2,0,,,,,0.0,0.0,0.0,0.0,0.0,0.0,0
55.951960,-4.402127,80.00,0.00,0.00,104.78,80.20,80.20,0.10,104.79,6516,2022-10-02 09:55:34.099,2022-10-02 10:55:34.098,19,0,0,15.010,55.952636,-4.403293,0.00,0.00,0.00,6.30,5.60,127.00,0,1,0,50,100,-7300,1656,15010,3063.50,13,P-GPS,1,1,0,0,0,0,0,1664704534098,0,0,0,0,0,0,27,,,,,,,0,0,0,-63.00,56.00,1270.00,-896.00,0.00,1191.00,6,800.00,0.00,1047.80,0.00,0.00,0.00,0,,,100,100,0,2,0,0,0,2,0,,,,,0.0,0.0,0.0,0.0,0.0,0.0,0
55.951960,-4.402127,80.00,0.00,0.00,104.78,80.20,80.20,0.10,104.79,6603,2022-10-02 09:55:34.185,2022-10-02 10:55:34.185,19,0,0,15.010,55.952636,-4.403293,0.00,0.00,0.00,6.10,5.70,127.00,0,1,0,50,100,-7300,1656,15010,3063.50,13,P-GPS,1,1,0,0,0,0,0,1664704534185,0,0,0,0,0,0,27,,,,,,,0,0,0,-61.00,57.00,1270.00,-896.00,0.00,1191.00,6,800.00,0.00,1047.80,0.00,0.00,0.00,0,,,100,100,0,2,0,0,0,2,0,,,,,0.0,0.0,0.0,0.0,0.0,0.0,0
55.951960,-4.402127,80.10,0.00,0.00,104.77,80.20,80.20,0.10,104.79,6706,2022-10-02 09:55:34.289,2022-10-02 10:55:34.288,19,0,0,15.010,55.952636,-4.403293,0.00,0.00,0.00,5.80,5.60,126.90,0,1,0,50,100,-7300,1656,15010,3063.50,13,P-GPS,1,1,0,0,0,0,0,1664704534288,0,0,0,0,0,0,27,,,,,,,0,0,0,-58.00,56.00,1269.00,-896.00,0.00,1191.00,6,801.00,0.00,1047.74,0.00,0.00,0.00,0,,,100,100,0,2,0,0,0,2,0,,,,,0.0,0.0,0.0,0.0,0.0,0.0,0
55.951960,-4.402127,80.10,0.00,0.00,104.77,80.20,80.20,0.10,104.79,6804,2022-10-02 09:55:34.386,2022-10-02 10:55:34.386,19,0,0,15.010,55.952636,-4.403293,0.00,0.00,0.00,5.30,5.70,126.80,0,1,0,50,100,-7300,1656,15010,3063.50,13,P-GPS,1,1,0,0,0,0,0,1664704534386,0,0,0,0,0,0,27,,,,,,,0,0,0,-53.00,57.00,1268.00,-896.00,0.00,1191.00,6,801.00,0.00,1047.72,0.00,0.00,0.00,0,,,100,100,0,2,0,0,0,2,0,,,,,0.0,0.0,0.0,0.0,0.0,0.0,0
55.951960,-4.402127,80.10,0.00,0.00,104.77,80.20,80.20,0.10,104.79,6902,2022-10-02 09:55:34.485,2022-10-02 10:55:34.484,19,0,0,15.010,55.952636,-4.403293,0.00,0.00,0.00,5.20,6.00,126.90,0,1,0,50,100,-7300,1656,15010,3063.50,13,P-GPS,1,1,0,0,0,0,0,1664704534484,3765,3765,3754,3729,0,0,27,,,,,,,0,0,0,-52.00,60.00,1269.00,-896.00,0.00,1191.00,6,801.00,0.00,1047.72,0.00,0.00,0.00,0,,,100,100,0,2,0,0,0,2,0,,,,,0.0,0.0,0.0,0.0,0.0,0.0,0
55.951960,-4.402127,80.10,0.00,0.00,104.77,80.20,80.20,0.10,104.79,7001,2022-10-02 09:55:34.583,2022-10-02 10:55:34.583,19,0,0,15.010,55.952636,-4.403293,0.00,0.00,0.00,5.20,6.30,126.90,0,1,0,50,100,-7300,1656,15010,3063.50,13,P-GPS,1,1,0,0,0,0,0,1664704534583,3765,3765,3754,3729,0,0,27,,,,,,,0,0,0,-52.00,63.00,1269.00,-896.00,0.00,1191.00,6,801.00,0.00,1047.70,0.00,0.00,0.00,0,,,100,100,0,2,0,0,0,2,0,,,,,0.0,0.0,0.0,0.0,0.0,0.0,0
55.951960,-4.402127,80.10,0.00,0.00,104.77,80.20,80.20,0.10,104.79,7097,2022-10-02 09:55:34.680,2022-10-02 10:55:34.679,19,0,0,15.011,55.952636,-4.403293,0.00,0.00,0.00,5.20,5.90,126.90,0,1,0,50,100,-7783,1656,15011,3063.50,13,P-GPS,1,1,0,0,0,0,0,1664704534679,3765,3765,3754,3729,0,0,27,,,,,,,0,0,0,-52.00,59.00,1269.00,-896.00,0.00,1191.00,6,801.00,0.00,1047.71,0.00,0.00,0.00,0,,,100,100,0,2,0,0,0,2,0,,,,,0.0,0.0,0.0,0.0,0.0,0.0,0
55.951960,-4.402127,80.10,0.00,0.00,104.77,80.20,80.20,0.10,104.79,7202,2022-10-02 09:55:34.784,2022-10-02 10:55:34.784,19,0,0,15.011,55.952636,-4.403293,0.00,0.00,0.00,5.10,6.00,126.90,0,1,0,50,100,-7783,1656,15011,3063.50,13,P-GPS,1,1,0,0,0,0,0,1664704534784,3765,3765,3754,3729,0,0,27,,,,,,,0,0,0,-51.00,60.00,1269.00,-896.00,0.00,1191.00,6,801.00,0.00,1047.70,0.00,0.00,0.00,0,,,100,100,0,2,0,0,0,2,0,,,,,0.0,0.0,0.0,0.0,0.0,0.0,0
55.951960,-4.402127,80.10,0.00,0.00,104.76,80.20,80.20,0.10,104.79,7302,2022-10-02 09:55:34.885,2022-10-02 10:55:34.884,19,0,0,15.011,55.952636,-4.403293,0.00,0.00,0.00,5.10,6.10,126.90,0,1,0,50,100,-7783,1656,15011,3063.50,13,P-GPS,1,1,0,0,0,0,0,1664704534884,3765,3765,3754,3729,0,0,27,,,,,,,0,0,0,-51.00,61.00,1269.00,-896.00,0.00,1191.00,6,801.00,0.00,1047.56,0.00,0.00,0.00,0,,,100,100,0,2,0,0,0,2,0,,,,,0.0,0.0,0.0,0.0,0.0,0.0,0
55.951960,-4.402127,80.10,0.00,0.00,104.75,80.20,80.20,0.10,104.79,7400,2022-10-02 09:55:34.982,2022-10-02 10:55:34.982,19,0,0,15.011,55.952636,-4.403293,0.00,0.00,0.00,5.10,6.20,126.90,0,1,0,50,100,-7783,1656,15011,3063.50,13,P-GPS,1,1,0,0,0,0,0,1664704534982,3765,3765,3754,3729,0,0,27,,,,,,,0,0,0,-51.00,62.00,1269.00,-896.00,0.00,1191.00,6,801.00,0.00,1047.55,0.00,0.00,0.00,0,,,100,100,0,2,0,0,0,2,0,,,,,0.0,0.0,0.0,0.0,0.0,0.0,0
55.951960,-4.402127,80.10,0.00,0.00,104.76,80.20,80.20,0.10,104.79,7500,2022-10-02 09:55:35.082,2022-10-02 10:55:35.082,19,0,0,15.011,55.952636,-4.403293,0.00,0.00,0.00,5.20,6.20,126.90,0,1,0,50,100,-7783,1656,15011,3063.50,13,P-GPS,1,1,0,0,0,0,0,1664704535082,3765,3765,3754,3729,0,0,27,,,,,,,0,0,0,-52.00,62.00,1269.00,-896.00,0.00,1191.00,6,801.00,0.00,1047.62,0.00,0.00,0.00,0,,,100,100,0,2,0,0,0,2,0,,,,,0.0,0.0,0.0,0.0,0.0,0.0,0
55.951960,-4.402127,80.10,0.00,0.00,104.76,80.20,80.20,0.10,104.79,7599,2022-10-02 09:55:35.181,2022-10-02 10:55:35.181,19,0,0,15.011,55.952636,-4.403293,0.00,0.00,0.00,5.30,6.20,126.90,0,1,0,50,100,-7783,1656,15011,3063.50,13,P-GPS,1,1,0,0,0,0,0,1664704535181,3765,3765,3754,3729,0,0,27,,,,,,,0,0,0,-53.00,62.00,1269.00,-896.00,0.00,1191.00,6,801.00,0.00,1047.64,0.00,0.00,0.00,0,,,100,100,0,2,0,0,0,2,0,,,,,0.0,0.0,0.0,0.0,0.0,0.0,0
55.951960,-4.402127,80.10,0.00,0.00,104.76,80.20,80.20,0.10,104.79,7701,2022-10-02 09:55:35.284,2022-10-02 10:55:35.283,19,0,0,15.011,55.952636,-4.403293,0.00,0.00,0.00,5.60,6.10,126.90,0,1,0,50,100,-7783,1656,15011,3063.50,13,P-GPS,1,1,0,0,0,0,0,1664704535283,3765,3765,3754,3729,0,0,27,,,,,,,0,0,0,-56.00,61.00,1269.00,-896.00,0.00,1191.00,6,801.00,0.00,1047.58,0.00,0.00,0.00,0,,,100,100,0,2,0,0,0,2,0,,,,,0.0,0.0,0.0,0.0,0.0,0.0,0
55.951960,-4.402127,80.10,0.00,0.00,104.76,80.20,80.20,0.10,104.79,7801,2022-10-02 09:55:35.384,2022-10-02 10:55:35.383,19,0,0,15.011,55.952636,-4.403293,0.00,0.00,0.00,5.70,5.80,127.00,0,1,0,50,100,-7783,1656,15011,3063.50,13,P-GPS,1,1,0,0,0,0,0,1664704535383,3765,3765,3754,3729,0,0,27,,,,,,,0,0,0,-57.00,58.00,1270.00,-896.00,0.00,1191.00,6,801.00,0.00,1047.60,0.00,0.00,0.00,0,,,100,100,0,2,0,0,0,2,0,,,,,0.0,0.0,0.0,0.0,0.0,0.0,0
55.951960,-4.402127,80.10,0.00,0.00,104.76,80.20,80.20,0.10,104.79,7901,2022-10-02 09:55:35.484,2022-10-02 10:55:35.483,19,0,0,15.011,55.952636,-4.403293,0.00,0.00,0.00,5.50,5.60,126.90,0,1,0,50,100,-7783,1656,15011,3063.50,13,P-GPS,1,1,0,0,0,0,0,1664704535483,3765,3765,3754,3729,0,0,27,,,,,,,0,0,0,-55.00,56.00,1269.00,-896.00,0.00,1191.00,6,801.00,0.00,1047.57,0.00,0.00,0.00,0,,,100,100,0,2,0,0,0,2,0,,,,,0.0,0.0,0.0,0.0,0.0,0.0,0
55.951960,-4.402127,80.10,0.00,0.00,104.76,80.20,80.20,0.10,104.79,8000,2022-10-02 09:55:35.583,2022-10-02 10:55:35.582,19,0,0,15.011,55.952636,-4.403293,0.00,0.00,0.00,5.60,5.70,127.00,0,1,0,50,100,-7783,1656,15011,3063.50,13,P-GPS,1,1,0,0,0,0,0,1664704535582,3765,3765,3754,3729,0,0,27,,,,,,,0,0,0,-56.00,57.00,1270.00,-896.00,0.00,1191.00,6,801.00,0.00,1047.60,0.00,0.00,0.00,0,,,100,100,0,2,0,0,0,2,0,,,,,0.0,0.0,0.0,0.0,0.0,0.0,0
55.951960,-4.402127,80.10,0.00,0.00,104.76,80.20,80.20,0.10,104.79,8101,2022-10-02 09:55:35.683,2022-10-02 10:55:35.683,19,0,0,15.014,55.952636,-4.403293,0.00,0.00,0.00,5.80,5.70,127.00,0,1,0,50,100,-7526,1652,15014,3064.50,13,P-GPS,1,1,0,0,0,0,0,1664704535683,3765,3765,3754,3729,0,0,27,,,,,,,0,0,0,-58.00,57.00,1270.00,-896.00,0.00,1191.00,6,801.00,0.00,1047.61,0.00,0.00,0.00,0,,,100,100,0,2,0,0,0,2,0,,,,,0.0,0.0,0.0,0.0,0.0,0.0,0
55.951960,-4.402127,80.10,0.00,0.00,104.77,80.20,80.20,0.10,104.79,8201,2022-10-02 09:55:35.783,2022-10-02 10:55:35.783,19,0,0,15.014,55.952636,-4.403293,0.00,0.00,0.00,6.20,5.60,127.00,0,1,0,50,100,-7526,1652,15014,3064.50,13,P-GPS,1,1,0,0,0,0,0,1664704535783,3765,3765,3754,3729,0,0,27,,,,,,,0,0,0,-62.00,56.00,1270.00,-896.00,0.00,1191.00,6,801.00,0.00,1047.65,0.00,0.00,0.00,0,,,100,100,0,2,0,0,0,2,0,,,,,0.0,0.0,0.0,0.0,0.0,0.0,0
55.951960,-4.402127,80.10,0.00,0.00,104.78,80.20,80.20,0.10,104.79,8304,2022-10-02 09:55:35.887,2022-10-02 10:55:35.886,19,0,0,15.014,55.952636,-4.403293,0.00,0.00,0.00,6.30,5.60,127.00,0,1,0,50,100,-7526,1652,15014,3064.50,13,P-GPS,1,1,0,0,0,0,0,1664704535886,3765,3765,3754,3729,0,0,27,,,,,,,0,0,0,-63.00,56.00,1270.00,-896.00,0.00,1191.00,6,801.00,0.00,1047.76,0.00,0.00,0.00,0,,,100,100,0,2,0,0,0,2,0,,,,,0.0,0.0,0.0,0.0,0.0,0.0,0
55.951960,-4.402127,80.10,0.00,0.00,104.78,80.20,80.20,0.10,104.79,8400,2022-10-02 09:55:35.982,2022-10-02 10:55:35.982,19,0,0,15.014,55.952636,-4.403293,0.00,0.00,0.00,6.20,5.60,126.90,0,1,0,50,100,-7526,1652,15014,3064.50,13,P-GPS,1,1,0,0,0,0,0,1664704535982,3765,3765,3754,3729,0,0,27,,,,,,,0,0,0,-62.00,56.00,1269.00,-896.00,0.00,1191.00,6,801.00,0.00,1047.81,0.00,0.00,0.00,0,,,100,100,0,2,0,0,0,2,0,,,,,0.0,0.0,0.0,0.0,0.0,0.0,0
55.951960,-4.402127,80.10,0.00,0.00,104.77,80.20,80.20,0.10,104.79,8504,2022-10-02 09:55:36.086,2022-10-02 10:55:36.086,19,0,0,15.014,55.952636,-4.403293,0.00,0.00,0.00,6.20,5.50,127.00,0,1,0,50,100,-7526,1652,15014,3064.50,13,P-GPS,1,1,0,0,0,0,0,1664704536086,3765,3765,3754,3729,0,0,27,,,,,,,0,0,0,-62.00,55.00,1270.00,-896.00,0.00,1191.00,6,801.00,0.00,1047.68,0.00,0.00,0.00,0,,,100,100,0,2,0,0,0,2,0,,,,,0.0,0.0,0.0,0.0,0.0,0.0,0
55.951960,-4.402127,80.10,0.00,0.00,104.77,80.20,80.20,0.10,104.79,8600,2022-10-02 09:55:36.182,2022-10-02 10:55:36.182,19,0,0,15.014,55.952636,-4.403293,0.00,0.00,0.00,6.20,5.30,126.90,0,1,0,50,100,-7526,1652,15014,3064.50,13,P-GPS,1,1,0,0,0,0,0,1664704536182,3765,3765,3754,3729,0,0,27,,,,,,,0,0,0,-62.00,53.00,1269.00,-896.00,0.00,1191.00,6,801.00,0.00,1047.72,0.00,0.00,0.00,0,,,100,100,0,2,0,0,0,2,0,,,,,0.0,0.0,0.0,0.0,0.0,0.0,0
55.951960,-4.402127,80.10,0.00,0.00,104.78,80.20,80.20,0.10,104.79,8700,2022-10-02 09:55:36.283,2022-10-02 10:55:36.282,19,0,0,15.014,55.952636,-4.403293,0.00,0.00,0.00,6.30,5.20,127.00,0,1,0,50,100,-7526,1652,15014,3064.50,13,P-GPS,1,1,0,0,0,0,0,1664704536282,3765,3765,3754,3729,0,0,27,,,,,,,0,0,0,-63.00,52.00,1270.00,-896.00,0.00,1191.00,6,801.00,0.00,1047.78,0.00,0.00,0.00,0,,,100,100,0,2,0,0,0,2,0,,,,,0.0,0.0,0.0,0.0,0.0,0.0,0
55.951960,-4.402127,80.10,0.00,0.00,104.78,80.20,80.20,0.10,104.79,8801,2022-10-02 09:55:36.384,2022-10-02 10:55:36.383,19,0,0,15.014,55.952636,-4.403293,0.00,0.00,0.00,6.40,5.20,126.90,0,1,0,50,100,-7526,1652,15014,3064.50,13,P-GPS,1,1,0,0,0,0,0,1664704536383,3765,3765,3754,3729,0,0,27,,,,,,,0,0,0,-64.00,52.00,1269.00,-896.00,0.00,1191.00,6,801.00,0.00,1047.82,0.00,0.00,0.00,0,,,100,100,0,2,0,0,0,2,0,,,,,0.0,0.0,0.0,0.0,0.0,0.0,0
55.951960,-4.402127,80.10,0.00,0.00,104.79,80.20,80.20,0.10,104.79,8899,2022-10-02 09:55:36.481,2022-10-02 10:55:36.481,19,0,0,15.014,55.952636,-4.403293,0.00,0.00,0.00,6.50,5.30,127.00,0,1,0,50,100,-7526,1652,15014,3064.50,13,P-GPS,1,1,0,0,0,0,0,1664704536481,3765,3765,3754,3729,0,0,27,,,,,,,0,0,0,-65.00,53.00,1270.00,-896.00,0.00,1191.00,6,801.00,0.00,1047.87,0.00,0.00,0.00,0,,,100,100,0,2,0,0,0,2,0,,,,,0.0,0.0,0.0,0.0,0.0,0.0,0
55.951960,-4.402127,80.10,0.00,0.00,104.79,80.20,80.20,0.10,104.79,9002,2022-10-02 09:55:36.585,2022-10-02 10:55:36.584,19,0,0,15.014,55.952636,-4.403293,0.00,0.00,0.00,6.70,5.40,127.00,0,1,0,50,100,-7526,1652,15014,3064.50,13,P-GPS,1,1,0,0,0,0,0,1664704536584,3765,3765,3754,3729,0,0,27,,,,,,,0,0,0,-67.00,54.00,1270.00,-896.00,0.00,1191.00,6,801.00,0.00,1047.92,0.00,0.00,0.00,0,,,100,100,0,2,0,0,0,2,0,,,,,0.0,0.0,0.0,0.0,0.0,0.0,0
55.951960,-4.402127,80.10,0.00,0.00,104.80,80.20,80.20,0.10,104.80,9099,2022-10-02 09:55:36.681,2022-10-02 10:55:36.681,19,0,0,15.001,55.952636,-4.403293,0.00,0.00,0.00,6.70,5.40,127.00,0,1,0,50,100,-7384,1650,15001,3064.50,13,P-GPS,1,1,0,0,0,0,0,1664704536681,3765,3765,3754,3729,0,0,27,,,,,,,0,0,0,-67.00,54.00,1270.00,-896.00,0.00,1191.00,6,801.00,0.00,1047.98,0.00,0.00,0.00,0,,,100,100,0,2,0,0,0,2,0,,,,,0.0,0.0,0.0,0.0,0.0,0.0,0
55.951960,-4.402127,80.10,0.00,0.00,104.80,80.20,80.20,0.10,104.80,9207,2022-10-02 09:55:36.790,2022-10-02 10:55:36.789,19,0,0,15.001,55.952636,-4.403293,0.00,0.00,0.00,6.70,5.20,126.90,0,1,0,50,100,-7384,1650,15001,3064.50,13,P-GPS,1,1,0,0,0,0,0,1664704536789,3765,3765,3754,3729,0,0,27,,,,,,,0,0,0,-67.00,52.00,1269.00,-896.00,0.00,1191.00,6,801.00,0.00,1048.02,0.00,0.00,0.00,0,,,100,100,0,2,0,0,0,2,0,,,,,0.0,0.0,0.0,0.0,0.0,0.0,0
55.951960,-4.402127,80.10,0.00,0.00,104.81,80.20,80.20,0.10,104.81,9300,2022-10-02 09:55:36.882,2022-10-02 10:55:36.882,19,0,0,15.001,55.952636,-4.403293,0.00,0.00,0.00,6.80,5.00,126.90,0,1,0,50,100,-7384,1650,15001,3064.50,13,P-GPS,1,1,0,0,0,0,0,1664704536882,3765,3765,3754,3729,0,0,27,,,,,,,0,0,0,-68.00,50.00,1269.00,-896.00,0.00,1191.00,6,801.00,0.00,1048.06,0.00,0.00,0.00,0,,,100,100,0,2,0,0,0,2,0,,,,,0.0,0.0,0.0,0.0,0.0,0.0,0
55.951960,-4.402127,80.10,0.00,0.00,104.81,80.20,80.20,0.10,104.81,9404,2022-10-02 09:55:36.986,2022-10-02 10:55:36.986,19,0,0,15.001,55.952636,-4.403293,0.00,0.00,0.00,6.90,5.00,126.90,0,1,0,50,100,-7384,1650,15001,3064.50,13,P-GPS,1,1,0,0,0,0,0,1664704536986,3765,3765,3754,3729,0,0,27,,,,,,,0,0,0,-69.00,50.00,1269.00,-896.00,0.00,1191.00,6,801.00,0.00,1048.10,0.00,0.00,0.00,0,,,100,100,0,2,0,0,0,2,0,,,,,0.0,0.0,0.0,0.0,0.0,0.0,0
55.951959,-4.402127,80.10,0.00,0.00,104.81,80.20,80.20,0.10,104.81,9499,2022-10-02 09:55:37.081,2022-10-02 10:55:37.081,19,0,0,15.001,55.952636,-4.403293,0.00,0.00,0.00,6.80,5.10,126.90,0,1,0,50,100,-7384,1650,15001,3064.50,13,P-GPS,1,1,0,0,0,0,0,1664704537081,3765,3765,3754,3729,0,0,27,,,,,,,0,0,0,-68.00,51.00,1269.00,-896.00,0.00,1191.00,6,801.00,0.00,1048.11,0.00,0.00,0.00,0,,,100,100,0,2,0,0,0,2,0,,,,,0.0,0.0,0.0,0.0,0.0,0.0,0
55.951959,-4.402127,80.10,0.00,0.00,104.81,80.20,80.20,0.10,104.81,9599,2022-10-02 09:55:37.182,2022-10-02 10:55:37.181,19,0,0,15.001,55.952636,-4.403293,0.00,0.00,0.00,6.80,5.00,126.90,0,1,0,50,100,-7384,1650,15001,3064.50,13,P-GPS,1,1,0,0,0,0,0,1664704537181,3765,3765,3754,3729,0,0,27,,,,,,,0,0,0,-68.00,50.00,1269.00,-896.00,0.00,1191.00,6,801.00,0.00,1048.14,0.00,0.00,0.00,0,,,100,100,0,2,0,0,0,2,0,,,,,0.0,0.0,0.0,0.0,0.0,0.0,0
55.951959,-4.402127,80.10,0.00,0.00,104.82,80.20,80.20,0.10,104.82,9701,2022-10-02 09:55:37.283,2022-10-02 10:55:37.283,19,0,0,15.001,55.952636,-4.403293,0.00,0.00,0.00,6.60,5.00,126.90,0,1,0,50,100,-7384,1650,15001,3064.50,13,P-GPS,1,1,0,0,0,0,0,1664704537283,3765,3765,3754,3729,0,0,27,,,,,,,0,0,0,-66.00,50.00,1269.00,-896.00,0.00,1191.00,6,801.00,0.00,1048.22,0.00,0.00,0.00,0,,,100,100,0,2,0,0,0,2,0,,,,,0.0,0.0,0.0,0.0,0.0,0.0,0
55.951959,-4.402127,80.10,0.00,0.00,104.82,80.20,80.20,0.10,104.82,9801,2022-10-02 09:55:37.384,2022-10-02 10:55:37.383,19,0,0,15.001,55.952636,-4.403293,0.00,0.00,0.00,6.70,4.90,126.90,0,1,0,50,100,-7384,1650,15001,3064.50,13,P-GPS,1,1,0,0,0,0,0,1664704537383,3765,3765,3754,3729,0,0,27,,,,,,,0,0,0,-67.00,49.00,1269.00,-896.00,0.00,1191.00,6,801.00,0.00,1048.24,0.00,0.00,0.00,0,,,100,100,0,2,0,0,0,2,0,,,,,0.0,0.0,0.0,0.0,0.0,0.0,0
55.951959,-4.402127,80.10,0.00,0.00,104.82,80.20,80.20,0.10,104.82,9900,2022-10-02 09:55:37.483,2022-10-02 10:55:37.482,19,0,0,15.001,55.952636,-4.403293,0.00,0.00,0.00,6.50,4.60,126.80,0,1,0,50,100,-7384,1650,15001,3064.50,13,P-GPS,1,1,0,0,0,0,0,1664704537482,3765,3765,3754,3729,0,0,27,,,,,,,0,0,0,-65.00,46.00,1268.00,-896.00,0.00,1191.00,6,801.00,0.00,1048.20,0.00,0.00,0.00,0,,,100,100,0,2,0,0,0,2,0,,,,,0.0,0.0,0.0,0.0,0.0,0.0,0
55.951959,-4.402127,80.10,0.00,0.00,104.82,80.20,80.20,0.10,104.82,10002,2022-10-02 09:55:37.585,2022-10-02 10:55:37.584,19,0,0,15.001,55.952636,-4.403293,0.00,0.00,0.00,6.60,4.50,126.80,0,1,0,50,100,-7384,1650,15001,3064.50,13,P-GPS,1,1,0,0,0,0,0,1664704537584,3765,3765,3754,3729,0,0,27,,,,,,,0,0,0,-66.00,45.00,1268.00,-896.00,0.00,1191.00,6,801.00,0.00,1048.21,0.00,0.00,0.00,0,,,100,100,0,2,0,0,0,2,0,,,,,0.0,0.0,0.0,0.0,0.0,0.0,0
55.951959,-4.402127,80.10,0.00,0.00,104.83,80.20,80.20,0.10,104.83,10098,2022-10-02 09:55:37.681,2022-10-02 10:55:37.680,19,0,0,15.030,55.952636,-4.403293,0.00,0.00,0.00,6.40,4.40,126.90,0,1,0,50,100,-7164,1648,15030,3064.50,13,P-GPS,1,1,0,0,0,0,0,1664704537680,3765,3765,3754,3729,0,0,27,,,,,,,0,0,0,-64.00,44.00,1269.00,-896.00,0.00,1191.00,6,801.00,0.00,1048.28,0.00,0.00,0.00,0,,,100,100,0,2,0,0,0,2,0,,,,,0.0,0.0,0.0,0.0,0.0,0.0,0
55.951959,-4.402127,80.10,0.00,0.00,104.83,80.20,80.20,0.10,104.83,10202,2022-10-02 09:55:37.785,2022-10-02 10:55:37.785,19,0,0,15.030,55.952636,-4.403293,0.00,0.00,0.00,6.40,4.40,126.90,0,1,0,50,100,-7164,1648,15030,3064.50,13,P-GPS,1,1,0,0,0,0,0,1664704537784,3765,3765,3754,3729,0,0,27,,,,,,,0,0,0,-64.00,44.00,1269.00,-896.00,0.00,1191.00,6,801.00,0.00,1048.30,0.00,0.00,0.00,0,,,100,100,0,2,0,0,0,2,0,,,,,0.0,0.0,0.0,0.0,0.0,0.0,0
55.951959,-4.402127,80.00,0.00,0.00,104.83,80.20,80.20,0.10,104.83,10298,2022-10-02 09:55:37.883,2022-10-02 10:55:37.880,19,0,0,15.030,55.952636,-4.403293,0.00,0.00,0.00,6.40,4.40,126.90,0,1,0,50,100,-7164,1648,15030,3064.50,13,P-GPS,1,1,0,0,0,0,0,1664704537880,3765,3765,3754,3729,0,0,27,,,,,,,0,0,0,-64.00,44.00,1269.00,-896.00,0.00,1191.00,6,800.00,0.00,1048.31,0.00,0.00,0.00,0,,,100,100,0,2,0,0,0,2,0,,,,,0.0,0.0,0.0,0.0,0.0,0.0,0
55.951959,-4.402127,80.10,0.00,0.00,104.83,80.20,80.20,0.10,104.83,10407,2022-10-02 09:55:37.989,2022-10-02 10:55:37.989,19,0,0,15.030,55.952636,-4.403293,0.00,0.00,0.00,6.30,4.50,126.90,0,1,0,50,100,-7164,1648,15030,3064.50,13,P-GPS,1,1,0,0,0,0,0,1664704537989,3765,3765,3754,3729,0,0,27,,,,,,,0,0,0,-63.00,45.00,1269.00,-896.00,0.00,1191.00,6,801.00,0.00,1048.31,0.00,0.00,0.00,0,,,100,100,0,2,0,0,0,2,0,,,,,0.0,0.0,0.0,0.0,0.0,0.0,0
55.951959,-4.402127,80.00,0.00,0.00,104.83,80.20,80.20,0.10,104.83,10500,2022-10-02 09:55:38.082,2022-10-02 10:55:38.082,19,0,0,15.030,55.952636,-4.403293,0.00,0.00,0.00,6.40,4.90,127.00,0,1,0,50,100,-7164,1648,15030,3064.50,13,P-GPS,1,1,0,0,0,0,0,1664704538082,3765,3765,3754,3729,0,0,27,,,,,,,0,0,0,-64.00,49.00,1270.00,-896.00,0.00,1191.00,6,800.00,0.00,1048.32,0.00,0.00,0.00,0,,,100,100,0,2,0,0,0,2,0,,,,,0.0,0.0,0.0,0.0,0.0,0.0,0
55.951959,-4.402127,80.00,0.00,0.00,104.83,80.20,80.20,0.10,104.83,10602,2022-10-02 09:55:38.185,2022-10-02 10:55:38.184,19,0,0,15.030,55.952636,-4.403293,0.00,0.00,0.00,6.30,5.10,126.90,0,1,0,50,100,-7164,1648,15030,3064.50,13,P-GPS,1,1,0,0,0,0,0,1664704538184,3765,3765,3754,3729,0,0,27,,,,,,,0,0,0,-63.00,51.00,1269.00,-896.00,0.00,1191.00,6,800.00,0.00,1048.31,0.00,0.00,0.00,0,,,100,100,0,2,0,0,0,2,0,,,,,0.0,0.0,0.0,0.0,0.0,0.0,0
55.951959,-4.402127,80.00,0.00,0.00,104.82,80.20,80.20,0.10,104.83,10704,2022-10-02 09:55:38.287,2022-10-02 10:55:38.286,19,0,0,15.030,55.952636,-4.403293,0.00,0.00,0.00,6.00,5.20,126.90,0,1,0,50,100,-7164,1648,15030,3064.50,13,P-GPS,1,1,0,0,0,0,0,1664704538286,3765,3765,3754,3729,0,0,27,,,,,,,0,0,0,-60.00,52.00,1269.00,-896.00,0.00,1191.00,6,800.00,0.00,1048.20,0.00,0.00,0.00,0,,,100,100,0,2,0,0,0,2,0,,,,,0.0,0.0,0.0,0.0,0.0,0.0,0
55.951959,-4.402127,80.10,0.00,0.00,0.63,80.20,80.20,0.10,104.83,10803,2022-10-02 09:55:38.386,2022-10-02 10:55:38.385,19,0,0,15.030,55.952636,-4.403293,0.00,0.00,0.00,5.80,5.20,126.90,0,1,0,50,100,-7164,1648,15030,3064.50,13,P-GPS,1,1,0,0,0,0,0,1664704538385,3765,3765,3754,3729,0,0,27,,,,,,,0,0,0,-58.00,52.00,1269.00,-896.00,0.00,1191.00,6,801.00,0.00,6.32,0.00,0.00,0.00,0,,,100,100,0,2,0,0,0,2,2,,,,,0.0,0.0,0.0,0.0,0.0,0.0,0
55.951959,-4.402127,80.10,0.00,0.00,0.63,80.20,80.20,0.10,104.83,10906,2022-10-02 09:55:38.489,2022-10-02 10:55:38.488,19,0,0,15.030,55.952636,-4.403293,0.00,0.00,0.00,5.80,5.10,126.90,0,1,0,50,100,-7164,1648,15030,3064.50,13,P-GPS,1,1,0,0,0,0,0,1664704538488,3765,3765,3754,3729,0,0,27,,,,,,,0,0,0,-58.00,51.00,1269.00,-896.00,0.00,1191.00,6,801.00,0.00,6.31,0.00,0.00,0.00,0,,,100,100,0,2,0,0,0,2,2,,,,,0.0,0.0,0.0,0.0,0.0,0.0,0
55.951959,-4.402127,80.10,0.00,0.00,0.63,80.20,80.20,0.10,104.83,11002,2022-10-02 09:55:38.585,2022-10-02 10:55:38.585,19,0,0,15.030,55.952636,-4.403293,0.00,0.00,0.00,5.80,5.00,126.90,0,1,0,50,100,-7164,1648,15030,3064.50,13,P-GPS,1,1,0,0,0,0,0,1664704538584,3765,3765,3754,3729,0,0,27,,,,,,,0,0,0,-58.00,50.00,1269.00,-896.00,0.00,1191.00,6,801.00,0.00,6.33,0.00,0.00,0.00,0,,,100,100,0,2,0,0,0,2,2,,,,,0.0,0.0,0.0,0.0,0.0,0.0,0
55.951959,-4.402127,80.00,0.00,0.00,0.63,80.20,80.20,0.10,104.83,11101,2022-10-02 09:55:38.684,2022-10-02 10:55:38.684,19,0,0,15.022,55.952636,-4.403293,0.00,0.00,0.00,5.70,4.90,126.90,0,1,0,50,100,-7062,1646,15022,3064.50,13,P-GPS,1,1,0,0,0,0,0,1664704538683,3765,3765,3754,3729,0,0,27,,,,,,,0,0,0,-57.00,49.00,1269.00,-896.00,0.00,1191.00,6,800.00,0.00,6.30,0.00,0.00,0.00,0,,,100,100,0,2,0,0,0,2,2,,,,,0.0,0.0,0.0,0.0,0.0,0.0,0
55.951959,-4.402127,80.10,0.00,0.00,0.63,80.20,80.20,0.10,104.83,11204,2022-10-02 09:55:38.786,2022-10-02 10:55:38.786,19,0,0,15.022,55.952636,-4.403293,0.00,0.00,0.00,6.00,5.10,126.90,0,1,0,50,100,-7062,1646,15022,3064.50,13,P-GPS,1,1,0,0,0,0,0,1664704538786,3765,3765,3754,3729,0,0,27,,,,,,,0,0,0,-60.00,51.00,1269.00,-896.00,0.00,1191.00,6,801.00,0.00,6.26,0.00,0.00,0.00,0,,,100,100,0,2,0,0,0,2,2,,,,,0.0,0.0,0.0,0.0,0.0,0.0,0
55.951959,-4.402127,80.00,0.00,0.00,0.64,80.20,80.20,0.10,104.83,11303,2022-10-02 09:55:38.886,2022-10-02 10:55:38.886,19,0,0,15.022,55.952636,-4.403293,0.00,0.00,0.00,6.20,5.10,127.00,0,1,0,50,100,-7062,1646,15022,3064.50,13,P-GPS,1,1,0,0,0,0,0,1664704538885,3765,3765,3754,3729,0,0,27,,,,,,,0,0,0,-62.00,51.00,1270.00,-896.00,0.00,1191.00,6,800.00,0.00,6.35,0.00,0.00,0.00,0,,,100,100,0,2,0,0,0,2,2,,,,,0.0,0.0,0.0,0.0,0.0,0.0,0
55.951959,-4.402127,80.10,0.00,0.00,0.64,80.20,80.20,0.10,104.83,11417,2022-10-02 09:55:38.999,2022-10-02 10:55:38.999,19,0,0,15.022,55.952636,-4.403293,0.00,0.00,0.00,6.20,4.90,127.00,0,1,0,50,100,-7062,1646,15022,3064.50,13,P-GPS,1,1,0,0,0,0,0,1664704538999,3765,3765,3754,3729,0,0,27,,,,,,,0,0,0,-62.00,49.00,1270.00,-896.00,0.00,1191.00,6,801.00,0.00,6.35,0.00,0.00,0.00,0,,,100,100,0,2,0,0,0,2,2,,,,,0.0,0.0,0.0,0.0,0.0,0.0,0
55.951959,-4.402127,80.00,0.00,0.00,0.63,80.20,80.20,0.10,104.83,11500,2022-10-02 09:55:39.083,2022-10-02 10:55:39.082,19,0,0,15.022,55.952636,-4.403293,0.00,0.00,0.00,6.40,4.90,127.00,0,1,0,50,100,-7062,1646,15022,3064.50,13,P-GPS,1,1,0,0,0,0,0,1664704539082,3765,3765,3754,3729,0,0,27,,,,,,,0,0,0,-64.00,49.00,1270.00,-896.00,0.00,1191.00,6,800.00,0.00,6.28,0.00,0.00,0.00,0,,,100,100,0,2,0,0,0,2,2,,,,,0.0,0.0,0.0,0.0,0.0,0.0,0
55.951959,-4.402127,80.00,0.00,0.00,0.63,80.20,80.20,0.10,104.83,11599,2022-10-02 09:55:39.182,2022-10-02 10:55:39.181,19,0,0,15.022,55.952636,-4.403293,0.00,0.00,0.00,6.40,5.00,127.00,0,1,0,50,100,-7062,1646,15022,3064.50,13,P-GPS,1,1,0,0,0,0,0,1664704539181,3765,3765,3754,3729,0,0,27,,,,,,,0,0,0,-64.00,50.00,1270.00,-896.00,0.00,1191.00,6,800.00,0.00,6.26,0.00,0.00,0.00,0,,,100,100,0,2,0,0,0,2,2,,,,,0.0,0.0,0.0,0.0,0.0,0.0,0
55.951959,-4.402127,80.00,0.00,0.00,0.62,80.20,80.20,0.10,104.83,11702,2022-10-02 09:55:39.285,2022-10-02 10:55:39.284,19,0,0,15.022,55.952636,-4.403293,0.00,0.00,0.00,6.30,5.10,126.90,0,1,0,50,100,-7062,1646,15022,3064.50,13,P-GPS,1,1,0,0,0,0,0,1664704539284,3765,3765,3754,3729,0,0,27,,,,,,,0,0,0,-63.00,51.00,1269.00,-896.00,0.00,1191.00,6,800.00,0.00,6.23,0.00,0.00,0.00,0,,,100,100,0,2,0,0,0,2,2,,,,,0.0,0.0,0.0,0.0,0.0,0.0,0
55.951959,-4.402127,80.10,0.00,0.00,0.62,80.20,80.20,0.10,104.83,11804,2022-10-02 09:55:39.386,2022-10-02 10:55:39.386,19,0,0,15.022,55.952636,-4.403293,0.00,0.00,0.00,6.00,5.20,126.90,0,1,0,50,100,-7062,1646,15022,3064.50,13,P-GPS,1,1,0,0,0,0,0,1664704539386,3765,3765,3754,3729,0,0,27,,,,,,,0,0,0,-60.00,52.00,1269.00,-896.00,0.00,1191.00,6,801.00,0.00,6.21,0.00,0.00,0.00,0,,,100,100,0,2,0,0,0,2,2,,,,,0.0,0.0,0.0,0.0,0.0,0.0,0
55.951959,-4.402127,80.10,0.00,0.00,0.62,80.20,80.20,0.10,104.83,11903,2022-10-02 09:55:39.485,2022-10-02 10:55:39.485,19,0,0,15.022,55.952636,-4.403293,0.00,0.00,0.00,6.10,5.30,126.90,0,1,0,50,100,-7062,1646,15022,3064.50,13,P-GPS,1,1,0,0,0,0,0,1664704539485,3765,3765,3754,3729,0,0,27,,,,,,,0,0,0,-61.00,53.00,1269.00,-896.00,0.00,1191.00,6,801.00,0.00,6.22,0.00,0.00,0.00,0,,,100,100,0,2,0,0,0,2,2,,,,,0.0,0.0,0.0,0.0,0.0,0.0,0
55.951959,-4.402127,80.10,0.00,0.00,0.62,80.20,80.20,0.10,104.83,12002,2022-10-02 09:55:39.585,2022-10-02 10:55:39.584,19,0,0,15.022,55.952636,-4.403293,0.00,0.00,0.00,6.70,5.10,126.90,0,1,0,50,100,-7062,1646,15022,3064.50,13,P-GPS,1,1,0,0,0,0,0,1664704539584,3765,3765,3754,3729,0,0,27,,,,,,,0,0,0,-67.00,51.00,1269.00,-896.00,0.00,1191.00,6,801.00,0.00,6.18,0.00,0.00,0.00,0,,,100,100,0,2,0,0,0,2,2,,,,,0.0,0.0,0.0,0.0,0.0,0.0,0
55.951959,-4.402127,80.10,0.00,0.00,0.62,80.20,80.20,0.10,104.83,12101,2022-10-02 09:55:39.683,2022-10-02 10:55:39.683,19,0,0,14.989,55.952636,-4.403293,0.00,0.00,0.00,7.00,5.00,126.90,0,1,0,49,100,-7383,1644,14989,3064.50,13,P-GPS,1,1,0,0,0,0,0,1664704539683,3765,3765,3754,3729,0,0,27,,,,,,,0,0,0,-70.00,50.00,1269.00,-896.00,0.00,1191.00,6,801.00,0.00,6.17,0.00,0.00,0.00,0,,,100,100,0,2,0,0,0,2,2,,,,,0.0,0.0,0.0,0.0,0.0,0.0,0
55.951959,-4.402127,80.10,0.00,0.00,0.61,80.20,80.20,0.10,104.83,12204,2022-10-02 09:55:39.786,2022-10-02 10:55:39.786,19,0,0,14.989,55.952636,-4.403293,0.00,0.00,0.00,7.20,4.80,127.00,0,1,0,49,100,-7383,1644,14989,3064.50,13,P-GPS,1,1,0,0,0,0,0,1664704539786,3765,3765,3754,3729,0,0,27,,,,,,,0,0,0,-72.00,48.00,1270.00,-896.00,0.00,1191.00,6,801.00,0.00,6.13,0.00,0.00,0.00,0,,,100,100,0,2,0,0,0,2,2,,,,,0.0,0.0,0.0,0.0,0.0,0.0,0
55.951959,-4.402127,80.10,0.00,0.00,0.61,80.20,80.20,0.10,104.83,12301,2022-10-02 09:55:39.884,2022-10-02 10:55:39.883,19,0,0,14.989,55.952636,-4.403293,0.00,0.00,0.00,7.20,4.60,126.90,0,1,0,49,100,-7383,1644,14989,3064.50,13,P-GPS,1,1,0,0,0,0,0,1664704539883,3765,3765,3754,3729,0,0,27,,,,,,,0,0,0,-72.00,46.00,1269.00,-896.00,0.00,1191.00,6,801.00,0.00,6.06,0.00,0.00,0.00,0,,,100,100,0,2,0,0,0,2,2,,,,,0.0,0.0,0.0,0.0,0.0,0.0,0
55.951959,-4.402127,80.10,0.00,0.00,0.60,80.20,80.20,0.10,104.83,12399,2022-10-02 09:55:39.981,2022-10-02 10:55:39.981,19,0,0,14.989,55.952636,-4.403293,0.00,0.00,0.00,7.20,4.30,126.80,0,1,0,49,100,-7383,1644,14989,3064.50,13,P-GPS,1,1,0,0,0,0,0,1664704539981,3765,3765,3754,3729,0,0,27,,,,,,,0,0,0,-72.00,43.00,1268.00,-896.00,0.00,1191.00,6,801.00,0.00,6.02,0.00,0.00,0.00,0,,,100,100,0,2,0,0,0,2,2,,,,,0.0,0.0,0.0,0.0,0.0,0.0,0
55.951959,-4.402127,80.10,0.00,0.00,0.60,80.20,80.20,0.10,104.83,12503,2022-10-02 09:55:40.086,2022-10-02 10:55:40.085,19,0,0,14.989,55.952636,-4.403293,0.00,0.00,0.00,7.20,4.10,126.80,0,1,0,49,100,-7383,1644,14989,3064.50,13,P-GPS,1,1,0,0,0,0,0,1664704540085,3765,3765,3754,3729,0,0,27,,,,,,,0,0,0,-72.00,41.00,1268.00,-896.00,0.00,1191.00,6,801.00,0.00,5.99,0.00,0.00,0.00,0,,,100,100,0,2,0,0,0,2,2,,,,,0.0,0.0,0.0,0.0,0.0,0.0,0
55.951959,-4.402127,80.10,0.00,0.00,0.59,80.20,80.20,0.10,104.83,12602,2022-10-02 09:55:40.184,2022-10-02 10:55:40.184,19,0,0,14.989,55.952636,-4.403293,0.00,0.00,0.00,7.50,4.30,126.90,0,1,0,49,100,-7383,1644,14989,3064.50,13,P-GPS,1,1,0,0,0,0,0,1664704540184,3765,3765,3754,3729,0,0,27,,,,,,,0,0,0,-75.00,43.00,1269.00,-896.00,0.00,1191.00,6,801.00,0.00,5.94,0.00,0.00,0.00,0,,,100,100,0,2,0,0,0,2,2,,,,,0.0,0.0,0.0,0.0,0.0,0.0,0
55.951959,-4.402127,80.10,0.00,0.00,0.59,80.20,80.20,0.10,104.83,12701,2022-10-02 09:55:40.283,2022-10-02 10:55:40.283,19,0,0,14.989,55.952636,-4.403293,0.00,0.00,0.00,7.60,4.20,126.80,0,1,0,49,100,-7383,1644,14989,3064.50,13,P-GPS,1,1,0,0,0,0,0,1664704540283,3765,3765,3754,3729,0,0,27,,,,,,,0,0,0,-76.00,42.00,1268.00,-896.00,0.00,1191.00,6,801.00,0.00,5.87,0.00,0.00,0.00,0,,,100,100,0,2,0,0,0,2,2,,,,,0.0,0.0,0.0,0.0,0.0,0.0,0
55.951959,-4.402127,80.10,0.00,0.00,0.58,80.20,80.20,0.10,104.83,12800,2022-10-02 09:55:40.383,2022-10-02 10:55:40.382,19,0,0,14.989,55.952636,-4.403293,0.00,0.00,0.00,7.60,4.10,126.70,0,1,0,49,100,-7383,1644,14989,3064.50,13,P-GPS,1,1,0,0,0,0,0,1664704540382,3765,3765,3754,3729,0,0,27,,,,,,,0,0,0,-76.00,41.00,1267.00,-896.00,0.00,1191.00,6,801.00,0.00,5.81,0.00,0.00,0.00,0,,,100,100,0,2,0,0,0,2,2,,,,,0.0,0.0,0.0,0.0,0.0,0.0,0
55.951959,-4.402127,80.10,0.00,0.00,0.57,80.20,80.20,0.10,104.83,12903,2022-10-02 09:55:40.485,2022-10-02 10:55:40.485,19,0,0,14.989,55.952636,-4.403293,0.00,0.00,0.00,7.70,3.80,126.70,0,1,0,49,100,-7383,1644,14989,3064.50,13,P-GPS,1,1,0,0,0,0,0,1664704540485,3765,3765,3754,3729,0,0,27,,,,,,,0,0,0,-77.00,38.00,1267.00,-896.00,0.00,1191.00,6,801.00,0.00,5.73,0.00,0.00,0.00,0,,,100,100,0,2,0,0,0,2,2,,,,,0.0,0.0,0.0,0.0,0.0,0.0,0
55.951958,-4.402127,80.10,0.00,0.00,0.57,80.20,80.20,0.10,104.83,13001,2022-10-02 09:55:40.583,2022-10-02 10:55:40.583,19,0,0,14.989,55.952636,-4.403293,0.00,0.00,0.00,8.00,3.80,126.80,0,1,0,49,100,-7383,1644,14989,3064.50,13,P-GPS,1,1,0,0,0,0,0,1664704540583,3765,3765,3754,3729,0,0,27,,,,,,,0,0,0,-80.00,38.00,1268.00,-896.00,0.00,1191.00,6,801.00,0.00,5.66,0.00,0.00,0.00,0,,,100,100,0,2,0,0,0,2,2,,,,,0.0,0.0,0.0,0.0,0.0,0.0,0
55.951958,-4.402127,80.10,0.00,0.00,0.56,80.20,80.20,0.10,104.83,13104,2022-10-02 09:55:40.686,2022-10-02 10:55:40.686,19,0,0,14.976,55.952636,-4.403293,0.00,0.00,0.00,8.00,3.90,126.80,0,1,0,49,100,-7651,1642,14976,3064.50,13,P-GPS,1,1,0,0,0,0,0,1664704540686,3765,3765,3754,3729,0,0,27,,,,,,,0,0,0,-80.00,39.00,1268.00,-896.00,0.00,1191.00,6,801.00,0.00,5.63,0.00,0.00,0.00,0,,,100,100,0,2,0,0,0,2,2,,,,,0.0,0.0,0.0,0.0,0.0,0.0,0
55.951958,-4.402127,80.10,0.00,0.00,0.56,80.20,80.20,0.10,104.83,13200,2022-10-02 09:55:40.782,2022-10-02 10:55:40.782,19,0,0,14.976,55.952636,-4.403293,0.00,0.00,0.00,8.00,3.70,126.80,0,1,0,49,100,-7651,1642,14976,3064.50,13,P-GPS,1,1,0,0,0,0,0,1664704540782,3765,3765,3754,3729,0,0,27,,,,,,,0,0,0,-80.00,37.00,1268.00,-896.00,0.00,1191.00,6,801.00,0.00,5.58,0.00,0.00,0.00,0,,,100,100,0,2,0,0,0,2,2,,,,,0.0,0.0,0.0,0.0,0.0,0.0,0
55.951958,-4.402127,80.10,0.00,0.00,0.55,80.20,80.20,0.10,104.83,13300,2022-10-02 09:55:40.882,2022-10-02 10:55:40.882,19,0,0,14.976,55.952636,-4.403293,0.00,0.00,0.00,8.20,3.60,126.80,0,1,0,49,100,-7651,1642,14976,3064.50,13,P-GPS,1,1,0,0,0,0,0,1664704540882,3765,3765,3754,3729,0,0,27,,,,,,,0,0,0,-82.00,36.00,1268.00,-896.00,0.00,1191.00,6,801.00,0.00,5.54,0.00,0.00,0.00,0,,,100,100,0,2,0,0,0,2,2,,,,,0.0,0.0,0.0,0.0,0.0,0.0,0
55.951958,-4.402127,80.10,0.00,0.00,0.55,80.20,80.20,0.10,104.83,13402,2022-10-02 09:55:40.985,2022-10-02 10:55:40.984,19,0,0,14.976,55.952636,-4.403293,0.00,0.00,0.00,8.20,3.70,126.90,0,1,0,49,100,-7651,1642,14976,3064.50,13,P-GPS,1,1,0,0,0,0,0,1664704540984,3765,3765,3754,3729,0,0,27,,,,,,,0,0,0,-82.00,37.00,1269.00,-896.00,0.00,1191.00,6,801.00,0.00,5.49,0.00,0.00,0.00,0,,,100,100,0,2,0,0,0,2,2,,,,,0.0,0.0,0.0,0.0,0.0,0.0,0
55.951958,-4.402127,80.10,0.00,0.00,0.54,80.20,80.20,0.10,104.83,13505,2022-10-02 09:55:41.087,2022-10-02 10:55:41.087,19,0,0,14.976,55.952636,-4.403293,0.00,0.00,0.00,8.20,3.90,126.80,0,1,0,49,100,-7651,1642,14976,3064.50,13,P-GPS,1,1,0,0,0,0,0,1664704541087,3765,3765,3754,3729,0,0,27,,,,,,,0,0,0,-82.00,39.00,1268.00,-896.00,0.00,1191.00,6,801.00,0.00,5.42,0.00,0.00,0.00,0,,,100,100,0,2,0,0,0,2,2,,,,,0.0,0.0,0.0,0.0,0.0,0.0,0
55.951958,-4.402127,80.10,0.00,0.00,0.54,80.20,80.20,0.10,104.83,13602,2022-10-02 09:55:41.185,2022-10-02 10:55:41.184,19,0,0,14.976,55.952636,-4.403293,0.00,0.00,0.00,8.00,4.00,126.90,0,1,0,49,100,-7651,1642,14976,3064.50,13,P-GPS,1,1,0,0,0,0,0,1664704541184,3765,3765,3754,3729,0,0,27,,,,,,,0,0,0,-80.00,40.00,1269.00,-896.00,0.00,1191.00,6,801.00,0.00,5.37,0.00,0.00,0.00,0,,,100,100,0,2,0,0,0,2,2,,,,,0.0,0.0,0.0,0.0,0.0,0.0,0
55.951958,-4.402127,80.10,0.00,0.00,0.54,80.20,80.20,0.10,104.83,13710,2022-10-02 09:55:41.292,2022-10-02 10:55:41.292,19,0,0,14.976,55.952636,-4.403293,0.00,0.00,0.00,7.80,3.80,126.80,0,1,0,49,100,-7651,1642,14976,3064.50,13,P-GPS,1,1,0,0,0,0,0,1664704541292,3765,3765,3754,3729,0,0,27,,,,,,,0,0,0,-78.00,38.00,1268.00,-896.00,0.00,1191.00,6,801.00,0.00,5.37,0.00,0.00,0.00,0,,,100,100,0,2,0,0,0,2,2,,,,,0.0,0.0,0.0,0.0,0.0,0.0,0
