latitude,longitude,altitude(m),ultrasonicHeight(m),speed(mps),distance(m),max_altitude(m),max_ascent(m),max_speed(mps),max_distance(m),time(millisecond),datetime(utc),datetime(local),satellites,pressure(Pa),temperature(F),voltage(v),home_latitude,home_longitude,velocityX(mps),velocityY(mps),velocityZ(mps),pitch(deg),roll(deg),yaw(deg),powerlevel,isflying,istakingphoto,remainPowerPercent,remainLifePercent,currentCurrent,currentElectricity,currentVoltage,batteryTemperature,dischargeCount,flightmode,isMotorsOn,isTakingVideo,Rc_elevator,Rc_aileron,Rc_throttle,Rc_rudder,Rc_gyro,timestamp,Battery_Cell1,Battery_Cell2,Battery_Cell3,Battery_Cell4,Battery_Cell5,Battery_Cell6,Dronetype,AppVersion,Planename,FlyControllerSerialNumber,RemoteSerialNumber,BatterySerialNumber,CENTER_BATTERY.productDate,CENTER_BATTERY.serialNo,CENTER_BATTERY.fullCapacity,CENTER_BATTERY.productDateRaw,pitchRaw,rollRaw,yawRaw,gimbalPitchRaw,gimbalRollRaw,gimbalYawRaw,flyState,altitudeRaw,speedRaw,distanceRaw,velocityXRaw,velocityYRaw,velocityZRaw,data_reuse,App_Tip,App_Warning,downlinkSignalQuality,uplinkSignalQuality,transmissionChannel,rcModeSwitch,rcHome,rcPause,rcTransform,rcJoystickMode,appMode,FlyControllerSerialNumber_legacy,RemoteSerialNumber_legacy,BatterySerialNumber_legacy,Battery2SerialNumber,frontAvoidDist,backAvoidDist,rightAvoidDist,leftAvoidDist,upAvoidDist,downAvoidDist,isBrakingToAvoid
55.884970,-4.271844,0.50,0.60,0.51,0.04,0.50,0.50,0.51,0.04,0,2022-09-29 12:40:55.857,2022-09-29 13:40:55.857,20,0,0,15.777,55.884970,-4.271844,0.00,-0.10,-0.50,0.10,2.50,5.20,0,1,0,66,100,-3532,2183,15777,3107.50,13,P-GPS,1,1,0,0,0,0,0,1664455255857,3977,3971,3977,3970,0,0,27,Litchi_4.24.1-g,CJTMAVIC,163DFAS001K45C,0VECFAK0072T52,0P2AFAL5340E87,,0,0,0,-1.00,25.00,52.00,0.00,0.00,-46.00,6,5.00,5.10,0.38,0.00,-1.00,-5.00,0,,,100,100,0,2,0,0,0,2,1,,,,null,0.0,0.0,0.0,0.0,0.0,0.0,0
55.884970,-4.271844,0.50,0.60,0.32,0.04,0.50,0.50,0.51,0.04,93,2022-09-29 12:40:55.950,2022-09-29 13:40:55.950,20,0,0,15.595,55.884970,-4.271844,0.00,-0.10,-0.30,-0.30,2.50,5.20,0,1,0,66,100,-7653,2182,15595,3108.50,13,P-GPS,1,1,0,0,0,0,0,1664455255950,3977,3971,3977,3970,0,0,27,,,,,,,0,0,0,3.00,25.00,52.00,0.00,0.00,-46.00,6,5.00,3.16,0.43,0.00,-1.00,-3.00,0,,,100,100,0,2,0,0,0,2,1,,,,,0.0,0.0,0.0,0.0,0.0,0.0,0
55.884970,-4.271844,0.60,0.60,0.20,0.03,0.60,0.60,0.51,0.04,194,2022-09-29 12:40:56.051,2022-09-29 13:40:56.051,20,0,0,15.595,55.884970,-4.271844,0.00,0.00,-0.20,-0.40,2.50,5.20,0,1,0,66,100,-7653,2182,15595,3108.50,13,P-GPS,1,1,0,0,0,0,0,1664455256051,3977,3971,3977,3970,0,0,27,,,,,,,0,0,0,4.00,25.00,52.00,0.00,0.00,-46.00,6,6.00,2.00,0.32,0.00,0.00,-2.00,0,,,100,100,0,2,0,0,0,2,1,,,,,0.0,0.0,0.0,0.0,0.0,0.0,0
55.884970,-4.271844,0.60,0.70,0.10,0.04,0.60,0.60,0.51,0.04,309,2022-09-29 12:40:56.166,2022-09-29 13:40:56.166,20,0,0,15.595,55.884970,-4.271844,0.00,0.00,-0.10,-0.40,2.50,5.20,0,1,0,66,100,-7653,2182,15595,3108.50,13,P-GPS,1,1,0,0,0,0,0,1664455256166,3977,3971,3977,3970,0,0,27,,,,,,,0,0,0,4.00,25.00,52.00,0.00,0.00,-46.00,6,6.00,1.00,0.36,0.00,0.00,-1.00,0,,,100,100,0,2,0,0,0,2,1,,,,,0.0,0.0,0.0,0.0,0.0,0.0,0
55.884970,-4.271844,0.60,0.70,0.00,0.04,0.60,0.60,0.51,0.04,402,2022-09-29 12:40:56.259,2022-09-29 13:40:56.259,20,0,0,15.595,55.884970,-4.271844,0.00,0.00,0.00,-0.50,2.20,5.20,0,1,0,66,100,-7653,2182,15595,3108.50,13,P-GPS,1,1,0,0,0,0,0,1664455256259,3977,3971,3977,3970,0,0,27,,,,,,,0,0,0,5.00,22.00,52.00,0.00,0.00,-46.00,6,6.00,0.00,0.43,0.00,0.00,0.00,0,,,100,100,0,2,0,0,0,2,1,,,,,0.0,0.0,0.0,0.0,0.0,0.0,0
55.884970,-4.271844,0.60,0.70,0.00,0.04,0.60,0.60,0.51,0.04,507,2022-09-29 12:40:56.364,2022-09-29 13:40:56.364,20,0,0,15.595,55.884970,-4.271844,0.00,0.00,0.00,-0.60,2.10,5.20,0,1,0,66,100,-7653,2182,15595,3108.50,13,P-GPS,1,1,0,0,0,0,0,1664455256364,3977,3971,3977,3970,0,0,27,,,,,,,0,0,0,6.00,21.00,52.00,0.00,0.00,-46.00,6,6.00,0.00,0.44,0.00,0.00,0.00,0,,,100,100,0,2,0,0,0,2,1,,,,,0.0,0.0,0.0,0.0,0.0,0.0,0
55.884970,-4.271845,0.60,0.70,0.00,0.05,0.60,0.60,0.51,0.05,598,2022-09-29 12:40:56.455,2022-09-29 13:40:56.455,20,0,0,15.595,55.884970,-4.271844,0.00,0.00,0.00,-0.60,2.70,5.20,0,1,0,66,100,-7653,2182,15595,3108.50,13,P-GPS,1,1,0,0,0,0,0,1664455256455,3977,3971,3977,3970,0,0,27,,,,,,,0,0,0,6.00,27.00,52.00,0.00,0.00,-46.00,6,6.00,0.00,0.52,0.00,0.00,0.00,0,,,100,100,0,2,0,0,0,2,1,,,,,0.0,0.0,0.0,0.0,0.0,0.0,0
55.884970,-4.271845,0.60,0.70,0.00,0.05,0.60,0.60,0.51,0.05,700,2022-09-29 12:40:56.557,2022-09-29 13:40:56.557,20,0,0,15.595,55.884970,-4.271844,0.00,0.00,0.00,-0.20,2.70,5.20,0,1,0,66,100,-7653,2182,15595,3108.50,13,P-GPS,1,1,0,0,0,0,0,1664455256557,3977,3971,3977,3970,0,0,27,,,,,,,0,0,0,2.00,27.00,52.00,0.00,0.00,-46.00,6,6.00,0.00,0.54,0.00,0.00,0.00,0,,,100,100,0,2,0,0,0,2,1,,,,,4.7,0.0,0.0,0.0,0.0,0.0,0
55.884970,-4.271845,0.60,0.70,0.00,0.05,0.60,0.60,0.51,0.05,804,2022-09-29 12:40:56.661,2022-09-29 13:40:56.661,20,0,0,15.595,55.884970,-4.271844,0.00,0.00,0.00,-0.10,2.50,5.30,0,1,0,66,100,-7653,2182,15595,3108.50,13,P-GPS,1,1,0,0,0,50,0,1664455256661,3977,3971,3977,3970,0,0,27,,,,,,,0,0,0,1.00,25.00,53.00,0.00,0.00,-46.00,6,6.00,0.00,0.53,0.00,0.00,0.00,0,,,100,100,0,2,0,0,0,2,1,,,,,4.7,0.0,0.0,0.0,0.0,0.0,0
55.884970,-4.271845,0.60,0.60,0.00,0.05,0.60,0.60,0.51,0.05,892,2022-09-29 12:40:56.749,2022-09-29 13:40:56.749,20,0,0,15.595,55.884970,-4.271844,0.00,0.00,0.00,0.00,2.20,5.30,0,1,0,66,100,-7653,2182,15595,3108.50,13,P-GPS,1,1,0,0,0,0,0,1664455256749,3977,3971,3977,3970,0,0,27,,,,,,,0,0,0,-0.00,22.00,53.00,0.00,0.00,-46.00,6,6.00,0.00,0.52,0.00,0.00,0.00,0,,,100,100,0,2,0,0,0,2,1,,,,,4.7,0.0,0.0,0.0,0.0,0.0,0
55.884970,-4.271845,0.60,0.60,0.00,0.07,0.60,0.60,0.51,0.07,1003,2022-09-29 12:40:56.861,2022-09-29 13:40:56.860,20,0,0,15.595,55.884970,-4.271844,0.00,0.00,0.00,0.00,1.90,5.30,0,1,0,66,100,-7653,2182,15595,3108.50,13,P-GPS,1,1,0,0,0,-120,0,1664455256860,3977,3971,3977,3970,0,0,27,,,,,,,0,0,0,-0.00,19.00,53.00,0.00,0.00,-46.00,6,6.00,0.00,0.68,0.00,0.00,0.00,0,,,100,100,0,2,0,0,0,2,1,,,,,4.7,0.0,0.0,0.0,0.0,0.0,0
55.884970,-4.271845,0.60,0.60,0.00,0.07,0.60,0.60,0.51,0.07,1096,2022-09-29 12:40:56.953,2022-09-29 13:40:56.953,20,0,0,15.604,55.884970,-4.271844,0.00,0.00,0.00,-0.30,1.60,5.20,0,1,0,66,100,-6939,2180,15604,3108.50,13,P-GPS,1,1,0,0,0,0,0,1664455256953,3977,3971,3977,3970,0,0,27,,,,,,,0,0,0,3.00,16.00,52.00,0.00,0.00,-46.00,6,6.00,0.00,0.67,0.00,0.00,0.00,0,,,100,100,0,2,0,0,0,2,1,,,,,4.7,0.0,0.0,0.0,0.0,0.0,0
55.884970,-4.271845,0.60,0.60,0.00,0.08,0.60,0.60,0.51,0.08,1201,2022-09-29 12:40:57.058,2022-09-29 13:40:57.058,20,0,0,15.604,55.884970,-4.271844,0.00,0.00,0.00,-0.40,1.50,5.20,0,1,0,66,100,-6939,2180,15604,3108.50,13,P-GPS,1,1,0,0,168,0,0,1664455257058,3977,3971,3977,3970,0,0,27,,,,,,,0,0,0,4.00,15.00,52.00,0.00,0.00,-46.00,6,6.00,0.00,0.78,0.00,0.00,0.00,0,,,100,100,0,2,0,0,0,2,1,,,,,4.4,0.0,0.0,0.0,0.0,0.0,0
55.884970,-4.271845,0.60,0.60,0.00,0.08,0.60,0.60,0.51,0.08,1305,2022-09-29 12:40:57.163,2022-09-29 13:40:57.162,20,0,0,15.604,55.884970,-4.271844,0.00,0.00,0.00,-0.20,1.60,5.30,0,1,0,66,100,-6939,2180,15604,3108.50,13,P-GPS,1,1,0,0,368,0,0,1664455257162,3977,3971,3977,3970,0,0,27,,,,,,,0,0,0,2.00,16.00,53.00,0.00,0.00,-46.00,6,6.00,0.00,0.78,0.00,0.00,0.00,0,,,100,100,0,2,0,0,0,2,1,,,,,4.4,0.0,0.0,0.0,0.0,0.0,0
55.884970,-4.271845,0.60,0.70,0.10,0.08,0.60,0.60,0.51,0.08,1392,2022-09-29 12:40:57.250,2022-09-29 13:40:57.249,20,0,0,15.604,55.884970,-4.271844,0.00,0.00,-0.10,-0.30,1.60,5.30,0,1,0,66,100,-6939,2180,15604,3108.50,13,P-GPS,1,1,0,0,474,0,0,1664455257249,3977,3971,3977,3970,0,0,27,,,,,,,0,0,0,3.00,16.00,53.00,0.00,0.00,-46.00,6,6.00,1.00,0.84,0.00,0.00,-1.00,0,,,100,100,0,2,0,0,0,2,1,,,,,4.4,0.0,0.0,0.0,0.0,0.0,0
55.884970,-4.271845,0.60,0.70,0.40,0.08,0.60,0.60,0.51,0.08,1502,2022-09-29 12:40:57.359,2022-09-29 13:40:57.359,20,0,0,15.604,55.884970,-4.271844,0.00,0.00,-0.40,-0.60,1.30,5.30,0,1,0,66,100,-6939,2180,15604,3108.50,13,P-GPS,1,1,0,0,536,0,0,1664455257359,3977,3971,3977,3970,0,0,27,,,,,,,0,0,0,6.00,13.00,53.00,0.00,0.00,-46.00,6,6.00,4.00,0.84,0.00,0.00,-4.00,0,,,100,100,0,2,0,0,0,2,1,,,,,4.4,0.0,0.0,0.0,0.0,0.0,0
55.884970,-4.271845,0.70,0.80,0.80,0.09,0.70,0.70,0.80,0.09,1600,2022-09-29 12:40:57.457,2022-09-29 13:40:57.457,20,0,0,15.604,55.884970,-4.271844,0.00,0.00,-0.80,-0.60,1.10,5.30,0,1,0,66,100,-6939,2180,15604,3108.50,13,P-GPS,1,1,0,0,537,0,0,1664455257457,3977,3971,3977,3970,0,0,27,,,,,,,0,0,0,6.00,11.00,53.00,0.00,0.00,-46.00,6,7.00,8.00,0.92,0.00,0.00,-8.00,0,,,100,100,0,2,0,0,0,2,1,,,,,4.4,0.0,0.0,0.0,0.0,0.0,0
55.884970,-4.271845,0.80,0.90,1.30,0.09,0.80,0.80,1.30,0.09,1706,2022-09-29 12:40:57.563,2022-09-29 13:40:57.563,20,0,0,15.604,55.884970,-4.271844,0.00,0.00,-1.30,-0.80,1.40,5.30,0,1,0,66,100,-6939,2180,15604,3108.50,13,P-GPS,1,1,0,0,381,0,0,1664455257563,3977,3971,3977,3970,0,0,27,,,,,,,0,0,0,8.00,14.00,53.00,0.00,0.00,-46.00,6,8.00,13.00,0.93,0.00,0.00,-13.00,0,,,100,100,0,2,0,0,0,2,1,,,,,4.4,0.0,0.0,0.0,0.0,0.0,0
55.884970,-4.271845,0.80,0.90,1.30,0.09,0.80,0.80,1.30,0.09,1795,2022-09-29 12:40:57.652,2022-09-29 13:40:57.652,20,0,0,15.604,55.884970,-4.271844,0.00,0.00,-1.30,-0.80,1.40,5.30,0,1,0,66,100,-6939,2180,15604,3108.50,13,P-GPS,1,1,0,0,172,22,0,1664455257652,3977,3971,3977,3970,0,0,27,,,,,,,0,0,0,8.00,14.00,53.00,0.00,0.00,-46.00,6,8.00,13.00,0.93,0.00,0.00,-13.00,0,,,100,100,0,2,0,0,0,2,1,,,,,4.5,0.0,0.0,0.0,0.0,0.0,0
55.884970,-4.271845,1.10,1.20,1.40,0.10,1.10,1.10,1.40,0.10,1890,2022-09-29 12:40:57.748,2022-09-29 13:40:57.747,20,0,0,15.604,55.884970,-4.271844,0.00,0.00,-1.40,-1.10,1.80,5.30,0,1,0,66,100,-6939,2180,15604,3108.50,13,P-GPS,1,1,0,0,0,0,0,1664455257747,3977,3971,3977,3970,0,0,27,,,,,,,0,0,0,11.00,18.00,53.00,0.00,0.00,-46.00,6,11.00,14.00,1.02,0.00,0.00,-14.00,0,,,100,100,0,2,0,0,0,2,1,,,,,4.5,0.0,0.0,0.0,0.0,0.0,0
55.884970,-4.271846,1.20,1.30,1.20,0.11,1.20,1.20,1.40,0.11,1998,2022-09-29 12:40:57.855,2022-09-29 13:40:57.855,20,0,0,15.604,55.884970,-4.271844,0.00,0.00,-1.20,-1.40,2.00,5.30,0,1,0,66,100,-6939,2180,15604,3108.50,13,P-GPS,1,1,0,0,0,0,0,1664455257855,3977,3971,3977,3970,0,0,27,,,,,,,0,0,0,14.00,20.00,53.00,0.00,0.00,-46.00,6,12.00,12.00,1.12,0.00,0.00,-12.00,0,,,100,100,0,2,0,0,0,2,1,,,,,4.5,0.0,0.0,0.0,0.0,0.0,0
55.884970,-4.271846,1.30,1.40,0.91,0.12,1.30,1.30,1.40,0.12,2097,2022-09-29 12:40:57.955,2022-09-29 13:40:57.954,20,0,0,15.604,55.884970,-4.271844,-0.10,0.00,-0.90,-1.70,2.10,5.20,0,1,0,66,100,-6939,2180,15604,3108.50,13,P-GPS,1,1,0,0,0,0,0,1664455257954,3977,3971,3977,3970,0,0,27,,,,,,,0,0,0,17.00,21.00,52.00,0.00,0.00,-46.00,6,13.00,9.06,1.18,-1.00,0.00,-9.00,0,,,100,100,0,2,0,0,0,2,1,,,,,4.5,0.0,0.0,0.0,0.0,0.0,0
55.884970,-4.271846,1.40,1.50,0.51,0.12,1.40,1.40,1.40,0.12,2198,2022-09-29 12:40:58.056,2022-09-29 13:40:58.055,20,0,0,15.604,55.884970,-4.271844,-0.10,0.00,-0.50,-2.30,2.40,5.20,0,1,0,66,100,-6939,2180,15604,3108.50,13,P-GPS,1,1,0,0,0,0,0,1664455258055,3977,3971,3977,3970,0,0,27,,,,,,,0,0,0,23.00,24.00,52.00,0.00,0.00,-46.00,6,14.00,5.10,1.25,-1.00,0.00,-5.00,0,,,100,100,0,2,0,0,0,2,1,,,,,8.5,0.0,0.0,0.0,0.0,0.0,0
55.884970,-4.271846,1.40,1.50,0.32,0.13,1.40,1.40,1.40,0.13,2297,2022-09-29 12:40:58.154,2022-09-29 13:40:58.154,20,0,0,15.604,55.884970,-4.271844,-0.10,0.00,-0.30,-2.70,2.60,5.20,0,1,0,66,100,-6939,2180,15604,3108.50,13,P-GPS,1,1,0,0,0,-105,0,1664455258154,3977,3971,3977,3970,0,0,27,,,,,,,0,0,0,27.00,26.00,52.00,0.00,0.00,-46.00,6,14.00,3.16,1.33,-1.00,0.00,-3.00,0,,,100,100,0,2,0,0,0,2,1,,,,,8.5,0.0,0.0,0.0,0.0,0.0,0
55.884969,-4.271846,1.50,1.50,0.14,0.12,1.50,1.50,1.40,0.13,2403,2022-09-29 12:40:58.260,2022-09-29 13:40:58.260,20,0,0,15.604,55.884970,-4.271844,-0.10,0.00,-0.10,-2.90,2.60,5.10,0,1,0,66,100,-6939,2180,15604,3108.50,13,P-GPS,1,1,0,0,0,-325,0,1664455258260,3977,3971,3977,3970,0,0,27,,,,,,,0,0,0,29.00,26.00,51.00,0.00,0.00,-47.00,6,15.00,1.41,1.23,-1.00,0.00,-1.00,0,,,100,100,0,2,0,0,0,2,1,,,,,8.5,0.0,0.0,0.0,0.0,0.0,0
55.884969,-4.271846,1.50,1.50,0.10,0.13,1.50,1.50,1.40,0.13,2502,2022-09-29 12:40:58.360,2022-09-29 13:40:58.359,20,0,0,15.604,55.884970,-4.271844,-0.10,0.00,0.00,-2.90,2.70,4.40,0,1,0,66,100,-6939,2180,15604,3108.50,13,P-GPS,1,1,0,0,0,-406,0,1664455258359,3977,3971,3977,3970,0,0,27,,,,,,,0,0,0,29.00,27.00,44.00,0.00,0.00,-55.00,6,15.00,1.00,1.28,-1.00,0.00,0.00,0,,,100,100,0,2,0,0,0,2,1,,,,,8.5,0.0,0.0,0.0,0.0,0.0,0
55.884970,-4.271846,1.50,1.60,0.00,0.15,1.50,1.50,1.40,0.15,2603,2022-09-29 12:40:58.462,2022-09-29 13:40:58.460,20,0,0,15.604,55.884970,-4.271844,0.00,0.00,0.00,-2.50,2.70,2.80,0,1,0,66,100,-6939,2180,15604,3108.50,13,P-GPS,1,1,0,0,0,-581,0,1664455258460,3977,3971,3977,3970,0,0,27,,,,,,,0,0,0,25.00,27.00,28.00,0.00,0.00,-71.00,6,15.00,0.00,1.47,0.00,0.00,0.00,0,,,100,100,0,2,0,0,0,2,1,,,,,8.5,0.0,0.0,0.0,0.0,0.0,0
55.884970,-4.271846,1.50,1.60,0.00,0.15,1.50,1.50,1.40,0.15,2698,2022-09-29 12:40:58.555,2022-09-29 13:40:58.555,20,0,0,15.604,55.884970,-4.271844,0.00,0.00,0.00,-1.80,2.80,-0.40,0,1,0,66,100,-6939,2180,15604,3108.50,13,P-GPS,1,1,0,0,0,-589,0,1664455258555,3977,3971,3977,3970,0,0,27,,,,,,,0,0,0,18.00,28.00,-4.00,0.00,0.00,-107.00,6,15.00,0.00,1.52,0.00,0.00,0.00,0,,,100,100,0,2,0,0,0,2,1,,,,,13.3,0.0,0.0,0.0,0.0,0.0,0
55.884970,-4.271846,1.50,1.60,0.00,0.15,1.50,1.50,1.40,0.15,2805,2022-09-29 12:40:58.662,2022-09-29 13:40:58.662,20,0,0,15.604,55.884970,-4.271844,0.00,0.00,0.00,-1.20,2.80,-4.60,0,1,0,66,100,-6939,2180,15604,3108.50,13,P-GPS,1,1,0,0,0,-613,0,1664455258662,3977,3971,3977,3970,0,0,27,,,,,,,0,0,0,12.00,28.00,-46.00,0.00,0.00,-153.00,6,15.00,0.00,1.54,0.00,0.00,0.00,0,,,100,100,0,2,0,0,0,2,1,,,,,13.4,0.0,0.0,0.0,0.0,0.0,0
55.884970,-4.271846,1.40,1.50,0.00,0.16,1.50,1.50,1.40,0.16,2898,2022-09-29 12:40:58.755,2022-09-29 13:40:58.755,20,0,0,15.604,55.884970,-4.271844,0.00,0.00,0.00,-0.70,2.70,-9.40,0,1,0,66,100,-6939,2180,15604,3108.50,13,P-GPS,1,1,0,0,0,-660,0,1664455258755,3977,3971,3977,3970,0,0,27,,,,,,,0,0,0,7.00,27.00,-94.00,0.00,0.00,-203.00,6,14.00,0.00,1.58,0.00,0.00,0.00,0,,,100,100,0,2,0,0,0,2,1,,,,,13.4,0.0,0.0,0.0,0.0,0.0,0
55.884970,-4.271846,1.40,1.50,0.00,0.15,1.50,1.50,1.40,0.16,3005,2022-09-29 12:40:58.863,2022-09-29 13:40:58.862,20,0,0,15.604,55.884970,-4.271844,0.00,0.00,0.00,-0.10,2.50,-14.80,0,1,0,66,100,-6939,2180,15604,3108.50,13,P-GPS,1,1,0,0,0,-660,0,1664455258862,3977,3971,3977,3970,0,0,27,,,,,,,0,0,0,1.00,25.00,-148.00,0.00,0.00,-260.00,6,14.00,0.00,1.54,0.00,0.00,0.00,0,,,100,100,0,2,0,0,0,2,1,,,,,13.4,0.0,0.0,0.0,0.0,0.0,0
55.884970,-4.271846,1.40,1.50,0.00,0.16,1.50,1.50,1.40,0.16,3095,2022-09-29 12:40:58.953,2022-09-29 13:40:58.952,20,0,0,15.366,55.884970,-4.271844,0.00,0.00,0.00,0.20,2.10,-20.70,0,1,0,66,100,-9601,2178,15366,3108.50,13,P-GPS,1,1,0,0,0,-660,0,1664455258952,3977,3971,3977,3970,0,0,27,,,,,,,0,0,0,-2.00,21.00,-207.00,0.00,0.00,-320.00,6,14.00,0.00,1.58,0.00,0.00,0.00,0,,,100,100,0,2,0,0,0,2,1,,,,,13.7,0.0,0.0,0.0,0.0,0.0,0
55.884970,-4.271846,1.40,1.50,0.00,0.17,1.50,1.50,1.40,0.17,3190,2022-09-29 12:40:59.048,2022-09-29 13:40:59.047,20,0,0,15.366,55.884970,-4.271844,0.00,0.00,0.00,0.50,1.90,-26.60,0,1,0,66,100,-9601,2178,15366,3108.50,13,P-GPS,1,1,0,0,0,-511,0,1664455259047,3977,3971,3977,3970,0,0,27,,,,,,,0,0,0,-5.00,19.00,-266.00,0.00,0.00,-380.00,6,14.00,0.00,1.66,0.00,0.00,0.00,0,,,100,100,0,2,0,0,0,2,1,,,,,13.7,0.0,0.0,0.0,0.0,0.0,0
55.884971,-4.271846,1.40,1.50,0.00,0.18,1.50,1.50,1.40,0.18,3399,2022-09-29 12:40:59.256,2022-09-29 13:40:59.256,20,0,0,15.366,55.884970,-4.271844,0.00,0.00,0.00,1.00,1.40,-31.90,0,1,0,66,100,-9601,2178,15366,3108.50,13,P-GPS,1,1,0,0,0,0,0,1664455259256,3977,3971,3977,3970,0,0,27,,,,,,,0,0,0,-10.00,14.00,-319.00,0.00,0.00,-429.00,6,14.00,0.00,1.83,0.00,0.00,0.00,0,,,100,100,0,2,0,0,0,2,1,,,,,13.7,0.0,0.0,0.0,0.0,0.0,0
55.884971,-4.271846,1.40,1.50,0.00,0.19,1.50,1.50,1.40,0.19,3493,2022-09-29 12:40:59.350,2022-09-29 13:40:59.350,20,0,0,15.366,55.884970,-4.271844,0.00,0.00,0.00,1.40,1.70,-32.40,0,1,0,66,100,-9601,2178,15366,3108.50,13,P-GPS,1,1,0,0,0,0,0,1664455259350,3977,3971,3977,3970,0,0,27,,,,,,,0,0,0,-14.00,17.00,-324.00,0.00,0.00,-429.00,6,14.00,0.00,1.90,0.00,0.00,0.00,0,,,100,100,0,2,0,0,0,2,1,,,,,13.7,0.0,0.0,0.0,0.0,0.0,0
55.884971,-4.271846,1.40,1.50,0.00,0.19,1.50,1.50,1.40,0.19,3614,2022-09-29 12:40:59.471,2022-09-29 13:40:59.471,20,0,0,15.366,55.884970,-4.271844,0.00,0.00,0.00,1.70,1.90,-32.60,0,1,0,66,100,-9601,2178,15366,3108.50,13,P-GPS,1,1,0,0,0,0,0,1664455259471,3977,3971,3977,3970,0,0,27,,,,,,,0,0,0,-17.00,19.00,-326.00,0.00,0.00,-429.00,6,14.00,0.00,1.95,0.00,0.00,0.00,0,,,100,100,0,2,0,0,0,2,1,,,,,13.7,0.0,0.0,0.0,0.0,0.0,0
55.884971,-4.271846,1.40,1.50,0.00,0.20,1.50,1.50,1.40,0.20,3735,2022-09-29 12:40:59.592,2022-09-29 13:40:59.592,20,0,0,15.366,55.884970,-4.271844,0.00,0.00,0.00,1.70,2.00,-32.70,0,1,0,66,100,-9601,2178,15366,3108.50,13,P-GPS,1,1,0,0,0,0,0,1664455259592,3977,3971,3977,3970,0,0,27,,,,,,,0,0,0,-17.00,20.00,-327.00,0.00,0.00,-429.00,6,14.00,0.00,2.00,0.00,0.00,0.00,0,,,100,100,0,2,0,0,0,2,1,,,,,9.0,0.0,0.0,0.0,0.0,0.0,0
55.884971,-4.271846,1.40,1.50,0.00,0.20,1.50,1.50,1.40,0.20,3894,2022-09-29 12:40:59.751,2022-09-29 13:40:59.751,20,0,0,15.366,55.884970,-4.271844,0.00,0.00,0.00,1.60,2.10,-32.90,0,1,0,66,100,-9601,2178,15366,3108.50,13,P-GPS,1,1,0,0,0,0,0,1664455259751,3977,3971,3977,3970,0,0,27,,,,,,,0,0,0,-16.00,21.00,-329.00,0.00,0.00,-429.00,6,14.00,0.00,1.99,0.00,0.00,0.00,0,,,100,100,0,2,0,0,0,2,1,,,,,7.5,0.0,0.0,0.0,0.0,0.0,0
55.884971,-4.271846,1.40,1.50,0.00,0.20,1.50,1.50,1.40,0.20,4005,2022-09-29 12:40:59.863,2022-09-29 13:40:59.862,20,0,0,15.366,55.884970,-4.271844,0.00,0.00,0.00,1.50,2.20,-32.90,0,1,0,66,100,-9601,2178,15366,3108.50,13,P-GPS,1,1,0,0,0,0,0,1664455259862,3977,3971,3977,3970,0,0,27,,,,,,,0,0,0,-15.00,22.00,-329.00,0.00,0.00,-429.00,6,14.00,0.00,1.99,0.00,0.00,0.00,0,,,100,100,0,2,0,0,0,2,1,,,,,7.5,0.0,0.0,0.0,0.0,0.0,0
55.884971,-4.271846,1.40,1.50,0.00,0.20,1.50,1.50,1.40,0.20,4109,2022-09-29 12:40:59.967,2022-09-29 13:40:59.966,20,0,0,15.564,55.884970,-4.271844,0.00,0.00,0.00,1.30,2.30,-32.90,0,1,0,66,100,-6847,2175,15564,3109.50,13,P-GPS,1,1,0,0,0,0,0,1664455259966,3977,3971,3977,3970,0,0,27,,,,,,,0,0,0,-13.00,23.00,-329.00,0.00,0.00,-429.00,6,14.00,0.00,1.99,0.00,0.00,0.00,0,,,100,100,0,2,0,0,0,2,1,,,,,7.0,3.5,0.0,0.0,0.0,0.0,0
55.884971,-4.271846,1.40,1.50,0.00,0.20,1.50,1.50,1.40,0.20,4213,2022-09-29 12:41:00.071,2022-09-29 13:41:00.070,20,0,0,15.564,55.884970,-4.271844,0.00,0.00,0.00,1.20,2.40,-32.90,0,1,0,66,100,-6847,2175,15564,3109.50,13,P-GPS,1,1,0,0,0,0,0,1664455260070,3977,3971,3977,3970,0,0,27,,,,,,,0,0,0,-12.00,24.00,-329.00,0.00,0.00,-429.00,6,14.00,0.00,1.95,0.00,0.00,0.00,0,,,100,100,0,2,0,0,0,2,1,,,,,7.0,3.5,0.0,0.0,0.0,0.0,0
55.884971,-4.271846,1.40,1.50,0.00,0.19,1.50,1.50,1.40,0.20,4312,2022-09-29 12:41:00.169,2022-09-29 13:41:00.169,20,0,0,15.564,55.884970,-4.271844,0.00,0.00,0.00,1.10,2.50,-32.90,0,1,0,66,100,-6847,2175,15564,3109.50,13,P-GPS,1,1,0,0,0,0,0,1664455260169,3977,3971,3977,3970,0,0,27,,,,,,,0,0,0,-11.00,25.00,-329.00,0.00,0.00,-429.00,6,14.00,0.00,1.94,0.00,0.00,0.00,0,,,100,100,0,2,0,0,0,2,1,,,,,7.0,2.9,0.0,0.0,0.0,0.0,0
55.884971,-4.271847,1.40,1.50,0.00,0.20,1.50,1.50,1.40,0.20,4412,2022-09-29 12:41:00.269,2022-09-29 13:41:00.269,20,0,0,15.564,55.884970,-4.271844,0.00,0.00,0.00,1.10,2.50,-32.90,0,1,0,66,100,-6847,2175,15564,3109.50,13,P-GPS,1,1,0,0,0,0,0,1664455260269,3977,3971,3977,3970,0,0,27,,,,,,,0,0,0,-11.00,25.00,-329.00,0.00,0.00,-429.00,6,14.00,0.00,1.98,0.00,0.00,0.00,0,,,100,100,0,2,0,0,0,2,1,,,,,7.0,2.9,0.0,0.0,0.0,0.0,0
55.884970,-4.271847,1.40,1.50,0.00,0.19,1.50,1.50,1.40,0.20,4603,2022-09-29 12:41:00.461,2022-09-29 13:41:00.461,20,0,0,15.564,55.884970,-4.271844,0.00,0.00,0.00,1.10,2.60,-32.90,0,1,0,66,100,-6847,2175,15564,3109.50,13,P-GPS,1,1,0,0,0,0,0,1664455260460,3977,3971,3977,3970,0,0,27,,,,,,,0,0,0,-11.00,26.00,-329.00,0.00,0.00,-429.00,6,14.00,0.00,1.90,0.00,0.00,0.00,0,,,100,100,0,2,0,0,0,2,1,,,,,7.0,2.9,0.0,0.0,0.0,0.0,0
55.884970,-4.271847,1.40,1.50,0.00,0.19,1.50,1.50,1.40,0.20,4693,2022-09-29 12:41:00.550,2022-09-29 13:41:00.550,20,0,0,15.564,55.884970,-4.271844,0.00,0.00,0.00,1.10,2.80,-32.90,0,1,0,66,100,-6847,2175,15564,3109.50,13,P-GPS,1,1,0,0,0,0,0,1664455260550,3977,3971,3977,3970,0,0,27,,,,,,,0,0,0,-11.00,28.00,-329.00,0.00,0.00,-429.00,6,14.00,0.00,1.87,0.00,0.00,0.00,0,,,100,100,0,2,0,0,0,2,1,,,,,7.0,2.9,0.0,0.0,0.0,0.0,0
55.884970,-4.271847,1.40,1.50,0.00,0.19,1.50,1.50,1.40,0.20,4779,2022-09-29 12:41:00.636,2022-09-29 13:41:00.636,20,0,0,15.564,55.884970,-4.271844,0.00,0.00,0.00,1.10,2.80,-32.90,0,1,0,66,100,-6847,2175,15564,3109.50,13,P-GPS,1,1,0,0,0,0,0,1664455260636,3977,3971,3977,3970,0,0,27,,,,,,,0,0,0,-11.00,28.00,-329.00,0.00,0.00,-429.00,6,14.00,0.00,1.87,0.00,0.00,0.00,0,,,100,100,0,2,0,0,0,2,1,,,,,6.9,3.5,0.0,0.0,0.0,0.0,0
55.884970,-4.271847,1.40,1.50,0.00,0.18,1.50,1.50,1.40,0.20,4890,2022-09-29 12:41:00.747,2022-09-29 13:41:00.747,20,0,0,15.564,55.884970,-4.271844,0.00,0.00,0.00,0.60,2.50,-33.00,0,1,0,66,100,-6847,2175,15564,3109.50,13,P-GPS,1,1,0,0,0,0,0,1664455260747,3977,3971,3977,3970,0,0,27,,,,,,,0,0,0,-6.00,25.00,-330.00,0.00,0.00,-429.00,6,14.00,0.00,1.76,0.00,0.00,0.00,0,,,100,100,0,2,0,0,0,2,1,,,,,6.9,3.5,0.0,0.0,0.0,0.0,0
55.884970,-4.271846,1.40,1.50,0.00,0.17,1.50,1.50,1.40,0.20,5007,2022-09-29 12:41:00.865,2022-09-29 13:41:00.864,20,0,0,15.550,55.884970,-4.271844,0.00,0.00,0.00,0.20,2.20,-33.00,0,1,0,65,100,-7639,2171,15550,3109.50,13,P-GPS,1,1,0,0,0,0,0,1664455260864,3977,3971,3977,3970,0,0,27,,,,,,,0,0,0,-2.00,22.00,-330.00,0.00,0.00,-429.00,6,14.00,0.00,1.70,0.00,0.00,0.00,0,,,100,100,0,2,0,0,0,2,1,,,,,6.9,3.5,0.0,0.0,0.0,0.0,0
55.884970,-4.271846,1.40,1.50,0.00,0.17,1.50,1.50,1.40,0.20,5105,2022-09-29 12:41:00.963,2022-09-29 13:41:00.962,20,0,0,15.550,55.884970,-4.271844,0.00,0.00,0.00,0.00,2.20,-32.90,0,1,0,65,100,-7639,2171,15550,3109.50,13,P-GPS,1,1,0,0,0,0,0,1664455260962,3977,3971,3977,3970,0,0,27,,,,,,,0,0,0,-0.00,22.00,-329.00,0.00,0.00,-429.00,6,14.00,0.00,1.66,0.00,0.00,0.00,0,,,100,100,0,2,0,0,0,2,1,,,,,6.9,3.5,0.0,0.0,0.0,0.0,0
55.884970,-4.271846,1.40,1.50,0.00,0.16,1.50,1.50,1.40,0.20,5214,2022-09-29 12:41:01.071,2022-09-29 13:41:01.071,20,0,0,15.550,55.884970,-4.271844,0.00,0.00,0.00,0.10,2.50,-33.00,0,1,0,65,100,-7639,2171,15550,3109.50,13,P-GPS,1,1,0,0,0,0,0,1664455261071,3977,3971,3977,3970,0,0,27,,,,,,,0,0,0,-1.00,25.00,-330.00,0.00,0.00,-429.00,6,14.00,0.00,1.64,0.00,0.00,0.00,0,,,100,100,0,2,0,0,0,2,1,,,,,7.0,3.5,0.0,0.0,0.0,0.0,0
55.884970,-4.271846,1.40,1.50,0.00,0.16,1.50,1.50,1.40,0.20,5405,2022-09-29 12:41:01.263,2022-09-29 13:41:01.262,20,0,0,15.550,55.884970,-4.271844,0.00,0.00,0.00,0.50,2.60,-33.00,0,1,0,65,100,-7639,2171,15550,3109.50,13,P-GPS,1,1,0,0,0,0,0,1664455261262,3977,3971,3977,3970,0,0,27,,,,,,,0,0,0,-5.00,26.00,-330.00,0.00,0.00,-429.00,6,14.00,0.00,1.60,0.00,0.00,0.00,0,,,100,100,0,2,0,0,0,2,1,,,,,7.0,2.9,0.0,0.0,0.0,0.0,0
55.884970,-4.271846,1.40,1.50,0.00,0.16,1.50,1.50,1.40,0.20,5497,2022-09-29 12:41:01.355,2022-09-29 13:41:01.354,20,0,0,15.550,55.884970,-4.271844,0.00,0.00,0.00,0.40,2.70,-33.00,0,1,0,65,100,-7639,2171,15550,3109.50,13,P-GPS,1,1,0,0,0,0,0,1664455261354,3977,3971,3977,3970,0,0,27,,,,,,,0,0,0,-4.00,27.00,-330.00,0.00,0.00,-429.00,6,14.00,0.00,1.59,0.00,0.00,0.00,0,,,100,100,0,2,0,0,0,2,1,,,,,7.0,2.9,0.0,0.0,0.0,0.0,0
55.884970,-4.271846,1.40,1.50,0.00,0.16,1.50,1.50,1.40,0.20,5607,2022-09-29 12:41:01.464,2022-09-29 13:41:01.464,20,0,0,15.550,55.884970,-4.271844,0.00,0.00,0.00,0.20,2.70,-32.90,0,1,0,65,100,-7639,2171,15550,3109.50,13,P-GPS,1,1,0,0,0,0,0,1664455261464,3890,3883,3884,3878,0,0,27,,,,,,,0,0,0,-2.00,27.00,-329.00,0.00,0.00,-429.00,6,14.00,0.00,1.64,0.00,0.00,0.00,0,,,100,100,0,2,0,0,0,2,1,,,,,6.9,2.8,0.0,0.0,0.0,0.0,0
55.884969,-4.271846,1.40,1.50,0.00,0.16,1.50,1.50,1.40,0.20,5697,2022-09-29 12:41:01.554,2022-09-29 13:41:01.554,20,0,0,15.550,55.884970,-4.271844,0.00,0.00,0.00,-0.10,2.70,-32.90,0,1,0,65,100,-7639,2171,15550,3109.50,13,P-GPS,1,1,0,0,0,0,0,1664455261554,3890,3883,3884,3878,0,0,27,,,,,,,0,0,0,1.00,27.00,-329.00,0.00,0.00,-429.00,6,14.00,0.00,1.63,0.00,0.00,0.00,0,,,100,100,0,2,0,0,0,2,1,,,,,6.9,2.8,0.0,0.0,0.0,0.0,0
55.884969,-4.271846,1.40,1.50,0.00,0.16,1.50,1.50,1.40,0.20,5786,2022-09-29 12:41:01.643,2022-09-29 13:41:01.643,20,0,0,15.550,55.884970,-4.271844,0.00,0.00,0.00,-0.10,2.70,-32.90,0,1,0,65,100,-7639,2171,15550,3109.50,13,P-GPS,1,1,0,0,0,0,0,1664455261643,3890,3883,3884,3878,0,0,27,,,,,,,0,0,0,1.00,27.00,-329.00,0.00,0.00,-429.00,6,14.00,0.00,1.63,0.00,0.00,0.00,0,,,100,100,0,2,0,0,0,2,1,,,,,6.9,2.8,0.0,0.0,0.0,0.0,0
55.884969,-4.271846,1.40,1.50,0.00,0.15,1.50,1.50,1.40,0.20,5892,2022-09-29 12:41:01.750,2022-09-29 13:41:01.749,20,0,0,15.550,55.884970,-4.271844,0.00,0.00,0.00,0.00,2.60,-32.90,0,1,0,65,100,-7639,2171,15550,3109.50,13,P-GPS,1,1,0,0,0,0,0,1664455261749,3890,3883,3884,3878,0,0,27,,,,,,,0,0,0,-0.00,26.00,-329.00,0.00,0.00,-429.00,6,14.00,0.00,1.55,0.00,0.00,0.00,0,,,100,100,0,2,0,0,0,2,1,,,,,6.9,2.8,0.0,0.0,0.0,0.0,0
55.884969,-4.271846,1.40,1.50,0.00,0.15,1.50,1.50,1.40,0.20,6004,2022-09-29 12:41:01.862,2022-09-29 13:41:01.861,20,0,0,15.550,55.884970,-4.271844,0.00,0.00,0.00,0.00,2.60,-33.00,0,1,0,65,100,-7639,2171,15550,3109.50,13,P-GPS,1,1,0,0,0,0,0,1664455261861,3890,3883,3884,3878,0,0,27,,,,,,,0,0,0,-0.00,26.00,-330.00,0.00,0.00,-429.00,6,14.00,0.00,1.53,0.00,0.00,0.00,0,,,100,100,0,2,0,0,0,2,1,,,,,6.9,2.7,0.0,0.0,0.0,0.0,0
55.884969,-4.271846,1.40,1.50,0.00,0.15,1.50,1.50,1.40,0.20,6092,2022-09-29 12:41:01.949,2022-09-29 13:41:01.949,20,0,0,15.535,55.884970,-4.271844,0.00,0.00,0.00,-0.20,2.70,-33.00,0,1,0,65,100,-7590,2169,15535,3109.50,13,P-GPS,1,1,0,0,0,0,0,1664455261949,3890,3883,3884,3878,0,0,27,,,,,,,0,0,0,2.00,27.00,-330.00,0.00,0.00,-429.00,6,14.00,0.00,1.53,0.00,0.00,0.00,0,,,100,100,0,2,0,0,0,2,1,,,,,6.9,2.7,0.0,0.0,0.0,0.0,0
55.884969,-4.271846,1.40,1.50,0.00,0.16,1.50,1.50,1.40,0.20,6198,2022-09-29 12:41:02.055,2022-09-29 13:41:02.055,20,0,0,15.535,55.884970,-4.271844,0.00,0.00,0.00,-0.10,2.70,-32.90,0,1,0,65,100,-7590,2169,15535,3109.50,13,P-GPS,1,1,0,0,0,0,0,1664455262055,3890,3883,3884,3878,0,0,27,,,,,,,0,0,0,1.00,27.00,-329.00,0.00,0.00,-429.00,6,14.00,0.00,1.55,0.00,0.00,0.00,0,,,100,100,0,2,0,0,0,2,1,,,,,6.9,2.7,0.0,0.0,0.0,0.0,0
55.884969,-4.271846,1.40,1.50,0.00,0.16,1.50,1.50,1.40,0.20,6304,2022-09-29 12:41:02.161,2022-09-29 13:41:02.161,20,0,0,15.535,55.884970,-4.271844,0.00,0.00,0.00,-0.10,2.50,-32.90,0,1,0,65,100,-7590,2169,15535,3109.50,13,P-GPS,1,1,0,0,0,0,0,1664455262161,3890,3883,3884,3878,0,0,27,,,,,,,0,0,0,1.00,25.00,-329.00,0.00,0.00,-429.00,6,14.00,0.00,1.56,0.00,0.00,0.00,0,,,100,100,0,2,0,0,0,2,1,,,,,6.9,2.7,0.0,0.0,0.0,0.0,0
55.884969,-4.271846,1.40,1.50,0.00,0.15,1.50,1.50,1.40,0.20,6403,2022-09-29 12:41:02.260,2022-09-29 13:41:02.260,20,0,0,15.535,55.884970,-4.271844,0.00,0.00,0.00,-0.20,2.40,-32.90,0,1,0,65,100,-7590,2169,15535,3109.50,13,P-GPS,1,1,0,0,0,0,0,1664455262260,3890,3883,3884,3878,0,0,27,,,,,,,0,0,0,2.00,24.00,-329.00,0.00,0.00,-429.00,6,14.00,0.00,1.52,0.00,0.00,0.00,0,,,100,100,0,2,0,0,0,2,1,,,,,7.0,2.7,0.0,0.0,0.0,0.0,0
55.884969,-4.271846,1.40,1.50,0.00,0.15,1.50,1.50,1.40,0.20,6503,2022-09-29 12:41:02.361,2022-09-29 13:41:02.360,20,0,0,15.535,55.884970,-4.271844,0.00,0.00,0.00,0.00,2.50,-32.90,0,1,0,65,100,-7590,2169,15535,3109.50,13,P-GPS,1,1,0,0,0,0,0,1664455262360,3890,3883,3884,3878,0,0,27,,,,,,,0,0,0,-0.00,25.00,-329.00,0.00,0.00,-429.00,6,14.00,0.00,1.52,0.00,0.00,0.00,0,,,100,100,0,2,0,0,0,2,1,,,,,7.0,2.7,0.0,0.0,0.0,0.0,0
55.884969,-4.271846,1.40,1.50,0.00,0.15,1.50,1.50,1.40,0.20,6603,2022-09-29 12:41:02.460,2022-09-29 13:41:02.460,20,0,0,15.535,55.884970,-4.271844,0.00,0.00,0.00,0.00,2.50,-32.90,0,1,0,65,100,-7590,2169,15535,3109.50,13,P-GPS,1,1,0,0,0,0,0,1664455262460,3890,3883,3884,3878,0,0,27,,,,,,,0,0,0,-0.00,25.00,-329.00,0.00,0.00,-429.00,6,14.00,0.00,1.50,0.00,0.00,0.00,0,,,100,100,0,2,0,0,0,2,1,,,,,7.0,0.0,0.0,0.0,0.0,0.0,0
55.884969,-4.271846,1.40,1.50,0.00,0.15,1.50,1.50,1.40,0.20,6696,2022-09-29 12:41:02.554,2022-09-29 13:41:02.553,20,0,0,15.535,55.884970,-4.271844,0.00,0.00,0.00,0.00,2.50,-32.90,0,1,0,65,100,-7590,2169,15535,3109.50,13,P-GPS,1,1,0,0,0,0,0,1664455262553,3890,3883,3884,3878,0,0,27,,,,,,,0,0,0,-0.00,25.00,-329.00,0.00,0.00,-429.00,6,14.00,0.00,1.49,0.00,0.00,0.00,0,,,100,100,0,2,0,0,0,2,1,,,,,7.0,0.0,0.0,0.0,0.0,0.0,0
55.884969,-4.271846,1.40,1.50,0.00,0.15,1.50,1.50,1.40,0.20,6790,2022-09-29 12:41:02.648,2022-09-29 13:41:02.647,20,0,0,15.535,55.884970,-4.271844,0.00,0.00,0.00,0.00,2.50,-32.90,0,1,0,65,100,-7590,2169,15535,3109.50,13,P-GPS,1,1,0,0,0,0,0,1664455262647,3890,3883,3884,3878,0,0,27,,,,,,,0,0,0,-0.00,25.00,-329.00,0.00,0.00,-429.00,6,14.00,0.00,1.49,0.00,0.00,0.00,0,,,100,100,0,2,0,0,0,2,1,,,,,7.0,0.0,0.0,0.0,0.0,0.0,0
55.884969,-4.271845,1.40,1.50,0.00,0.13,1.50,1.50,1.40,0.20,6897,2022-09-29 12:41:02.754,2022-09-29 13:41:02.754,20,0,0,15.535,55.884970,-4.271844,0.00,0.00,0.00,0.00,2.30,-32.90,0,1,0,65,100,-7590,2169,15535,3109.50,13,P-GPS,1,1,0,0,0,0,0,1664455262754,3890,3883,3884,3878,0,0,27,,,,,,,0,0,0,-0.00,23.00,-329.00,0.00,0.00,-429.00,6,14.00,0.00,1.29,0.00,0.00,0.00,0,,,100,100,0,2,0,0,0,2,1,,,,,7.0,0.0,0.0,0.0,0.0,0.0,0
55.884969,-4.271845,1.40,1.50,0.00,0.13,1.50,1.50,1.40,0.20,7011,2022-09-29 12:41:02.869,2022-09-29 13:41:02.868,20,0,0,15.535,55.884970,-4.271844,0.00,0.00,0.00,0.00,2.20,-33.00,0,1,0,65,100,-7590,2169,15535,3109.50,13,P-GPS,1,1,0,0,0,0,0,1664455262868,3890,3883,3884,3878,0,0,27,,,,,,,0,0,0,-0.00,22.00,-330.00,0.00,0.00,-429.00,6,14.00,0.00,1.34,0.00,0.00,0.00,0,,,100,100,0,2,0,0,0,2,1,,,,,7.0,0.0,0.0,0.0,0.0,0.0,0
55.884969,-4.271845,1.40,1.50,0.00,0.13,1.50,1.50,1.40,0.20,7103,2022-09-29 12:41:02.961,2022-09-29 13:41:02.960,20,0,0,15.529,55.884970,-4.271844,0.00,0.00,0.00,0.00,2.20,-32.90,0,1,0,65,100,-7593,2167,15529,3109.50,13,P-GPS,1,1,0,0,0,0,0,1664455262960,3890,3883,3884,3878,0,0,27,,,,,,,0,0,0,-0.00,22.00,-329.00,0.00,0.00,-429.00,6,14.00,0.00,1.32,0.00,0.00,0.00,0,,,100,100,0,2,0,0,0,2,1,,,,,7.0,0.0,0.0,0.0,0.0,0.0,0
55.884969,-4.271845,1.40,1.50,0.00,0.14,1.50,1.50,1.40,0.20,7219,2022-09-29 12:41:03.076,2022-09-29 13:41:03.076,20,0,0,15.529,55.884970,-4.271844,0.00,0.00,0.00,0.00,2.30,-33.00,0,1,0,65,100,-7593,2167,15529,3109.50,13,P-GPS,1,1,0,0,0,0,0,1664455263076,3890,3883,3884,3878,0,0,27,,,,,,,0,0,0,-0.00,23.00,-330.00,0.00,0.00,-429.00,6,14.00,0.00,1.39,0.00,0.00,0.00,0,,,100,100,0,2,0,0,0,2,1,,,,,7.0,0.0,0.0,0.0,0.0,0.0,0
55.884969,-4.271845,1.40,1.50,0.00,0.14,1.50,1.50,1.40,0.20,7409,2022-09-29 12:41:03.266,2022-09-29 13:41:03.266,20,0,0,15.529,55.884970,-4.271844,0.00,0.00,0.00,0.10,2.20,-33.00,0,1,0,65,100,-7593,2167,15529,3109.50,13,P-GPS,1,1,0,0,0,0,0,1664455263266,3890,3883,3884,3878,0,0,27,,,,,,,0,0,0,-1.00,22.00,-330.00,0.00,0.00,-429.00,6,14.00,0.00,1.38,0.00,0.00,0.00,0,,,100,100,0,2,0,0,0,2,1,,,,,7.0,0.0,0.0,0.0,0.0,0.0,0
55.884969,-4.271845,1.40,1.50,0.00,0.14,1.50,1.50,1.40,0.20,7507,2022-09-29 12:41:03.364,2022-09-29 13:41:03.364,20,0,0,15.529,55.884970,-4.271844,0.00,0.00,0.00,0.10,2.20,-32.90,0,1,0,65,100,-7593,2167,15529,3109.50,13,P-GPS,1,1,0,0,0,0,0,1664455263364,3890,3883,3884,3878,0,0,27,,,,,,,0,0,0,-1.00,22.00,-329.00,0.00,0.00,-429.00,6,14.00,0.00,1.37,0.00,0.00,0.00,0,,,100,100,0,2,0,0,0,2,1,,,,,7.0,0.0,0.0,0.0,0.0,0.0,0
55.884969,-4.271845,1.40,1.50,0.00,0.14,1.50,1.50,1.40,0.20,7609,2022-09-29 12:41:03.467,2022-09-29 13:41:03.466,20,0,0,15.529,55.884970,-4.271844,0.00,0.00,0.00,0.20,2.10,-33.00,0,1,0,65,100,-7593,2167,15529,3109.50,13,P-GPS,1,1,0,0,0,0,0,1664455263466,3890,3883,3884,3878,0,0,27,,,,,,,0,0,0,-2.00,21.00,-330.00,0.00,0.00,-429.00,6,14.00,0.00,1.42,0.00,0.00,0.00,0,,,100,100,0,2,0,0,0,2,1,,,,,7.0,0.0,0.0,0.0,0.0,0.0,0
55.884969,-4.271845,1.40,1.50,0.00,0.14,1.50,1.50,1.40,0.20,7697,2022-09-29 12:41:03.555,2022-09-29 13:41:03.554,20,0,0,15.529,55.884970,-4.271844,0.00,0.00,0.00,0.40,2.20,-33.00,0,1,0,65,100,-7593,2167,15529,3109.50,13,P-GPS,1,1,0,0,0,0,0,1664455263554,3890,3883,3884,3878,0,0,27,,,,,,,0,0,0,-4.00,22.00,-330.00,0.00,0.00,-429.00,6,14.00,0.00,1.42,0.00,0.00,0.00,0,,,100,100,0,2,0,0,0,2,1,,,,,7.0,0.0,0.0,0.0,0.0,0.0,0
55.884969,-4.271845,1.40,1.50,0.00,0.14,1.50,1.50,1.40,0.20,7812,2022-09-29 12:41:03.669,2022-09-29 13:41:03.669,20,0,0,15.529,55.884970,-4.271844,0.00,0.00,0.00,0.70,2.10,-32.90,0,1,0,65,100,-7593,2167,15529,3109.50,13,P-GPS,1,1,0,0,0,0,0,1664455263669,3890,3883,3884,3878,0,0,27,,,,,,,0,0,0,-7.00,21.00,-329.00,0.00,0.00,-429.00,6,14.00,0.00,1.36,0.00,0.00,0.00,0,,,100,100,0,2,0,0,0,2,1,,,,,7.0,0.0,0.0,0.0,0.0,0.0,0
55.884969,-4.271845,1.40,1.50,0.00,0.14,1.50,1.50,1.40,0.20,7901,2022-09-29 12:41:03.758,2022-09-29 13:41:03.758,20,0,0,15.529,55.884970,-4.271844,0.00,0.00,0.00,0.80,1.90,-32.90,0,1,0,65,100,-7593,2167,15529,3109.50,13,P-GPS,1,1,0,0,0,0,0,1664455263758,3890,3883,3884,3878,0,0,27,,,,,,,0,0,0,-8.00,19.00,-329.00,0.00,0.00,-429.00,6,14.00,0.00,1.35,0.00,0.00,0.00,0,,,100,100,0,2,0,0,0,2,1,,,,,7.0,0.0,0.0,0.0,0.0,0.0,0
55.884969,-4.271845,1.40,1.50,0.00,0.13,1.50,1.50,1.40,0.20,8002,2022-09-29 12:41:03.860,2022-09-29 13:41:03.859,20,0,0,15.529,55.884970,-4.271844,0.00,0.00,0.00,0.80,1.90,-32.90,0,1,0,65,100,-7593,2167,15529,3109.50,13,P-GPS,1,1,0,0,0,0,0,1664455263859,3890,3883,3884,3878,0,0,27,,,,,,,0,0,0,-8.00,19.00,-329.00,0.00,0.00,-429.00,6,14.00,0.00,1.27,0.00,0.00,0.00,0,,,100,100,0,2,0,0,0,2,1,,,,,7.0,0.0,0.0,0.0,0.0,0.0,0
55.884969,-4.271845,1.40,1.50,0.00,0.13,1.50,1.50,1.40,0.20,8102,2022-09-29 12:41:03.959,2022-09-29 13:41:03.959,20,0,0,15.519,55.884970,-4.271844,0.00,0.00,0.00,0.60,2.20,-32.90,0,1,0,65,100,-7707,2165,15519,3110.50,13,P-GPS,1,1,0,0,0,0,0,1664455263959,3890,3883,3884,3878,0,0,27,,,,,,,0,0,0,-6.00,22.00,-329.00,0.00,0.00,-429.00,6,14.00,0.00,1.27,0.00,0.00,0.00,0,,,100,100,0,2,0,0,0,2,1,,,,,7.0,2.6,0.0,0.0,0.0,0.0,0
55.884969,-4.271845,1.40,1.50,0.00,0.13,1.50,1.50,1.40,0.20,8217,2022-09-29 12:41:04.074,2022-09-29 13:41:04.074,20,0,0,15.519,55.884970,-4.271844,0.00,0.00,0.00,0.60,2.20,-32.90,0,1,0,65,100,-7707,2165,15519,3110.50,13,P-GPS,1,1,0,0,0,0,0,1664455264074,3890,3883,3884,3878,0,0,27,,,,,,,0,0,0,-6.00,22.00,-329.00,0.00,0.00,-429.00,6,14.00,0.00,1.33,0.00,0.00,0.00,0,,,100,100,0,2,0,0,0,2,1,,,,,7.0,2.6,0.0,0.0,0.0,0.0,0
55.884969,-4.271845,1.40,1.50,0.00,0.13,1.50,1.50,1.40,0.20,8402,2022-09-29 12:41:04.259,2022-09-29 13:41:04.259,20,0,0,15.519,55.884970,-4.271844,0.00,0.00,0.00,0.60,2.10,-32.90,0,1,0,65,100,-7707,2165,15519,3110.50,13,P-GPS,1,1,0,0,0,0,0,1664455264259,3890,3883,3884,3878,0,0,27,,,,,,,0,0,0,-6.00,21.00,-329.00,0.00,0.00,-429.00,6,14.00,0.00,1.33,0.00,0.00,0.00,0,,,100,100,0,2,0,0,0,2,1,,,,,7.0,2.6,0.0,0.0,0.0,0.0,0
55.884969,-4.271845,1.40,1.50,0.00,0.13,1.50,1.50,1.40,0.20,8509,2022-09-29 12:41:04.366,2022-09-29 13:41:04.366,20,0,0,15.519,55.884970,-4.271844,0.00,0.00,0.00,0.50,2.00,-32.90,0,1,0,65,100,-7707,2165,15519,3110.50,13,P-GPS,1,1,0,0,0,0,0,1664455264366,3890,3883,3884,3878,0,0,27,,,,,,,0,0,0,-5.00,20.00,-329.00,0.00,0.00,-429.00,6,14.00,0.00,1.33,0.00,0.00,0.00,0,,,100,100,0,2,0,0,0,2,1,,,,,7.0,2.7,0.0,0.0,0.0,0.0,0
55.884969,-4.271845,1.40,1.50,0.00,0.12,1.50,1.50,1.40,0.20,8618,2022-09-29 12:41:04.476,2022-09-29 13:41:04.475,20,0,0,15.519,55.884970,-4.271844,0.00,0.00,0.00,0.30,1.80,-33.00,0,1,0,65,100,-7707,2165,15519,3110.50,13,P-GPS,1,1,0,0,0,0,0,1664455264475,3890,3883,3884,3878,0,0,27,,,,,,,0,0,0,-3.00,18.00,-330.00,0.00,0.00,-429.00,6,14.00,0.00,1.20,0.00,0.00,0.00,0,,,100,100,0,2,0,0,0,2,1,,,,,7.0,2.7,0.0,0.0,0.0,0.0,0
55.884969,-4.271845,1.40,1.50,0.00,0.12,1.50,1.50,1.40,0.20,8704,2022-09-29 12:41:04.561,2022-09-29 13:41:04.561,20,0,0,15.519,55.884970,-4.271844,0.00,0.00,0.00,0.10,1.70,-33.00,0,1,0,65,100,-7707,2165,15519,3110.50,13,P-GPS,1,1,0,0,0,0,0,1664455264561,3890,3883,3884,3878,0,0,27,,,,,,,0,0,0,-1.00,17.00,-330.00,0.00,0.00,-429.00,6,14.00,0.00,1.18,0.00,0.00,0.00,0,,,100,100,0,2,0,0,0,2,1,,,,,7.1,2.7,0.0,0.0,0.0,0.0,0
55.884969,-4.271845,1.40,1.50,0.00,0.12,1.50,1.50,1.40,0.20,8814,2022-09-29 12:41:04.671,2022-09-29 13:41:04.671,20,0,0,15.519,55.884970,-4.271844,0.00,0.00,0.00,0.00,1.60,-32.90,0,1,0,65,100,-7707,2165,15519,3110.50,13,P-GPS,1,1,0,0,0,0,0,1664455264671,3890,3883,3884,3878,0,0,27,,,,,,,0,0,0,-0.00,16.00,-329.00,0.00,0.00,-429.00,6,14.00,0.00,1.20,0.00,0.00,0.00,0,,,100,100,0,2,0,0,0,2,1,,,,,7.1,2.7,0.0,0.0,0.0,0.0,0
55.884969,-4.271845,1.40,1.50,0.00,0.13,1.50,1.50,1.40,0.20,9009,2022-09-29 12:41:04.866,2022-09-29 13:41:04.866,20,0,0,15.519,55.884970,-4.271844,0.00,0.00,0.00,0.00,1.80,-32.90,0,1,0,65,100,-7707,2165,15519,3110.50,13,P-GPS,1,1,0,0,0,0,0,1664455264866,3890,3883,3884,3878,0,0,27,,,,,,,0,0,0,-0.00,18.00,-329.00,0.00,0.00,-429.00,6,14.00,0.00,1.28,0.00,0.00,0.00,0,,,100,100,0,2,0,0,0,2,1,,,,,7.2,2.7,0.0,0.0,0.0,0.0,0
55.884969,-4.271845,1.40,1.50,0.00,0.13,1.50,1.50,1.40,0.20,9096,2022-09-29 12:41:04.954,2022-09-29 13:41:04.953,20,0,0,15.517,55.884970,-4.271844,0.00,0.00,0.00,0.10,1.80,-32.90,0,1,0,65,100,-7538,2163,15517,3110.50,13,P-GPS,1,1,0,0,0,0,0,1664455264953,3890,3883,3884,3878,0,0,27,,,,,,,0,0,0,-1.00,18.00,-329.00,0.00,0.00,-429.00,6,14.00,0.00,1.29,0.00,0.00,0.00,0,,,100,100,0,2,0,0,0,2,1,,,,,7.2,2.7,0.0,0.0,0.0,0.0,0
55.884969,-4.271845,1.40,1.50,0.00,0.11,1.50,1.50,1.40,0.20,9217,2022-09-29 12:41:05.074,2022-09-29 13:41:05.074,20,0,0,15.517,55.884970,-4.271844,0.00,0.00,0.00,0.10,1.60,-32.90,0,1,0,65,100,-7538,2163,15517,3110.50,13,P-GPS,1,1,0,0,0,0,0,1664455265074,3890,3883,3884,3878,0,0,27,,,,,,,0,0,0,-1.00,16.00,-329.00,0.00,0.00,-429.00,6,14.00,0.00,1.10,0.00,0.00,0.00,0,,,100,100,0,2,0,0,0,2,1,,,,,7.2,2.7,0.0,0.0,0.0,0.0,0
55.884969,-4.271845,1.40,1.50,0.00,0.12,1.50,1.50,1.40,0.20,9398,2022-09-29 12:41:05.255,2022-09-29 13:41:05.255,20,0,0,15.517,55.884970,-4.271844,0.00,0.00,0.00,0.10,1.60,-33.00,0,1,0,65,100,-7538,2163,15517,3110.50,13,P-GPS,1,1,0,0,0,0,0,1664455265255,3890,3883,3884,3878,0,0,27,,,,,,,0,0,0,-1.00,16.00,-330.00,0.00,0.00,-429.00,6,14.00,0.00,1.24,0.00,0.00,0.00,0,,,100,100,0,2,0,0,0,2,1,,,,,7.2,2.7,0.0,0.0,0.0,0.0,0
55.884969,-4.271845,1.40,1.50,0.00,0.12,1.50,1.50,1.40,0.20,9499,2022-09-29 12:41:05.356,2022-09-29 13:41:05.356,20,0,0,15.517,55.884970,-4.271844,0.00,0.00,0.00,0.10,1.70,-32.90,0,1,0,65,100,-7538,2163,15517,3110.50,13,P-GPS,1,1,0,0,0,0,0,1664455265356,3890,3883,3884,3878,0,0,27,,,,,,,0,0,0,-1.00,17.00,-329.00,0.00,0.00,-429.00,6,14.00,0.00,1.25,0.00,0.00,0.00,0,,,100,100,0,2,0,0,0,2,1,,,,,7.2,2.7,0.0,0.0,0.0,0.0,0
55.884969,-4.271845,1.40,1.50,0.00,0.12,1.50,1.50,1.40,0.20,9600,2022-09-29 12:41:05.457,2022-09-29 13:41:05.457,20,0,0,15.517,55.884970,-4.271844,0.00,0.00,0.00,0.20,1.80,-32.90,0,1,0,65,100,-7538,2163,15517,3110.50,13,P-GPS,1,1,0,0,0,0,0,1664455265457,3890,3883,3884,3878,0,0,27,,,,,,,0,0,0,-2.00,18.00,-329.00,0.00,0.00,-429.00,6,14.00,0.00,1.19,0.00,0.00,0.00,0,,,100,100,0,2,0,0,0,2,1,,,,,7.2,2.7,0.0,0.0,0.0,0.0,0
55.884969,-4.271845,1.40,1.50,0.00,0.12,1.50,1.50,1.40,0.20,9698,2022-09-29 12:41:05.556,2022-09-29 13:41:05.555,20,0,0,15.517,55.884970,-4.271844,0.00,0.00,0.00,0.40,1.90,-32.90,0,1,0,65,100,-7538,2163,15517,3110.50,13,P-GPS,1,1,0,0,0,0,0,1664455265555,3890,3883,3884,3878,0,0,27,,,,,,,0,0,0,-4.00,19.00,-329.00,0.00,0.00,-429.00,6,14.00,0.00,1.20,0.00,0.00,0.00,0,,,100,100,0,2,0,0,0,2,1,,,,,7.3,2.7,0.0,0.0,0.0,0.0,0
55.884969,-4.271845,1.40,1.50,0.00,0.12,1.50,1.50,1.40,0.20,9799,2022-09-29 12:41:05.657,2022-09-29 13:41:05.656,20,0,0,15.517,55.884970,-4.271844,0.00,0.00,0.00,0.30,1.90,-32.90,0,1,0,65,100,-7538,2163,15517,3110.50,13,P-GPS,1,1,0,0,0,0,0,1664455265656,3890,3883,3884,3878,0,0,27,,,,,,,0,0,0,-3.00,19.00,-329.00,0.00,0.00,-429.00,6,14.00,0.00,1.20,0.00,0.00,0.00,0,,,100,100,0,2,0,0,0,2,1,,,,,7.3,2.7,0.0,0.0,0.0,0.0,0
55.884969,-4.271845,1.40,1.50,0.00,0.12,1.50,1.50,1.40,0.20,9898,2022-09-29 12:41:05.755,2022-09-29 13:41:05.755,20,0,0,15.517,55.884970,-4.271844,0.00,0.00,0.00,0.30,2.00,-32.90,0,1,0,65,100,-7538,2163,15517,3110.50,13,P-GPS,1,1,0,0,0,0,0,1664455265755,3890,3883,3884,3878,0,0,27,,,,,,,0,0,0,-3.00,20.00,-329.00,0.00,0.00,-429.00,6,14.00,0.00,1.21,0.00,0.00,0.00,0,,,100,100,0,2,0,0,0,2,1,,,,,7.2,2.7,0.0,0.0,0.0,0.0,0
55.884969,-4.271845,1.40,1.50,0.00,0.13,1.50,1.50,1.40,0.20,10001,2022-09-29 12:41:05.858,2022-09-29 13:41:05.858,20,0,0,15.517,55.884970,-4.271844,0.00,0.00,0.00,0.30,1.90,-32.90,0,1,0,65,100,-7538,2163,15517,3110.50,13,P-GPS,1,1,0,0,0,0,0,1664455265858,3890,3883,3884,3878,0,0,27,,,,,,,0,0,0,-3.00,19.00,-329.00,0.00,0.00,-429.00,6,14.00,0.00,1.26,0.00,0.00,0.00,0,,,100,100,0,2,0,0,0,2,1,,,,,7.2,2.7,0.0,0.0,0.0,0.0,0
55.884969,-4.271845,1.40,1.50,0.00,0.13,1.50,1.50,1.40,0.20,10092,2022-09-29 12:41:05.950,2022-09-29 13:41:05.949,20,0,0,15.500,55.884970,-4.271844,0.00,0.00,0.00,0.10,1.80,-32.90,0,1,0,65,100,-7724,2161,15500,3110.50,13,P-GPS,1,1,0,0,0,0,0,1664455265949,3890,3883,3884,3878,0,0,27,,,,,,,0,0,0,-1.00,18.00,-329.00,0.00,0.00,-429.00,6,14.00,0.00,1.26,0.00,0.00,0.00,0,,,100,100,0,2,0,0,0,2,1,,,,,7.2,2.7,0.0,0.0,0.0,0.0,0
55.884969,-4.271845,1.40,1.50,0.00,0.12,1.50,1.50,1.40,0.20,10214,2022-09-29 12:41:06.071,2022-09-29 13:41:06.071,20,0,0,15.500,55.884970,-4.271844,0.00,0.00,0.00,0.00,1.50,-32.80,0,1,0,65,100,-7724,2161,15500,3110.50,13,P-GPS,1,1,0,0,0,0,0,1664455266071,3890,3883,3884,3878,0,0,27,,,,,,,0,0,0,-0.00,15.00,-328.00,0.00,0.00,-429.00,6,14.00,0.00,1.23,0.00,0.00,0.00,0,,,100,100,0,2,0,0,0,2,1,,,,,7.2,2.7,0.0,0.0,0.0,0.0,0
55.884969,-4.271845,1.40,1.50,0.00,0.12,1.50,1.50,1.40,0.20,10300,2022-09-29 12:41:06.158,2022-09-29 13:41:06.157,20,0,0,15.500,55.884970,-4.271844,0.00,0.00,0.00,0.10,1.40,-32.80,0,1,0,65,100,-7724,2161,15500,3110.50,13,P-GPS,1,1,0,0,0,0,0,1664455266157,3890,3883,3884,3878,0,0,27,,,,,,,0,0,0,-1.00,14.00,-328.00,0.00,0.00,-429.00,6,14.00,0.00,1.23,0.00,0.00,0.00,0,,,100,100,0,2,0,0,0,2,1,,,,,7.3,2.7,0.0,0.0,0.0,0.0,0
55.884969,-4.271845,1.40,1.50,0.00,0.13,1.50,1.50,1.40,0.20,10413,2022-09-29 12:41:06.271,2022-09-29 13:41:06.270,20,0,0,15.500,55.884970,-4.271844,0.00,0.00,0.00,0.20,1.30,-32.90,0,1,0,65,100,-7724,2161,15500,3110.50,13,P-GPS,1,1,0,0,0,0,0,1664455266270,3890,3883,3884,3878,0,0,27,,,,,,,0,0,0,-2.00,13.00,-329.00,0.00,0.00,-429.00,6,14.00,0.00,1.29,0.00,0.00,0.00,0,,,100,100,0,2,0,0,0,2,1,,,,,7.3,2.8,0.0,0.0,0.0,0.0,0
55.884969,-4.271845,1.40,1.50,0.00,0.13,1.50,1.50,1.40,0.20,10534,2022-09-29 12:41:06.392,2022-09-29 13:41:06.391,20,0,0,15.500,55.884970,-4.271844,0.00,0.00,0.00,0.10,1.30,-32.90,0,1,0,65,100,-7724,2161,15500,3110.50,13,P-GPS,1,1,0,0,0,0,0,1664455266391,3890,3883,3884,3878,0,0,27,,,,,,,0,0,0,-1.00,13.00,-329.00,0.00,0.00,-429.00,6,14.00,0.00,1.30,0.00,0.00,0.00,0,,,100,100,0,2,0,0,0,2,1,,,,,7.3,2.8,0.0,0.0,0.0,0.0,0
55.884969,-4.271845,1.40,1.50,0.00,0.13,1.50,1.50,1.40,0.20,10600,2022-09-29 12:41:06.458,2022-09-29 13:41:06.457,20,0,0,15.500,55.884970,-4.271844,0.00,0.00,0.00,0.00,1.60,-32.90,0,1,0,65,100,-7724,2161,15500,3110.50,13,P-GPS,1,1,0,0,0,0,0,1664455266457,3890,3883,3884,3878,0,0,27,,,,,,,0,0,0,-0.00,16.00,-329.00,0.00,0.00,-429.00,6,14.00,0.00,1.26,0.00,0.00,0.00,0,,,100,100,0,2,0,0,0,2,1,,,,,7.3,2.8,0.0,0.0,0.0,0.0,0
55.884969,-4.271845,1.40,1.50,0.00,0.13,1.50,1.50,1.40,0.20,10697,2022-09-29 12:41:06.555,2022-09-29 13:41:06.554,20,0,0,15.500,55.884970,-4.271844,0.00,0.00,0.00,0.00,1.80,-32.90,0,1,0,65,100,-7724,2161,15500,3110.50,13,P-GPS,1,1,0,0,0,0,0,1664455266554,3890,3883,3884,3878,0,0,27,,,,,,,0,0,0,-0.00,18.00,-329.00,0.00,0.00,-429.00,6,14.00,0.00,1.29,0.00,0.00,0.00,0,,,100,100,0,2,0,0,0,2,1,,,,,7.4,2.8,0.0,0.0,0.0,0.0,0
55.884969,-4.271845,1.40,1.50,0.00,0.13,1.50,1.50,1.40,0.20,10799,2022-09-29 12:41:06.657,2022-09-29 13:41:06.656,20,0,0,15.500,55.884970,-4.271844,0.00,0.00,0.00,0.00,1.80,-32.90,0,1,0,65,100,-7724,2161,15500,3110.50,13,P-GPS,1,1,0,0,0,0,0,1664455266656,3890,3883,3884,3878,0,0,27,,,,,,,0,0,0,-0.00,18.00,-329.00,0.00,0.00,-429.00,6,14.00,0.00,1.29,0.00,0.00,0.00,0,,,100,100,0,2,0,0,0,2,1,,,,,7.4,2.7,0.0,0.0,0.0,0.0,0
55.884969,-4.271845,1.40,1.50,0.00,0.13,1.50,1.50,1.40,0.20,10912,2022-09-29 12:41:06.770,2022-09-29 13:41:06.769,20,0,0,15.500,55.884970,-4.271844,0.00,0.00,0.00,0.00,1.80,-32.90,0,1,0,65,100,-7724,2161,15500,3110.50,13,P-GPS,1,1,0,0,0,0,0,1664455266769,3890,3883,3884,3878,0,0,27,,,,,,,0,0,0,-0.00,18.00,-329.00,0.00,0.00,-429.00,6,14.00,0.00,1.32,0.00,0.00,0.00,0,,,100,100,0,2,0,0,0,2,1,,,,,7.4,2.7,0.0,0.0,0.0,0.0,0
55.884969,-4.271845,1.40,1.50,0.00,0.14,1.50,1.50,1.40,0.20,11013,2022-09-29 12:41:06.870,2022-09-29 13:41:06.870,20,0,0,15.500,55.884970,-4.271844,0.00,0.00,0.00,0.00,1.80,-32.80,0,1,0,65,100,-7724,2161,15500,3110.50,13,P-GPS,1,1,0,0,0,0,0,1664455266870,3890,3883,3884,3878,0,0,27,,,,,,,0,0,0,-0.00,18.00,-328.00,0.00,0.00,-429.00,6,14.00,0.00,1.43,0.00,0.00,0.00,0,,,100,100,0,2,0,0,0,2,1,,,,,7.4,2.7,0.0,0.0,0.0,0.0,0
55.884968,-4.271845,1.40,1.50,0.00,0.15,1.50,1.50,1.40,0.20,11201,2022-09-29 12:41:07.058,2022-09-29 13:41:07.058,20,0,0,15.496,55.884970,-4.271844,0.00,0.00,0.00,0.00,1.70,-33.00,0,1,0,65,100,-7749,2159,15496,3111.50,13,P-GPS,1,1,0,0,0,0,0,1664455267058,3890,3883,3884,3878,0,0,27,,,,,,,0,0,0,-0.00,17.00,-330.00,0.00,0.00,-429.00,6,14.00,0.00,1.55,0.00,0.00,0.00,0,,,100,100,0,2,0,0,0,2,1,,,,,7.4,2.7,0.0,0.0,0.0,0.0,0
55.884968,-4.271845,1.40,1.50,0.00,0.16,1.50,1.50,1.40,0.20,11301,2022-09-29 12:41:07.158,2022-09-29 13:41:07.158,20,0,0,15.496,55.884970,-4.271844,0.00,0.00,0.00,-0.10,1.60,-33.00,0,1,0,65,100,-7749,2159,15496,3111.50,13,P-GPS,1,1,0,0,0,0,0,1664455267158,3890,3883,3884,3878,0,0,27,,,,,,,0,0,0,1.00,16.00,-330.00,0.00,0.00,-429.00,6,14.00,0.00,1.58,0.00,0.00,0.00,0,,,100,100,0,2,0,0,0,2,1,,,,,7.4,2.7,0.0,0.0,0.0,0.0,0
55.884968,-4.271845,1.40,1.50,0.00,0.15,1.50,1.50,1.40,0.20,11415,2022-09-29 12:41:07.272,2022-09-29 13:41:07.272,20,0,0,15.496,55.884970,-4.271844,0.00,0.00,0.00,-0.20,1.60,-33.00,0,1,0,65,100,-7749,2159,15496,3111.50,13,P-GPS,1,1,0,0,0,0,0,1664455267272,3890,3883,3884,3878,0,0,27,,,,,,,0,0,0,2.00,16.00,-330.00,0.00,0.00,-429.00,6,14.00,0.00,1.47,0.00,0.00,0.00,0,,,100,100,0,2,0,0,0,2,1,,,,,7.4,2.7,0.0,0.0,0.0,0.0,0
55.884968,-4.271845,1.40,1.50,0.00,0.16,1.50,1.50,1.40,0.20,11601,2022-09-29 12:41:07.459,2022-09-29 13:41:07.458,20,0,0,15.496,55.884970,-4.271844,0.00,0.00,0.00,-0.40,1.70,-33.00,0,1,0,65,100,-7749,2159,15496,3111.50,13,P-GPS,1,1,0,0,0,0,0,1664455267458,3890,3883,3884,3878,0,0,27,,,,,,,0,0,0,4.00,17.00,-330.00,0.00,0.00,-429.00,6,14.00,0.00,1.60,0.00,0.00,0.00,0,,,100,100,0,2,0,0,0,2,1,,,,,7.5,2.7,0.0,0.0,0.0,0.0,0
55.884968,-4.271845,1.40,1.50,0.00,0.16,1.50,1.50,1.40,0.20,11711,2022-09-29 12:41:07.568,2022-09-29 13:41:07.568,20,0,0,15.496,55.884970,-4.271844,0.00,0.00,0.00,-0.40,1.50,-33.00,0,1,0,65,100,-7749,2159,15496,3111.50,13,P-GPS,1,1,0,0,0,0,0,1664455267568,3890,3883,3884,3878,0,0,27,,,,,,,0,0,0,4.00,15.00,-330.00,0.00,0.00,-429.00,6,14.00,0.00,1.63,0.00,0.00,0.00,0,,,100,100,0,2,0,0,0,2,1,,,,,7.5,2.7,0.0,0.0,0.0,0.0,0
55.884968,-4.271845,1.40,1.50,0.00,0.17,1.50,1.50,1.40,0.20,11812,2022-09-29 12:41:07.669,2022-09-29 13:41:07.669,20,0,0,15.496,55.884970,-4.271844,0.00,0.00,0.00,-0.50,1.60,-33.00,0,1,0,65,100,-7749,2159,15496,3111.50,13,P-GPS,1,1,0,0,0,0,0,1664455267669,3890,3883,3884,3878,0,0,27,,,,,,,0,0,0,5.00,16.00,-330.00,0.00,0.00,-429.00,6,14.00,0.00,1.68,0.00,0.00,0.00,0,,,100,100,0,2,0,0,0,2,1,,,,,7.6,2.7,0.0,0.0,0.0,0.0,0
55.884968,-4.271845,1.40,1.50,0.00,0.17,1.50,1.50,1.40,0.20,11899,2022-09-29 12:41:07.757,2022-09-29 13:41:07.756,20,0,0,15.496,55.884970,-4.271844,0.00,0.00,0.00,-0.40,1.60,-33.00,0,1,0,65,100,-7749,2159,15496,3111.50,13,P-GPS,1,1,0,0,0,0,0,1664455267756,3890,3883,3884,3878,0,0,27,,,,,,,0,0,0,4.00,16.00,-330.00,0.00,0.00,-429.00,6,14.00,0.00,1.72,0.00,0.00,0.00,0,,,100,100,0,2,0,0,0,2,1,,,,,7.6,2.7,0.0,0.0,0.0,0.0,0
55.884968,-4.271845,1.40,1.50,0.00,0.18,1.50,1.50,1.40,0.20,12000,2022-09-29 12:41:07.858,2022-09-29 13:41:07.857,20,0,0,15.496,55.884970,-4.271844,0.00,0.00,0.00,-0.40,1.60,-33.00,0,1,0,65,100,-7749,2159,15496,3111.50,13,P-GPS,1,1,0,0,0,0,0,1664455267857,3890,3883,3884,3878,0,0,27,,,,,,,0,0,0,4.00,16.00,-330.00,0.00,0.00,-429.00,6,14.00,0.00,1.77,0.00,0.00,0.00,0,,,100,100,0,2,0,0,0,2,1,,,,,7.6,2.7,0.0,0.0,0.0,0.0,0
55.884968,-4.271845,1.40,1.50,0.00,0.18,1.50,1.50,1.40,0.20,12090,2022-09-29 12:41:07.948,2022-09-29 13:41:07.947,20,0,0,15.496,55.884970,-4.271844,0.00,0.00,0.00,-0.40,1.60,-33.00,0,1,0,65,100,-7640,2157,15496,3111.50,13,P-GPS,1,1,0,0,0,0,0,1664455267947,3890,3883,3884,3878,0,0,27,,,,,,,0,0,0,4.00,16.00,-330.00,0.00,0.00,-429.00,6,14.00,0.00,1.81,0.00,0.00,0.00,0,,,100,100,0,2,0,0,0,2,1,,,,,7.6,2.7,0.0,0.0,0.0,0.0,0
55.884968,-4.271845,1.40,1.50,0.00,0.17,1.50,1.50,1.40,0.20,12201,2022-09-29 12:41:08.058,2022-09-29 13:41:08.058,20,0,0,15.496,55.884970,-4.271844,0.00,0.00,0.00,-0.50,1.50,-33.00,0,1,0,65,100,-7640,2157,15496,3111.50,13,P-GPS,1,1,0,0,0,0,0,1664455268058,3890,3883,3884,3878,0,0,27,,,,,,,0,0,0,5.00,15.00,-330.00,0.00,0.00,-429.00,6,14.00,0.00,1.73,0.00,0.00,0.00,0,,,100,100,0,2,0,0,0,2,1,,,,,8.0,2.7,0.0,0.0,0.0,0.0,0
55.884968,-4.271845,1.40,1.50,0.00,0.18,1.50,1.50,1.40,0.20,12313,2022-09-29 12:41:08.170,2022-09-29 13:41:08.170,20,0,0,15.496,55.884970,-4.271844,0.00,0.00,0.00,-0.40,1.60,-32.90,0,1,0,65,100,-7640,2157,15496,3111.50,13,P-GPS,1,1,0,0,0,0,0,1664455268170,3890,3883,3884,3878,0,0,27,,,,,,,0,0,0,4.00,16.00,-329.00,0.00,0.00,-429.00,6,14.00,0.00,1.75,0.00,0.00,0.00,0,,,100,100,0,2,0,0,0,2,1,,,,,8.0,2.7,0.0,0.0,0.0,0.0,0
55.884968,-4.271844,1.40,1.50,0.00,0.18,1.50,1.50,1.40,0.20,12415,2022-09-29 12:41:08.272,2022-09-29 13:41:08.272,20,0,0,15.496,55.884970,-4.271844,0.00,0.00,0.00,-0.30,1.50,-32.90,0,1,0,65,100,-7640,2157,15496,3111.50,13,P-GPS,1,1,0,0,0,0,0,1664455268272,3890,3883,3884,3878,0,0,27,,,,,,,0,0,0,3.00,15.00,-329.00,0.00,0.00,-429.00,6,14.00,0.00,1.82,0.00,0.00,0.00,0,,,100,100,0,2,0,0,0,2,1,,,,,8.0,2.7,0.0,0.0,0.0,0.0,0
55.884968,-4.271844,1.40,1.50,0.00,0.18,1.50,1.50,1.40,0.20,12502,2022-09-29 12:41:08.359,2022-09-29 13:41:08.359,20,0,0,15.496,55.884970,-4.271844,0.00,0.00,0.00,-0.30,1.50,-32.90,0,1,0,65,100,-7640,2157,15496,3111.50,13,P-GPS,1,1,0,0,0,0,0,1664455268359,3890,3883,3884,3878,0,0,27,,,,,,,0,0,0,3.00,15.00,-329.00,0.00,0.00,-429.00,6,14.00,0.00,1.85,0.00,0.00,0.00,0,,,100,100,0,2,0,0,0,2,1,,,,,8.0,2.7,0.0,0.0,0.0,0.0,0
55.884968,-4.271844,1.40,1.50,0.00,0.18,1.50,1.50,1.40,0.20,12598,2022-09-29 12:41:08.455,2022-09-29 13:41:08.455,20,0,0,15.496,55.884970,-4.271844,0.00,0.00,0.00,-0.30,1.50,-32.90,0,1,0,65,100,-7640,2157,15496,3111.50,13,P-GPS,1,1,0,0,0,0,0,1664455268455,3890,3883,3884,3878,0,0,27,,,,,,,0,0,0,3.00,15.00,-329.00,0.00,0.00,-429.00,6,14.00,0.00,1.76,0.00,0.00,0.00,0,,,100,100,0,2,0,0,0,2,1,,,,,8.0,2.7,0.0,0.0,0.0,0.0,0
55.884968,-4.271844,1.40,1.50,0.00,0.18,1.50,1.50,1.40,0.20,12697,2022-09-29 12:41:08.554,2022-09-29 13:41:08.554,20,0,0,15.496,55.884970,-4.271844,0.00,0.00,0.00,-0.30,1.40,-32.90,0,1,0,65,100,-7640,2157,15496,3111.50,13,P-GPS,1,1,0,0,0,0,0,1664455268554,3890,3883,3884,3878,0,0,27,,,,,,,0,0,0,3.00,14.00,-329.00,0.00,0.00,-429.00,6,14.00,0.00,1.77,0.00,0.00,0.00,0,,,100,100,0,2,0,0,0,2,1,,,,,8.0,2.7,0.0,0.0,0.0,0.0,0
55.884968,-4.271844,1.40,1.50,0.00,0.19,1.50,1.50,1.40,0.20,12798,2022-09-29 12:41:08.655,2022-09-29 13:41:08.655,20,0,0,15.496,55.884970,-4.271844,0.00,0.00,0.00,-0.30,1.40,-32.90,0,1,0,65,100,-7640,2157,15496,3111.50,13,P-GPS,1,1,0,0,0,0,0,1664455268655,3890,3883,3884,3878,0,0,27,,,,,,,0,0,0,3.00,14.00,-329.00,0.00,0.00,-429.00,6,14.00,0.00,1.89,0.00,0.00,0.00,0,,,100,100,0,2,0,0,0,2,1,,,,,7.9,2.7,0.0,0.0,0.0,0.0,0
55.884968,-4.271844,1.40,1.50,0.00,0.19,1.50,1.50,1.40,0.20,12898,2022-09-29 12:41:08.756,2022-09-29 13:41:08.755,20,0,0,15.496,55.884970,-4.271844,0.00,0.00,0.00,-0.20,1.40,-32.90,0,1,0,65,100,-7640,2157,15496,3111.50,13,P-GPS,1,1,0,0,0,0,0,1664455268755,3890,3883,3884,3878,0,0,27,,,,,,,0,0,0,2.00,14.00,-329.00,0.00,0.00,-429.00,6,14.00,0.00,1.91,0.00,0.00,0.00,0,,,100,100,0,2,0,0,0,2,1,,,,,7.9,2.7,0.0,0.0,0.0,0.0,0
55.884968,-4.271844,1.40,1.50,0.00,0.18,1.50,1.50,1.40,0.20,13000,2022-09-29 12:41:08.858,2022-09-29 13:41:08.858,20,0,0,15.496,55.884970,-4.271844,0.00,0.00,0.00,-0.10,1.40,-32.90,0,1,0,65,100,-7640,2157,15496,3111.50,13,P-GPS,1,1,0,0,0,0,0,1664455268857,3890,3883,3884,3878,0,0,27,,,,,,,0,0,0,1.00,14.00,-329.00,0.00,0.00,-429.00,6,14.00,0.00,1.85,0.00,0.00,0.00,0,,,100,100,0,2,0,0,0,2,1,,,,,7.9,2.7,0.0,0.0,0.0,0.0,0
55.884968,-4.271844,1.40,1.50,0.00,0.19,1.50,1.50,1.40,0.20,13099,2022-09-29 12:41:08.956,2022-09-29 13:41:08.956,20,0,0,15.495,55.884970,-4.271844,0.00,0.00,0.00,-0.10,1.30,-32.90,0,1,0,65,100,-7497,2155,15495,3111.50,13,P-GPS,1,1,0,0,0,0,0,1664455268956,3890,3883,3884,3878,0,0,27,,,,,,,0,0,0,1.00,13.00,-329.00,0.00,0.00,-429.00,6,14.00,0.00,1.86,0.00,0.00,0.00,0,,,100,100,0,2,0,0,0,2,1,,,,,7.9,2.7,0.0,0.0,0.0,0.0,0
55.884968,-4.271844,1.40,1.50,0.00,0.18,1.50,1.50,1.40,0.20,13199,2022-09-29 12:41:09.057,2022-09-29 13:41:09.056,20,0,0,15.495,55.884970,-4.271844,0.00,0.00,0.00,-0.20,1.40,-32.80,0,1,0,65,100,-7497,2155,15495,3111.50,13,P-GPS,1,1,0,0,0,0,0,1664455269056,3890,3883,3884,3878,0,0,27,,,,,,,0,0,0,2.00,14.00,-328.00,0.00,0.00,-429.00,6,14.00,0.00,1.84,0.00,0.00,0.00,0,,,100,100,0,2,0,0,0,2,1,,,,,7.6,2.7,0.0,0.0,0.0,0.0,0
55.884968,-4.271844,1.40,1.50,0.00,0.19,1.50,1.50,1.40,0.20,13310,2022-09-29 12:41:09.168,2022-09-29 13:41:09.167,20,0,0,15.495,55.884970,-4.271844,0.00,0.00,0.00,-0.10,1.50,-32.80,0,1,0,65,100,-7497,2155,15495,3111.50,13,P-GPS,1,1,0,0,0,0,0,1664455269167,3890,3883,3884,3878,0,0,27,,,,,,,0,0,0,1.00,15.00,-328.00,0.00,0.00,-429.00,6,14.00,0.00,1.86,0.00,0.00,0.00,0,,,100,100,0,2,0,0,0,2,1,,,,,7.6,2.7,0.0,0.0,0.0,0.0,0
55.884968,-4.271844,1.40,1.50,0.00,0.20,1.50,1.50,1.40,0.20,13415,2022-09-29 12:41:09.272,2022-09-29 13:41:09.272,20,0,0,15.495,55.884970,-4.271844,0.00,0.00,0.00,-0.20,1.50,-32.90,0,1,0,65,100,-7497,2155,15495,3111.50,13,P-GPS,1,1,0,0,0,0,0,1664455269272,3890,3883,3884,3878,0,0,27,,,,,,,0,0,0,2.00,15.00,-329.00,0.00,0.00,-429.00,6,14.00,0.00,2.02,0.00,0.00,0.00,0,,,100,100,0,2,0,0,0,2,1,,,,,7.6,2.7,0.0,0.0,0.0,0.0,0
55.884968,-4.271844,1.40,1.50,0.00,0.21,1.50,1.50,1.40,0.21,13507,2022-09-29 12:41:09.365,2022-09-29 13:41:09.364,20,0,0,15.495,55.884970,-4.271844,0.00,0.00,0.00,-0.20,1.70,-32.90,0,1,0,65,100,-7497,2155,15495,3111.50,13,P-GPS,1,1,0,0,0,0,0,1664455269364,3890,3883,3884,3878,0,0,27,,,,,,,0,0,0,2.00,17.00,-329.00,0.00,0.00,-429.00,6,14.00,0.00,2.06,0.00,0.00,0.00,0,,,100,100,0,2,0,0,0,2,1,,,,,7.6,2.7,0.0,0.0,0.0,0.0,0
55.884968,-4.271844,1.40,1.50,0.00,0.20,1.50,1.50,1.40,0.21,13603,2022-09-29 12:41:09.460,2022-09-29 13:41:09.460,20,0,0,15.495,55.884970,-4.271844,0.00,0.00,0.00,-0.20,1.80,-32.90,0,1,0,65,100,-7497,2155,15495,3111.50,13,P-GPS,1,1,0,0,0,0,0,1664455269460,3890,3883,3884,3878,0,0,27,,,,,,,0,0,0,2.00,18.00,-329.00,0.00,0.00,-429.00,6,14.00,0.00,2.01,0.00,0.00,0.00,0,,,100,100,0,2,0,0,0,2,1,,,,,7.8,2.7,0.0,0.0,0.0,0.0,0
55.884968,-4.271844,1.40,1.50,0.00,0.20,1.50,1.50,1.40,0.21,13696,2022-09-29 12:41:09.553,2022-09-29 13:41:09.553,20,0,0,15.495,55.884970,-4.271844,0.00,0.00,0.00,-0.20,2.00,-32.80,0,1,0,65,100,-7497,2155,15495,3111.50,13,P-GPS,1,1,0,0,0,0,0,1664455269553,3890,3883,3884,3878,0,0,27,,,,,,,0,0,0,2.00,20.00,-328.00,0.00,0.00,-429.00,6,14.00,0.00,2.04,0.00,0.00,0.00,0,,,100,100,0,2,0,0,0,2,1,,,,,7.8,2.7,0.0,0.0,0.0,0.0,0
55.884968,-4.271844,1.40,1.50,0.00,0.20,1.50,1.50,1.40,0.21,13803,2022-09-29 12:41:09.660,2022-09-29 13:41:09.660,20,0,0,15.495,55.884970,-4.271844,0.00,0.00,0.00,-0.20,2.00,-32.80,0,1,0,65,100,-7497,2155,15495,3111.50,13,P-GPS,1,1,0,0,0,0,0,1664455269660,3890,3883,3884,3878,0,0,27,,,,,,,0,0,0,2.00,20.00,-328.00,0.00,0.00,-429.00,6,14.00,0.00,2.00,0.00,0.00,0.00,0,,,100,100,0,2,0,0,0,2,1,,,,,7.9,2.7,0.0,0.0,0.0,0.0,0
55.884968,-4.271844,1.40,1.50,0.00,0.20,1.50,1.50,1.40,0.21,13912,2022-09-29 12:41:09.770,2022-09-29 13:41:09.769,20,0,0,15.495,55.884970,-4.271844,0.00,0.00,0.00,-0.20,2.00,-32.80,0,1,0,65,100,-7497,2155,15495,3111.50,13,P-GPS,1,1,0,0,0,0,0,1664455269769,3890,3883,3884,3878,0,0,27,,,,,,,0,0,0,2.00,20.00,-328.00,0.00,0.00,-429.00,6,14.00,0.00,2.01,0.00,0.00,0.00,0,,,100,100,0,2,0,0,0,2,1,,,,,7.9,2.7,0.0,0.0,0.0,0.0,0
55.884968,-4.271844,1.40,1.50,0.00,0.21,1.50,1.50,1.40,0.21,14010,2022-09-29 12:41:09.867,2022-09-29 13:41:09.867,20,0,0,15.495,55.884970,-4.271844,0.00,0.00,0.00,-0.20,1.80,-32.80,0,1,0,65,100,-7497,2155,15495,3111.50,13,P-GPS,1,1,0,0,0,0,0,1664455269867,3890,3883,3884,3878,0,0,27,,,,,,,0,0,0,2.00,18.00,-328.00,0.00,0.00,-429.00,6,14.00,0.00,2.11,0.00,0.00,0.00,0,,,100,100,0,2,0,0,0,2,1,,,,,7.9,2.7,0.0,0.0,0.0,0.0,0
55.884968,-4.271844,1.40,1.50,0.00,0.21,1.50,1.50,1.40,0.21,14103,2022-09-29 12:41:09.961,2022-09-29 13:41:09.960,20,0,0,15.495,55.884970,-4.271844,0.00,0.00,0.00,-0.20,1.50,-32.80,0,1,0,65,100,-7416,2153,15495,3111.50,13,P-GPS,1,1,0,0,0,0,0,1664455269960,3890,3883,3884,3878,0,0,27,,,,,,,0,0,0,2.00,15.00,-328.00,0.00,0.00,-429.00,6,14.00,0.00,2.13,0.00,0.00,0.00,0,,,100,100,0,2,0,0,0,2,1,,,,,7.9,2.7,0.0,0.0,0.0,0.0,0
55.884968,-4.271844,1.40,1.50,0.00,0.21,1.50,1.50,1.40,0.21,14221,2022-09-29 12:41:10.078,2022-09-29 13:41:10.078,20,0,0,15.495,55.884970,-4.271844,0.00,0.00,0.00,-0.30,1.40,-32.80,0,1,0,65,100,-7416,2153,15495,3111.50,13,P-GPS,1,1,0,0,0,0,0,1664455270078,3890,3883,3884,3878,0,0,27,,,,,,,0,0,0,3.00,14.00,-328.00,0.00,0.00,-429.00,6,14.00,0.00,2.06,0.00,0.00,0.00,0,,,100,100,0,2,0,0,0,2,1,,,,,7.9,2.7,0.0,0.0,0.0,0.0,0
55.884968,-4.271844,1.40,1.50,0.00,0.22,1.50,1.50,1.40,0.22,14402,2022-09-29 12:41:10.260,2022-09-29 13:41:10.259,20,0,0,15.495,55.884970,-4.271844,0.00,0.00,0.00,-0.10,1.20,-32.80,0,1,0,65,100,-7416,2153,15495,3111.50,13,P-GPS,1,1,0,0,0,0,0,1664455270259,3890,3883,3884,3878,0,0,27,,,,,,,0,0,0,1.00,12.00,-328.00,0.00,0.00,-429.00,6,14.00,0.00,2.17,0.00,0.00,0.00,0,,,100,100,0,2,0,0,0,2,1,,,,,8.0,2.7,0.0,0.0,0.0,0.0,0
55.884968,-4.271844,1.40,1.50,0.00,0.22,1.50,1.50,1.40,0.22,14500,2022-09-29 12:41:10.357,2022-09-29 13:41:10.357,20,0,0,15.495,55.884970,-4.271844,0.00,0.00,0.00,0.00,1.30,-32.90,0,1,0,65,100,-7416,2153,15495,3111.50,13,P-GPS,1,1,0,0,0,0,0,1664455270357,3890,3883,3884,3878,0,0,27,,,,,,,0,0,0,-0.00,13.00,-329.00,0.00,0.00,-429.00,6,14.00,0.00,2.18,0.00,0.00,0.00,0,,,100,100,0,2,0,0,0,2,1,,,,,8.0,2.7,0.0,0.0,0.0,0.0,0
55.884968,-4.271844,1.40,1.50,0.00,0.21,1.50,1.50,1.40,0.22,14600,2022-09-29 12:41:10.458,2022-09-29 13:41:10.457,20,0,0,15.495,55.884970,-4.271844,0.00,0.00,0.00,0.00,1.40,-32.90,0,1,0,65,100,-7416,2153,15495,3111.50,13,P-GPS,1,1,0,0,0,0,0,1664455270457,3890,3883,3884,3878,0,0,27,,,,,,,0,0,0,-0.00,14.00,-329.00,0.00,0.00,-429.00,6,14.00,0.00,2.14,0.00,0.00,0.00,0,,,100,100,0,2,0,0,0,2,1,,,,,7.9,2.7,0.0,0.0,0.0,0.0,0
55.884968,-4.271844,1.40,1.50,0.00,0.21,1.50,1.50,1.40,0.22,14699,2022-09-29 12:41:10.556,2022-09-29 13:41:10.556,20,0,0,15.495,55.884970,-4.271844,0.00,0.00,0.00,0.00,1.40,-32.90,0,1,0,65,100,-7416,2153,15495,3111.50,13,P-GPS,1,1,0,0,0,0,0,1664455270556,3890,3883,3884,3878,0,0,27,,,,,,,0,0,0,-0.00,14.00,-329.00,0.00,0.00,-429.00,6,14.00,0.00,2.15,0.00,0.00,0.00,0,,,100,100,0,2,0,0,0,2,1,,,,,7.9,2.7,0.0,0.0,0.0,0.0,0
55.884968,-4.271844,1.40,1.50,0.00,0.21,1.50,1.50,1.40,0.22,14798,2022-09-29 12:41:10.655,2022-09-29 13:41:10.655,20,0,0,15.495,55.884970,-4.271844,0.00,0.00,0.00,0.00,1.20,-32.90,0,1,0,65,100,-7416,2153,15495,3111.50,13,P-GPS,1,1,0,0,0,0,0,1664455270655,3890,3883,3884,3878,0,0,27,,,,,,,0,0,0,-0.00,12.00,-329.00,0.00,0.00,-429.00,6,14.00,0.00,2.13,0.00,0.00,0.00,0,,,100,100,0,2,0,0,0,2,1,,,,,7.9,2.7,0.0,0.0,0.0,0.0,0
55.884968,-4.271844,1.40,1.50,0.00,0.21,1.50,1.50,1.40,0.22,14902,2022-09-29 12:41:10.759,2022-09-29 13:41:10.759,20,0,0,15.495,55.884970,-4.271844,0.00,0.00,0.00,0.00,0.90,-32.90,0,1,0,65,100,-7416,2153,15495,3111.50,13,P-GPS,1,1,0,0,0,0,0,1664455270759,3890,3883,3884,3878,0,0,27,,,,,,,0,0,0,-0.00,9.00,-329.00,0.00,0.00,-429.00,6,14.00,0.00,2.13,0.00,0.00,0.00,0,,,100,100,0,2,0,0,0,2,1,,,,,7.9,2.7,0.0,0.0,0.0,0.0,0
