latitude,longitude,altitude(m),ultrasonicHeight(m),speed(mps),distance(m),max_altitude(m),max_ascent(m),max_speed(mps),max_distance(m),time(millisecond),datetime(utc),datetime(local),satellites,pressure(Pa),temperature(F),voltage(v),home_latitude,home_longitude,velocityX(mps),velocityY(mps),velocityZ(mps),pitch(deg),roll(deg),yaw(deg),powerlevel,isflying,istakingphoto,remainPowerPercent,remainLifePercent,currentCurrent,currentElectricity,currentVoltage,batteryTemperature,dischargeCount,flightmode,isMotorsOn,isTakingVideo,Rc_elevator,Rc_aileron,Rc_throttle,Rc_rudder,Rc_gyro,timestamp,Battery_Cell1,Battery_Cell2,Battery_Cell3,Battery_Cell4,Battery_Cell5,Battery_Cell6,Dronetype,AppVersion,Planename,FlyControllerSerialNumber,RemoteSerialNumber,BatterySerialNumber,CENTER_BATTERY.productDate,CENTER_BATTERY.serialNo,CENTER_BATTERY.fullCapacity,CENTER_BATTERY.productDateRaw,pitchRaw,rollRaw,yawRaw,gimbalPitchRaw,gimbalRollRaw,gimbalYawRaw,flyState,altitudeRaw,speedRaw,distanceRaw,velocityXRaw,velocityYRaw,velocityZRaw,data_reuse,App_Tip,App_Warning,downlinkSignalQuality,uplinkSignalQuality,transmissionChannel,rcModeSwitch,rcHome,rcPause,rcTransform,rcJoystickMode,appMode,FlyControllerSerialNumber_legacy,RemoteSerialNumber_legacy,BatterySerialNumber_legacy,Battery2SerialNumber,frontAvoidDist,backAvoidDist,rightAvoidDist,leftAvoidDist,upAvoidDist,downAvoidDist,isBrakingToAvoid
55.937920,-4.406429,15.10,0.00,0.10,2.93,15.10,15.10,0.10,2.93,0,2022-07-10 09:45:44.105,2022-07-10 10:45:44.104,20,0,0,0.000,55.937901,-4.406462,0.10,0.00,0.00,5.50,0.60,88.40,0,1,0,0,100,0,0,0,2731.50,7,P-GPS,1,1,0,0,0,0,41,1657446344104,0,0,0,0,0,0,27,Litchi_4.24.1-g,,,,null,,0,0,0,-55.00,6.00,884.00,-765.00,0.00,811.00,6,151.00,1.00,29.31,1.00,0.00,0.00,0,,,100,100,0,2,0,0,0,2,0,,,,null,0.0,0.0,0.0,0.0,0.0,0.0,0
55.937920,-4.406429,15.00,0.00,0.10,2.97,15.10,15.10,0.10,2.97,164,2022-07-10 09:45:44.268,2022-07-10 10:45:44.268,20,0,0,16.041,55.937901,-4.406462,0.10,0.00,0.00,5.90,2.20,88.70,0,1,0,82,100,-7269,2766,16041,2731.50,7,P-GPS,1,1,0,0,0,0,40,1657446344268,0,0,0,0,0,0,27,Litchi_4.24.1-g,,,,null,,0,0,0,-59.00,22.00,887.00,-763.00,0.00,811.00,6,150.00,1.00,29.68,1.00,0.00,0.00,0,,,100,100,0,2,0,0,0,2,0,,,,null,0.0,0.0,0.0,0.0,0.0,0.0,0
55.937920,-4.406429,15.00,0.00,0.10,2.99,15.10,15.10,0.10,2.99,260,2022-07-10 09:45:44.365,2022-07-10 10:45:44.364,20,0,0,16.041,55.937901,-4.406462,0.10,0.00,0.00,6.00,2.40,88.70,0,1,0,82,100,-7269,2766,16041,2731.50,7,P-GPS,1,1,0,0,0,0,39,1657446344364,0,0,0,0,0,0,27,Litchi_4.24.1-g,,,,null,,0,0,0,-60.00,24.00,887.00,-762.00,0.00,811.00,6,150.00,1.00,29.87,1.00,0.00,0.00,0,,,100,100,0,2,0,0,0,2,0,,,,null,0.0,0.0,0.0,0.0,0.0,0.0,0
55.937920,-4.406429,15.00,0.00,0.10,2.99,15.10,15.10,0.10,2.99,355,2022-07-10 09:45:44.459,2022-07-10 10:45:44.459,20,0,0,16.041,55.937901,-4.406462,0.10,0.00,0.00,6.00,2.40,88.70,0,1,0,82,100,-7269,2766,16041,2731.50,7,P-GPS,1,1,0,0,0,0,39,1657446344459,0,0,0,0,0,0,27,Litchi_4.24.1-g,CJTMAVIC,163DFAS001K45C,0VECFAK0072T52,0P2AFB25340AEP,,0,0,0,-60.00,24.00,887.00,-761.00,0.00,811.00,6,150.00,1.00,29.87,1.00,0.00,0.00,0,,,100,100,0,2,0,0,0,2,0,,,,null,0.0,0.0,0.0,0.0,0.0,0.0,0
55.937921,-4.406429,15.00,0.00,0.00,3.01,15.10,15.10,0.10,3.01,459,2022-07-10 09:45:44.563,2022-07-10 10:45:44.563,20,0,0,16.041,55.937901,-4.406462,0.00,0.00,0.00,6.00,2.50,88.70,0,1,0,82,100,-7269,2766,16041,2731.50,7,P-GPS,1,1,0,0,0,0,39,1657446344563,0,0,0,0,0,0,27,,,,,,,0,0,0,-60.00,25.00,887.00,-760.00,0.00,811.00,6,150.00,0.00,30.14,0.00,0.00,0.00,0,,,100,100,0,2,0,0,0,2,0,,,,,0.0,0.0,0.0,0.0,0.0,0.0,0
55.937921,-4.406428,15.00,0.00,0.00,3.03,15.10,15.10,0.10,3.03,566,2022-07-10 09:45:44.673,2022-07-10 10:45:44.670,20,0,0,16.041,55.937901,-4.406462,0.00,0.00,0.00,6.10,2.50,88.60,0,1,0,82,100,-7269,2766,16041,2731.50,7,P-GPS,1,1,0,0,0,0,39,1657446344670,0,0,0,0,0,0,27,,,,,,,0,0,0,-61.00,25.00,886.00,-759.00,0.00,811.00,6,150.00,0.00,30.28,0.00,0.00,0.00,0,,,100,100,0,2,0,0,0,2,0,,,,,0.0,0.0,0.0,0.0,0.0,0.0,0
55.937921,-4.406428,15.00,0.00,0.00,3.04,15.10,15.10,0.10,3.04,667,2022-07-10 09:45:44.771,2022-07-10 10:45:44.771,20,0,0,16.041,55.937901,-4.406462,0.00,0.00,0.00,6.10,2.60,88.60,0,1,0,82,100,-7269,2766,16041,2731.50,7,P-GPS,1,1,0,0,0,0,39,1657446344771,0,0,0,0,0,0,27,,,,,,,0,0,0,-61.00,26.00,886.00,-758.00,0.00,811.00,6,150.00,0.00,30.41,0.00,0.00,0.00,0,,,100,100,0,2,0,0,0,2,0,,,,,0.0,0.0,0.0,0.0,0.0,0.0,0
55.937921,-4.406428,15.00,0.00,0.00,3.05,15.10,15.10,0.10,3.05,766,2022-07-10 09:45:44.870,2022-07-10 10:45:44.870,20,0,0,16.041,55.937901,-4.406462,0.00,0.00,0.00,6.00,2.60,88.60,0,1,0,82,100,-7269,2766,16041,2731.50,7,P-GPS,1,1,0,0,0,0,38,1657446344870,0,0,0,0,0,0,27,,,,,,,0,0,0,-60.00,26.00,886.00,-757.00,0.00,811.00,6,150.00,0.00,30.49,0.00,0.00,0.00,0,,,100,100,0,2,0,0,0,2,0,,,,,0.0,0.0,0.0,0.0,0.0,0.0,0
55.937921,-4.406428,15.00,0.00,0.00,3.06,15.10,15.10,0.10,3.06,857,2022-07-10 09:45:44.961,2022-07-10 10:45:44.961,20,0,0,16.041,55.937901,-4.406462,0.00,0.00,0.00,5.60,2.30,88.60,0,1,0,82,100,-7269,2766,16041,2731.50,7,P-GPS,1,1,0,0,0,0,38,1657446344961,0,0,0,0,0,0,27,,,,,,,0,0,0,-56.00,23.00,886.00,-756.00,0.00,811.00,6,150.00,0.00,30.57,0.00,0.00,0.00,0,,,100,100,0,2,0,0,0,2,0,,,,,0.0,0.0,0.0,0.0,0.0,0.0,0
55.937921,-4.406428,15.00,0.00,0.00,3.06,15.10,15.10,0.10,3.06,960,2022-07-10 09:45:45.064,2022-07-10 10:45:45.064,20,0,0,16.041,55.937901,-4.406462,0.00,0.00,0.00,5.40,2.10,88.60,0,1,0,82,100,-7269,2766,16041,2731.50,7,P-GPS,1,1,0,0,0,0,37,1657446345064,0,0,0,0,0,0,27,,,,,,,0,0,0,-54.00,21.00,886.00,-755.00,0.00,811.00,6,150.00,0.00,30.63,0.00,0.00,0.00,0,,,100,100,0,2,0,0,0,2,0,,,,,0.0,0.0,0.0,0.0,0.0,0.0,0
55.937921,-4.406428,15.00,0.00,0.00,3.07,15.10,15.10,0.10,3.07,1063,2022-07-10 09:45:45.168,2022-07-10 10:45:45.167,20,0,0,16.041,55.937901,-4.406462,0.00,0.00,0.00,5.10,2.00,88.50,0,1,0,82,100,-7269,2766,16041,2731.50,7,P-GPS,1,1,0,0,0,0,37,1657446345167,0,0,0,0,0,0,27,,,,,,,0,0,0,-51.00,20.00,885.00,-754.00,0.00,811.00,6,150.00,0.00,30.69,0.00,0.00,0.00,0,,,100,100,0,2,0,0,0,2,0,,,,,0.0,0.0,0.0,0.0,0.0,0.0,0
55.937921,-4.406428,15.00,0.00,0.00,3.07,15.10,15.10,0.10,3.07,1161,2022-07-10 09:45:45.265,2022-07-10 10:45:45.265,20,0,0,16.082,55.937901,-4.406462,0.00,0.00,0.00,5.10,2.00,88.60,0,1,0,82,100,-6988,2764,16082,3086.50,7,P-GPS,1,1,0,0,0,0,34,1657446345265,0,0,0,0,0,0,27,,,,,,,0,0,0,-51.00,20.00,886.00,-753.00,0.00,811.00,6,150.00,0.00,30.70,0.00,0.00,0.00,0,,,100,100,0,2,0,0,0,2,0,,,,,0.0,0.0,0.0,0.0,0.0,0.0,0
55.937921,-4.406428,15.00,0.00,0.00,3.07,15.10,15.10,0.10,3.07,1260,2022-07-10 09:45:45.365,2022-07-10 10:45:45.364,20,0,0,16.082,55.937901,-4.406462,0.00,0.00,0.00,5.30,2.20,88.60,0,1,0,82,100,-6988,2764,16082,3086.50,7,P-GPS,1,1,0,0,0,0,34,1657446345364,0,0,0,0,0,0,27,,,,,,,0,0,0,-53.00,22.00,886.00,-752.00,0.00,811.00,6,150.00,0.00,30.75,0.00,0.00,0.00,0,,,100,100,0,2,0,0,0,2,0,,,,,0.0,0.0,0.0,0.0,0.0,0.0,0
55.937921,-4.406428,15.00,0.00,0.00,3.07,15.10,15.10,0.10,3.07,1364,2022-07-10 09:45:45.469,2022-07-10 10:45:45.469,20,0,0,16.082,55.937901,-4.406462,0.00,0.00,0.00,5.00,2.30,88.60,0,1,0,82,100,-6988,2764,16082,3086.50,7,P-GPS,1,1,0,0,0,0,34,1657446345468,0,0,0,0,0,0,27,,,,,,,0,0,0,-50.00,23.00,886.00,-751.00,0.00,811.00,6,150.00,0.00,30.75,0.00,0.00,0.00,0,,,100,100,0,2,0,0,0,2,0,,,,,0.0,0.0,0.0,0.0,0.0,0.0,0
55.937921,-4.406428,15.00,0.00,0.00,3.08,15.10,15.10,0.10,3.08,1462,2022-07-10 09:45:45.566,2022-07-10 10:45:45.566,20,0,0,16.082,55.937901,-4.406462,0.00,0.00,0.00,4.50,2.60,88.60,0,1,0,82,100,-6988,2764,16082,3086.50,7,P-GPS,1,1,0,0,0,0,33,1657446345566,0,0,0,0,0,0,27,,,,,,,0,0,0,-45.00,26.00,886.00,-750.00,0.00,811.00,6,150.00,0.00,30.77,0.00,0.00,0.00,0,,,100,100,0,2,0,0,0,2,0,,,,,0.0,0.0,0.0,0.0,0.0,0.0,0
55.937921,-4.406428,15.00,0.00,0.00,3.08,15.10,15.10,0.10,3.08,1561,2022-07-10 09:45:45.665,2022-07-10 10:45:45.665,20,0,0,16.082,55.937901,-4.406462,0.00,0.00,0.00,4.20,2.90,88.60,0,1,0,82,100,-6988,2764,16082,3086.50,7,P-GPS,1,1,0,0,0,0,33,1657446345665,0,0,0,0,0,0,27,,,,,,,0,0,0,-42.00,29.00,886.00,-749.00,0.00,811.00,6,150.00,0.00,30.76,0.00,0.00,0.00,0,,,100,100,0,2,0,0,0,2,0,,,,,0.0,0.0,0.0,0.0,0.0,0.0,0
55.937921,-4.406428,15.00,0.00,0.00,3.08,15.10,15.10,0.10,3.08,1655,2022-07-10 09:45:45.760,2022-07-10 10:45:45.759,20,0,0,16.057,55.937901,-4.406462,0.00,0.00,0.00,4.30,2.90,88.60,0,1,0,82,100,-6988,2764,16057,3087.50,7,P-GPS,1,1,0,0,0,0,33,1657446345759,0,0,0,0,0,0,27,,,,,,,0,0,0,-43.00,29.00,886.00,-748.00,0.00,811.00,6,150.00,0.00,30.78,0.00,0.00,0.00,0,,,100,100,0,2,0,0,0,2,0,,,,,0.0,0.0,0.0,0.0,0.0,0.0,0
55.937921,-4.406429,15.00,0.00,0.00,3.07,15.10,15.10,0.10,3.08,1762,2022-07-10 09:45:45.866,2022-07-10 10:45:45.866,20,0,0,16.057,55.937901,-4.406462,0.00,0.00,0.00,4.60,2.50,88.60,0,1,0,82,100,-6988,2764,16057,3087.50,7,P-GPS,1,1,0,0,0,0,32,1657446345866,0,0,0,0,0,0,27,,,,,,,0,0,0,-46.00,25.00,886.00,-747.00,0.00,811.00,6,150.00,0.00,30.66,0.00,0.00,0.00,0,,,100,100,0,2,0,0,0,2,0,,,,,0.0,0.0,0.0,0.0,0.0,0.0,0
55.937921,-4.406429,15.00,0.00,0.00,3.07,15.10,15.10,0.10,3.08,1860,2022-07-10 09:45:45.965,2022-07-10 10:45:45.964,20,0,0,16.057,55.937901,-4.406462,0.00,0.00,0.00,4.80,1.90,88.60,0,1,0,82,100,-6988,2764,16057,3087.50,7,P-GPS,1,1,0,0,0,0,32,1657446345964,0,0,0,0,0,0,27,,,,,,,0,0,0,-48.00,19.00,886.00,-746.00,0.00,811.00,6,150.00,0.00,30.65,0.00,0.00,0.00,0,,,100,100,0,2,0,0,0,2,0,,,,,0.0,0.0,0.0,0.0,0.0,0.0,0
55.937921,-4.406429,15.00,0.00,0.00,3.07,15.10,15.10,0.10,3.08,1963,2022-07-10 09:45:46.068,2022-07-10 10:45:46.067,20,0,0,16.057,55.937901,-4.406462,0.00,0.00,0.00,5.00,1.60,88.60,0,1,0,82,100,-6988,2764,16057,3087.50,7,P-GPS,1,1,0,0,0,0,31,1657446346067,0,0,0,0,0,0,27,,,,,,,0,0,0,-50.00,16.00,886.00,-746.00,0.00,811.00,6,150.00,0.00,30.66,0.00,0.00,0.00,0,,,100,100,0,2,0,0,0,2,0,,,,,0.0,0.0,0.0,0.0,0.0,0.0,0
55.937921,-4.406429,15.00,0.00,0.00,3.07,15.10,15.10,0.10,3.08,2059,2022-07-10 09:45:46.163,2022-07-10 10:45:46.163,20,0,0,16.057,55.937901,-4.406462,0.00,0.00,0.00,5.00,1.40,88.70,0,1,0,82,100,-6988,2764,16057,3087.50,7,P-GPS,1,1,0,0,0,0,30,1657446346163,0,0,0,0,0,0,27,,,,,,,0,0,0,-50.00,14.00,887.00,-745.00,0.00,811.00,6,150.00,0.00,30.65,0.00,0.00,0.00,0,,,100,100,0,2,0,0,0,2,0,,,,,0.0,0.0,0.0,0.0,0.0,0.0,0
55.937921,-4.406429,15.00,0.00,0.00,3.06,15.10,15.10,0.10,3.08,2160,2022-07-10 09:45:46.265,2022-07-10 10:45:46.264,20,0,0,16.057,55.937901,-4.406462,0.00,0.00,0.00,4.90,1.70,88.70,0,1,0,82,100,-6988,2764,16057,3087.50,7,P-GPS,1,1,0,0,0,0,29,1657446346264,0,0,0,0,0,0,27,,,,,,,0,0,0,-49.00,17.00,887.00,-744.00,0.00,811.00,6,150.00,0.00,30.59,0.00,0.00,0.00,0,,,100,100,0,2,0,0,0,2,0,,,,,0.0,0.0,0.0,0.0,0.0,0.0,0
55.937921,-4.406429,15.00,0.00,0.00,3.06,15.10,15.10,0.10,3.08,2257,2022-07-10 09:45:46.362,2022-07-10 10:45:46.361,20,0,0,16.057,55.937901,-4.406462,0.00,0.00,0.00,4.90,2.10,88.70,0,1,0,82,100,-6988,2764,16057,3087.50,7,P-GPS,1,1,0,0,0,0,29,1657446346361,0,0,0,0,0,0,27,,,,,,,0,0,0,-49.00,21.00,887.00,-743.00,0.00,811.00,6,150.00,0.00,30.59,0.00,0.00,0.00,0,,,100,100,0,2,0,0,0,2,0,,,,,0.0,0.0,0.0,0.0,0.0,0.0,0
55.937921,-4.406429,15.00,0.00,0.00,3.06,15.10,15.10,0.10,3.08,2349,2022-07-10 09:45:46.454,2022-07-10 10:45:46.453,20,0,0,16.057,55.937901,-4.406462,0.00,0.00,0.00,4.90,2.10,88.70,0,1,0,82,100,-6988,2764,16057,3087.50,7,P-GPS,1,1,0,0,0,0,29,1657446346453,0,0,0,0,0,0,27,,,,,,,0,0,0,-49.00,21.00,887.00,-743.00,0.00,811.00,6,150.00,0.00,30.59,0.00,0.00,0.00,0,,,100,100,0,2,0,0,0,2,0,,,,,0.0,0.0,0.0,0.0,0.0,0.0,0
55.937921,-4.406429,15.00,0.00,0.00,3.06,15.10,15.10,0.10,3.08,2457,2022-07-10 09:45:46.561,2022-07-10 10:45:46.561,20,0,0,16.057,55.937901,-4.406462,0.00,0.00,0.00,4.90,2.70,88.80,0,1,0,82,100,-6988,2764,16057,3087.50,7,P-GPS,1,1,0,0,0,0,29,1657446346561,0,0,0,0,0,0,27,,,,,,,0,0,0,-49.00,27.00,888.00,-742.00,0.00,811.00,6,150.00,0.00,30.62,0.00,0.00,0.00,0,,,100,100,0,2,0,0,0,2,0,,,,,0.0,0.0,0.0,0.0,0.0,0.0,0
55.937921,-4.406429,15.00,0.00,0.00,3.06,15.10,15.10,0.10,3.08,2562,2022-07-10 09:45:46.666,2022-07-10 10:45:46.666,20,0,0,16.057,55.937901,-4.406462,0.00,0.00,0.00,5.00,2.80,88.70,0,1,0,82,100,-6988,2764,16057,3087.50,7,P-GPS,1,1,0,0,0,0,28,1657446346666,0,0,0,0,0,0,27,,,,,,,0,0,0,-50.00,28.00,887.00,-741.00,0.00,811.00,6,150.00,0.00,30.61,0.00,0.00,0.00,0,,,100,100,0,2,0,0,0,2,0,,,,,0.0,0.0,0.0,0.0,0.0,0.0,0
55.937921,-4.406429,15.00,0.00,0.00,3.06,15.10,15.10,0.10,3.08,2659,2022-07-10 09:45:46.763,2022-07-10 10:45:46.763,20,0,0,16.057,55.937901,-4.406462,0.00,0.00,0.00,5.10,2.80,88.80,0,1,0,82,100,-7114,2760,16057,3087.50,7,P-GPS,1,1,0,0,0,0,25,1657446346763,0,0,0,0,0,0,27,,,,,,,0,0,0,-51.00,28.00,888.00,-741.00,0.00,811.00,6,150.00,0.00,30.64,0.00,0.00,0.00,0,,,100,100,0,2,0,0,0,2,0,,,,,0.0,0.0,0.0,0.0,0.0,0.0,0
55.937921,-4.406429,15.00,0.00,0.00,3.06,15.10,15.10,0.10,3.08,2760,2022-07-10 09:45:46.865,2022-07-10 10:45:46.864,20,0,0,16.057,55.937901,-4.406462,0.00,0.00,0.00,5.30,2.60,88.80,0,1,0,82,100,-7114,2760,16057,3087.50,7,P-GPS,1,1,0,0,0,0,25,1657446346864,0,0,0,0,0,0,27,,,,,,,0,0,0,-53.00,26.00,888.00,-740.00,0.00,811.00,6,150.00,0.00,30.64,0.00,0.00,0.00,0,,,100,100,0,2,0,0,0,2,0,,,,,0.0,0.0,0.0,0.0,0.0,0.0,0
55.937921,-4.406429,15.00,0.00,0.00,3.07,15.10,15.10,0.10,3.08,2859,2022-07-10 09:45:46.964,2022-07-10 10:45:46.963,20,0,0,16.057,55.937901,-4.406462,0.00,0.00,0.00,5.60,2.50,88.90,0,1,0,82,100,-7114,2760,16057,3087.50,7,P-GPS,1,1,0,0,0,0,13,1657446346963,0,0,0,0,0,0,27,,,,,,,0,0,0,-56.00,25.00,889.00,-739.00,0.00,811.00,6,150.00,0.00,30.67,0.00,0.00,0.00,0,,,100,100,0,2,0,0,0,2,0,,,,,0.0,0.0,0.0,0.0,0.0,0.0,0
55.937921,-4.406429,15.00,0.00,0.00,3.06,15.10,15.10,0.10,3.08,2965,2022-07-10 09:45:47.069,2022-07-10 10:45:47.069,20,0,0,16.057,55.937901,-4.406462,0.00,0.00,0.00,5.70,2.70,88.90,0,1,0,82,100,-7114,2760,16057,3087.50,7,P-GPS,1,1,0,0,0,0,8,1657446347069,0,0,0,0,0,0,27,,,,,,,0,0,0,-57.00,27.00,889.00,-739.00,0.00,811.00,6,150.00,0.00,30.57,0.00,0.00,0.00,0,,,100,100,0,2,0,0,0,2,0,,,,,0.0,0.0,0.0,0.0,0.0,0.0,0
55.937921,-4.406429,15.00,0.00,0.00,3.06,15.10,15.10,0.10,3.08,3059,2022-07-10 09:45:47.163,2022-07-10 10:45:47.163,20,0,0,16.057,55.937901,-4.406462,0.00,0.00,0.00,5.60,2.90,88.80,0,1,0,82,100,-7114,2760,16057,3087.50,7,P-GPS,1,1,0,0,0,0,8,1657446347163,0,0,0,0,0,0,27,,,,,,,0,0,0,-56.00,29.00,888.00,-739.00,0.00,811.00,6,150.00,0.00,30.60,0.00,0.00,0.00,0,,,100,100,0,2,0,0,0,2,0,,,,,0.0,0.0,0.0,0.0,0.0,0.0,0
55.937921,-4.406429,15.00,0.00,0.00,3.07,15.10,15.10,0.10,3.08,3163,2022-07-10 09:45:47.267,2022-07-10 10:45:47.267,20,0,0,16.057,55.937901,-4.406462,0.00,0.00,0.00,5.50,2.90,88.90,0,1,0,82,100,-7114,2760,16057,3087.50,7,P-GPS,1,1,0,0,0,0,7,1657446347267,0,0,0,0,0,0,27,,,,,,,0,0,0,-55.00,29.00,889.00,-739.00,0.00,811.00,6,150.00,0.00,30.70,0.00,0.00,0.00,0,,,100,100,0,2,0,0,0,2,0,,,,,0.0,0.0,0.0,0.0,0.0,0.0,0
55.937921,-4.406429,15.00,0.00,0.00,3.07,15.10,15.10,0.10,3.08,3261,2022-07-10 09:45:47.366,2022-07-10 10:45:47.365,20,0,0,16.057,55.937901,-4.406462,0.00,0.00,0.00,5.40,2.70,88.80,0,1,0,82,100,-7114,2760,16057,3087.50,7,P-GPS,1,1,0,0,0,0,6,1657446347365,0,0,0,0,0,0,27,,,,,,,0,0,0,-54.00,27.00,888.00,-739.00,0.00,811.00,6,150.00,0.00,30.73,0.00,0.00,0.00,0,,,100,100,0,2,0,0,0,2,0,,,,,0.0,0.0,0.0,0.0,0.0,0.0,0
55.937921,-4.406429,15.00,0.00,0.00,3.07,15.10,15.10,0.10,3.08,3370,2022-07-10 09:45:47.474,2022-07-10 10:45:47.474,20,0,0,16.057,55.937901,-4.406462,0.00,0.00,0.00,5.60,2.80,88.80,0,1,0,82,100,-7114,2760,16057,3087.50,7,P-GPS,1,1,0,0,0,0,6,1657446347474,0,0,0,0,0,0,27,,,,,,,0,0,0,-56.00,28.00,888.00,-739.00,0.00,811.00,6,150.00,0.00,30.68,0.00,0.00,0.00,0,,,100,100,0,2,0,0,0,2,0,,,,,0.0,0.0,0.0,0.0,0.0,0.0,0
55.937921,-4.406429,15.00,0.00,0.00,3.07,15.10,15.10,0.10,3.08,3460,2022-07-10 09:45:47.564,2022-07-10 10:45:47.564,20,0,0,16.057,55.937901,-4.406462,0.00,0.00,0.00,5.90,2.80,88.70,0,1,0,82,100,-7114,2760,16057,3087.50,7,P-GPS,1,1,0,0,0,0,7,1657446347564,0,0,0,0,0,0,27,,,,,,,0,0,0,-59.00,28.00,887.00,-739.00,0.00,811.00,6,150.00,0.00,30.70,0.00,0.00,0.00,0,,,100,100,0,2,0,0,0,2,0,,,,,0.0,0.0,0.0,0.0,0.0,0.0,0
55.937921,-4.406429,15.00,0.00,0.00,3.07,15.10,15.10,0.10,3.08,3571,2022-07-10 09:45:47.675,2022-07-10 10:45:47.675,20,0,0,16.057,55.937901,-4.406462,0.00,0.00,0.00,6.30,2.50,88.90,0,1,0,82,100,-7114,2760,16057,3087.50,7,P-GPS,1,1,0,0,0,0,6,1657446347675,0,0,0,0,0,0,27,,,,,,,0,0,0,-63.00,25.00,889.00,-739.00,0.00,811.00,6,150.00,0.00,30.66,0.00,0.00,0.00,0,,,100,100,0,2,0,0,0,2,0,,,,,0.0,0.0,0.0,0.0,0.0,0.0,0
55.937921,-4.406429,15.00,0.00,0.00,3.07,15.10,15.10,0.10,3.08,3659,2022-07-10 09:45:47.764,2022-07-10 10:45:47.763,20,0,0,16.042,55.937901,-4.406462,0.00,0.00,0.00,6.30,2.40,88.80,0,1,0,82,100,-7312,2758,16042,3087.50,7,P-GPS,1,1,0,0,0,0,4,1657446347763,0,0,0,0,0,0,27,,,,,,,0,0,0,-63.00,24.00,888.00,-739.00,0.00,811.00,6,150.00,0.00,30.69,0.00,0.00,0.00,0,,,100,100,0,2,0,0,0,2,0,,,,,0.0,0.0,0.0,0.0,0.0,0.0,0
55.937921,-4.406429,15.00,0.00,0.00,3.07,15.10,15.10,0.10,3.08,3771,2022-07-10 09:45:47.876,2022-07-10 10:45:47.875,20,0,0,16.042,55.937901,-4.406462,0.00,0.00,0.00,6.40,2.70,88.80,0,1,0,82,100,-7312,2758,16042,3087.50,7,P-GPS,1,1,0,0,0,0,2,1657446347875,0,0,0,0,0,0,27,,,,,,,0,0,0,-64.00,27.00,888.00,-739.00,0.00,811.00,6,150.00,0.00,30.68,0.00,0.00,0.00,0,,,100,100,0,2,0,0,0,2,0,,,,,0.0,0.0,0.0,0.0,0.0,0.0,0
55.937921,-4.406429,15.00,0.00,0.00,3.07,15.10,15.10,0.10,3.08,3857,2022-07-10 09:45:47.961,2022-07-10 10:45:47.961,20,0,0,16.042,55.937901,-4.406462,0.00,0.00,0.00,6.60,2.70,88.70,0,1,0,82,100,-7312,2758,16042,3087.50,7,P-GPS,1,1,0,0,0,0,2,1657446347961,0,0,0,0,0,0,27,,,,,,,0,0,0,-66.00,27.00,887.00,-739.00,0.00,811.00,6,150.00,0.00,30.73,0.00,0.00,0.00,0,,,100,100,0,2,0,0,0,2,0,,,,,0.0,0.0,0.0,0.0,0.0,0.0,0
55.937921,-4.406429,15.00,0.00,0.00,3.07,15.10,15.10,0.10,3.08,3974,2022-07-10 09:45:48.078,2022-07-10 10:45:48.078,20,0,0,16.042,55.937901,-4.406462,0.00,0.00,0.00,6.80,2.70,88.80,0,1,0,82,100,-7312,2758,16042,3087.50,7,P-GPS,1,1,0,0,0,0,2,1657446348078,0,0,0,0,0,0,27,,,,,,,0,0,0,-68.00,27.00,888.00,-739.00,0.00,811.00,6,150.00,0.00,30.66,0.00,0.00,0.00,0,,,100,100,0,2,0,0,0,2,0,,,,,0.0,0.0,0.0,0.0,0.0,0.0,0
55.937921,-4.406428,15.00,0.00,0.00,3.07,15.10,15.10,0.10,3.08,4060,2022-07-10 09:45:48.164,2022-07-10 10:45:48.164,19,0,0,16.042,55.937901,-4.406462,0.00,0.00,0.00,6.80,2.60,88.80,0,1,0,82,100,-7312,2758,16042,3087.50,7,P-GPS,1,1,0,0,0,0,2,1657446348164,0,0,0,0,0,0,27,,,,,,,0,0,0,-68.00,26.00,888.00,-739.00,0.00,811.00,6,150.00,0.00,30.69,0.00,0.00,0.00,0,,,100,100,0,2,0,0,0,2,0,,,,,0.0,0.0,0.0,0.0,0.0,0.0,0
55.937921,-4.406428,15.00,0.00,0.00,3.07,15.10,15.10,0.10,3.08,4170,2022-07-10 09:45:48.274,2022-07-10 10:45:48.274,19,0,0,16.042,55.937901,-4.406462,0.00,0.00,0.00,6.90,2.60,88.70,0,1,0,82,100,-7312,2758,16042,3087.50,7,P-GPS,1,1,0,0,0,0,2,1657446348274,0,0,0,0,0,0,27,,,,,,,0,0,0,-69.00,26.00,887.00,-739.00,0.00,811.00,6,150.00,0.00,30.70,0.00,0.00,0.00,0,,,100,100,0,2,0,0,0,2,0,,,,,0.0,0.0,0.0,0.0,0.0,0.0,0
55.937921,-4.406428,15.00,0.00,0.00,3.07,15.10,15.10,0.10,3.08,4270,2022-07-10 09:45:48.375,2022-07-10 10:45:48.374,19,0,0,16.042,55.937901,-4.406462,0.00,0.00,0.00,6.90,2.70,88.80,0,1,0,82,100,-7312,2758,16042,3087.50,7,P-GPS,1,1,0,0,0,0,2,1657446348374,0,0,0,0,0,0,27,,,,,,,0,0,0,-69.00,27.00,888.00,-739.00,0.00,811.00,6,150.00,0.00,30.72,0.00,0.00,0.00,0,,,100,100,0,2,0,0,0,2,0,,,,,0.0,0.0,0.0,0.0,0.0,0.0,0
55.937921,-4.406428,15.00,0.00,0.00,3.07,15.10,15.10,0.10,3.08,4362,2022-07-10 09:45:48.466,2022-07-10 10:45:48.466,19,0,0,16.042,55.937901,-4.406462,0.00,0.00,0.00,6.90,2.40,88.80,0,1,0,82,100,-7312,2758,16042,3087.50,7,P-GPS,1,1,0,0,0,0,2,1657446348466,0,0,0,0,0,0,27,,,,,,,0,0,0,-69.00,24.00,888.00,-739.00,0.00,811.00,6,150.00,0.00,30.70,0.00,0.00,0.00,0,,,100,100,0,2,0,0,0,2,0,,,,,0.0,0.0,0.0,0.0,0.0,0.0,0
55.937921,-4.406428,15.00,0.00,0.00,3.07,15.10,15.10,0.10,3.08,4461,2022-07-10 09:45:48.565,2022-07-10 10:45:48.565,19,0,0,16.042,55.937901,-4.406462,0.00,0.00,0.00,6.70,2.20,88.80,0,1,0,82,100,-7312,2758,16042,3087.50,7,P-GPS,1,1,0,0,0,0,1,1657446348565,0,0,0,0,0,0,27,,,,,,,0,0,0,-67.00,22.00,888.00,-739.00,0.00,811.00,6,150.00,0.00,30.71,0.00,0.00,0.00,0,,,100,100,0,2,0,0,0,2,0,,,,,0.0,0.0,0.0,0.0,0.0,0.0,0
55.937921,-4.406428,15.00,0.00,0.00,3.07,15.10,15.10,0.10,3.08,4557,2022-07-10 09:45:48.661,2022-07-10 10:45:48.661,19,0,0,16.042,55.937901,-4.406462,0.00,0.00,0.00,6.70,2.10,88.70,0,1,0,82,100,-7312,2758,16042,3087.50,7,P-GPS,1,1,0,0,0,0,1,1657446348661,0,0,0,0,0,0,27,,,,,,,0,0,0,-67.00,21.00,887.00,-739.00,0.00,811.00,6,150.00,0.00,30.71,0.00,0.00,0.00,0,,,100,100,0,2,0,0,0,2,0,,,,,0.0,0.0,0.0,0.0,0.0,0.0,0
55.937921,-4.406428,15.00,0.00,0.00,3.07,15.10,15.10,0.10,3.08,4658,2022-07-10 09:45:48.763,2022-07-10 10:45:48.762,19,0,0,16.028,55.937901,-4.406462,0.00,0.00,0.00,6.70,2.10,88.80,0,1,0,82,100,-7526,2756,16028,3087.50,7,P-GPS,1,1,0,0,0,0,1,1657446348762,0,0,0,0,0,0,27,,,,,,,0,0,0,-67.00,21.00,888.00,-739.00,0.00,811.00,6,150.00,0.00,30.73,0.00,0.00,0.00,0,,,100,100,0,2,0,0,0,2,0,,,,,0.0,0.0,0.0,0.0,0.0,0.0,0
55.937921,-4.406428,15.00,0.00,0.00,3.07,15.10,15.10,0.10,3.08,4762,2022-07-10 09:45:48.867,2022-07-10 10:45:48.866,19,0,0,16.028,55.937901,-4.406462,0.00,0.00,0.00,6.70,1.90,88.70,0,1,0,82,100,-7526,2756,16028,3087.50,7,P-GPS,1,1,0,0,0,0,1,1657446348866,0,0,0,0,0,0,27,,,,,,,0,0,0,-67.00,19.00,887.00,-739.00,0.00,811.00,6,150.00,0.00,30.73,0.00,0.00,0.00,0,,,100,100,0,2,0,0,0,2,0,,,,,0.0,0.0,0.0,0.0,0.0,0.0,0
55.937921,-4.406428,15.00,0.00,0.00,3.07,15.10,15.10,0.10,3.08,4861,2022-07-10 09:45:48.966,2022-07-10 10:45:48.965,19,0,0,16.028,55.937901,-4.406462,0.00,0.00,0.00,6.70,1.90,88.70,0,1,0,82,100,-7526,2756,16028,3087.50,7,P-GPS,1,1,0,0,0,0,0,1657446348965,0,0,0,0,0,0,27,,,,,,,0,0,0,-67.00,19.00,887.00,-739.00,0.00,811.00,6,150.00,0.00,30.73,0.00,0.00,0.00,0,,,100,100,0,2,0,0,0,2,0,,,,,0.0,0.0,0.0,0.0,0.0,0.0,0
55.937921,-4.406428,15.00,0.00,0.00,3.07,15.10,15.10,0.10,3.08,4962,2022-07-10 09:45:49.066,2022-07-10 10:45:49.066,19,0,0,16.028,55.937901,-4.406462,0.00,0.00,0.00,6.60,2.10,88.70,0,1,0,82,100,-7526,2756,16028,3087.50,7,P-GPS,1,1,0,0,0,0,0,1657446349066,0,0,0,0,0,0,27,,,,,,,0,0,0,-66.00,21.00,887.00,-739.00,0.00,811.00,6,150.00,0.00,30.70,0.00,0.00,0.00,0,,,100,100,0,2,0,0,0,2,0,,,,,0.0,0.0,0.0,0.0,0.0,0.0,0
55.937921,-4.406428,15.00,0.00,0.00,3.07,15.10,15.10,0.10,3.08,5061,2022-07-10 09:45:49.165,2022-07-10 10:45:49.165,19,0,0,16.028,55.937901,-4.406462,0.00,0.00,0.00,6.40,1.90,88.70,0,1,0,82,100,-7526,2756,16028,3087.50,7,P-GPS,1,1,0,0,0,0,0,1657446349165,0,0,0,0,0,0,27,,,,,,,0,0,0,-64.00,19.00,887.00,-739.00,0.00,811.00,6,150.00,0.00,30.70,0.00,0.00,0.00,0,,,100,100,0,2,0,0,0,2,0,,,,,0.0,0.0,0.0,0.0,0.0,0.0,0
55.937921,-4.406428,15.00,0.00,0.00,3.06,15.10,15.10,0.10,3.08,5170,2022-07-10 09:45:49.275,2022-07-10 10:45:49.274,19,0,0,16.028,55.937901,-4.406462,0.00,0.00,0.00,6.40,2.30,88.70,0,1,0,82,100,-7526,2756,16028,3087.50,7,P-GPS,1,1,0,0,0,0,0,1657446349274,4016,3990,3999,4004,0,0,27,,,,,,,0,0,0,-64.00,23.00,887.00,-739.00,0.00,811.00,6,150.00,0.00,30.65,0.00,0.00,0.00,0,,,100,100,0,2,0,0,0,2,0,,,,,0.0,0.0,0.0,0.0,0.0,0.0,0
55.937921,-4.406428,15.00,0.00,0.00,3.07,15.10,15.10,0.10,3.08,5262,2022-07-10 09:45:49.366,2022-07-10 10:45:49.366,20,0,0,16.028,55.937901,-4.406462,0.00,0.00,0.00,6.70,2.40,88.70,0,1,0,82,100,-7526,2756,16028,3087.50,7,P-GPS,1,1,0,0,0,0,0,1657446349366,4016,3990,3999,4004,0,0,27,,,,,,,0,0,0,-67.00,24.00,887.00,-739.00,0.00,811.00,6,150.00,0.00,30.65,0.00,0.00,0.00,0,,,100,100,0,2,0,0,0,2,0,,,,,0.0,0.0,0.0,0.0,0.0,0.0,0
55.937921,-4.406428,15.00,0.00,0.00,3.06,15.10,15.10,0.10,3.08,5362,2022-07-10 09:45:49.468,2022-07-10 10:45:49.466,20,0,0,16.028,55.937901,-4.406462,0.00,0.00,0.00,6.60,2.50,88.70,0,1,0,82,100,-7526,2756,16028,3087.50,7,P-GPS,1,1,0,0,0,0,0,1657446349466,4016,3990,3999,4004,0,0,27,,,,,,,0,0,0,-66.00,25.00,887.00,-739.00,0.00,811.00,6,150.00,0.00,30.55,0.00,0.00,0.00,0,,,100,100,0,2,0,0,0,2,0,,,,,0.0,0.0,0.0,0.0,0.0,0.0,0
55.937921,-4.406428,15.00,0.00,0.00,3.05,15.10,15.10,0.10,3.08,5458,2022-07-10 09:45:49.563,2022-07-10 10:45:49.562,20,0,0,16.028,55.937901,-4.406462,0.00,0.00,0.00,6.40,2.30,88.70,0,1,0,82,100,-7526,2756,16028,3087.50,7,P-GPS,1,1,0,0,0,0,0,1657446349562,4016,3990,3999,4004,0,0,27,,,,,,,0,0,0,-64.00,23.00,887.00,-739.00,0.00,811.00,6,150.00,0.00,30.54,0.00,0.00,0.00,0,,,100,100,0,2,0,0,0,2,0,,,,,0.0,0.0,0.0,0.0,0.0,0.0,0
55.937921,-4.406428,15.00,0.00,0.00,3.05,15.10,15.10,0.10,3.08,5563,2022-07-10 09:45:49.668,2022-07-10 10:45:49.667,20,0,0,16.009,55.937901,-4.406462,0.00,0.00,0.00,6.50,2.20,88.70,0,1,0,81,100,-7653,2754,16009,3087.50,7,P-GPS,1,1,0,0,0,0,0,1657446349667,4016,3990,3999,4004,0,0,27,,,,,,,0,0,0,-65.00,22.00,887.00,-739.00,0.00,811.00,6,150.00,0.00,30.50,0.00,0.00,0.00,0,,,100,100,0,2,0,0,0,2,0,,,,,0.0,0.0,0.0,0.0,0.0,0.0,0
55.937921,-4.406428,15.00,0.00,0.00,3.05,15.10,15.10,0.10,3.08,5675,2022-07-10 09:45:49.780,2022-07-10 10:45:49.779,20,0,0,16.009,55.937901,-4.406462,0.00,0.00,0.00,6.80,1.90,88.70,0,1,0,81,100,-7653,2754,16009,3087.50,7,P-GPS,1,1,0,0,0,0,0,1657446349779,4016,3990,3999,4004,0,0,27,,,,,,,0,0,0,-68.00,19.00,887.00,-739.00,0.00,811.00,6,150.00,0.00,30.48,0.00,0.00,0.00,0,,,100,100,0,2,0,0,0,2,0,,,,,0.0,0.0,0.0,0.0,0.0,0.0,0
55.937921,-4.406429,15.00,0.00,0.00,3.03,15.10,15.10,0.10,3.08,5761,2022-07-10 09:45:49.865,2022-07-10 10:45:49.865,20,0,0,16.009,55.937901,-4.406462,0.00,0.00,0.00,6.90,1.90,88.70,0,1,0,81,100,-7653,2754,16009,3087.50,7,P-GPS,1,1,0,0,0,0,0,1657446349865,4016,3990,3999,4004,0,0,27,,,,,,,0,0,0,-69.00,19.00,887.00,-739.00,0.00,811.00,6,150.00,0.00,30.31,0.00,0.00,0.00,0,,,100,100,0,2,0,0,0,2,0,,,,,0.0,0.0,0.0,0.0,0.0,0.0,0
55.937921,-4.406429,15.00,0.00,0.00,3.03,15.10,15.10,0.10,3.08,5930,2022-07-10 09:45:50.034,2022-07-10 10:45:50.034,20,0,0,16.009,55.937901,-4.406462,0.00,0.00,0.00,7.10,2.20,88.70,0,1,0,81,100,-7653,2754,16009,3087.50,7,P-GPS,1,1,0,0,0,0,0,1657446350034,4016,3990,3999,4004,0,0,27,,,,,,,0,0,0,-71.00,22.00,887.00,-739.00,0.00,811.00,6,150.00,0.00,30.29,0.00,0.00,0.00,0,,,100,100,0,2,0,0,0,2,0,,,,,0.0,0.0,0.0,0.0,0.0,0.0,0
55.937921,-4.406429,15.00,0.00,0.00,3.03,15.10,15.10,0.10,3.08,6056,2022-07-10 09:45:50.161,2022-07-10 10:45:50.161,20,0,0,16.009,55.937901,-4.406462,0.00,0.00,0.00,7.10,1.90,88.80,0,1,0,81,100,-7653,2754,16009,3087.50,7,P-GPS,1,1,0,0,0,0,0,1657446350160,4016,3990,3999,4004,0,0,27,,,,,,,0,0,0,-71.00,19.00,888.00,-739.00,0.00,811.00,6,150.00,0.00,30.33,0.00,0.00,0.00,0,,,100,100,0,2,0,0,0,2,0,,,,,0.0,0.0,0.0,0.0,0.0,0.0,0
55.937921,-4.406429,15.00,0.00,0.00,3.03,15.10,15.10,0.10,3.08,6161,2022-07-10 09:45:50.266,2022-07-10 10:45:50.265,20,0,0,16.009,55.937901,-4.406462,0.00,0.00,0.00,7.10,1.70,88.90,0,1,0,81,100,-7653,2754,16009,3087.50,7,P-GPS,1,1,0,0,0,0,0,1657446350265,4016,3990,3999,4004,0,0,27,,,,,,,0,0,0,-71.00,17.00,889.00,-739.00,0.00,811.00,6,150.00,0.00,30.25,0.00,0.00,0.00,0,,,100,100,0,2,0,0,0,2,0,,,,,0.0,0.0,0.0,0.0,0.0,0.0,0
55.937921,-4.406429,15.00,0.00,0.00,3.02,15.10,15.10,0.10,3.08,6258,2022-07-10 09:45:50.362,2022-07-10 10:45:50.362,20,0,0,16.009,55.937901,-4.406462,0.00,0.00,0.00,6.80,2.20,88.90,0,1,0,81,100,-7653,2754,16009,3087.50,7,P-GPS,1,1,0,0,0,0,0,1657446350362,4016,3990,3999,4004,0,0,27,,,,,,,0,0,0,-68.00,22.00,889.00,-739.00,0.00,811.00,6,150.00,0.00,30.24,0.00,0.00,0.00,0,,,100,100,0,2,0,0,0,2,0,,,,,0.0,0.0,0.0,0.0,0.0,0.0,0
55.937921,-4.406429,15.00,0.00,0.00,3.02,15.10,15.10,0.10,3.08,6362,2022-07-10 09:45:50.466,2022-07-10 10:45:50.466,20,0,0,16.009,55.937901,-4.406462,0.00,0.00,0.00,6.40,3.00,88.80,0,1,0,81,100,-7653,2754,16009,3087.50,7,P-GPS,1,1,0,0,0,0,0,1657446350466,4016,3990,3999,4004,0,0,27,,,,,,,0,0,0,-64.00,30.00,888.00,-739.00,0.00,811.00,6,150.00,0.00,30.17,0.00,0.00,0.00,0,,,100,100,0,2,0,0,0,2,0,,,,,0.0,0.0,0.0,0.0,0.0,0.0,0
55.937921,-4.406429,15.00,0.00,0.00,3.01,15.10,15.10,0.10,3.08,6461,2022-07-10 09:45:50.565,2022-07-10 10:45:50.565,20,0,0,16.009,55.937901,-4.406462,0.00,0.00,0.00,6.10,3.30,88.70,0,1,0,81,100,-7653,2754,16009,3087.50,7,P-GPS,1,1,0,0,0,0,0,1657446350565,4016,3990,3999,4004,0,0,27,,,,,,,0,0,0,-61.00,33.00,887.00,-739.00,0.00,811.00,6,150.00,0.00,30.14,0.00,0.00,0.00,0,,,100,100,0,2,0,0,0,2,0,,,,,0.0,0.0,0.0,0.0,0.0,0.0,0
55.937921,-4.406429,15.00,0.00,0.00,3.02,15.10,15.10,0.10,3.08,6560,2022-07-10 09:45:50.664,2022-07-10 10:45:50.664,20,0,0,16.009,55.937901,-4.406462,0.00,0.00,0.00,5.70,3.20,88.70,0,1,0,81,100,-7653,2754,16009,3087.50,7,P-GPS,1,1,0,0,0,0,0,1657446350664,4016,3990,3999,4004,0,0,27,,,,,,,0,0,0,-57.00,32.00,887.00,-739.00,0.00,811.00,6,150.00,0.00,30.16,0.00,0.00,0.00,0,,,100,100,0,2,0,0,0,2,0,,,,,0.0,0.0,0.0,0.0,0.0,0.0,0
55.937921,-4.406429,15.00,0.00,0.00,3.01,15.10,15.10,0.10,3.08,6658,2022-07-10 09:45:50.762,2022-07-10 10:45:50.762,20,0,0,16.015,55.937901,-4.406462,0.00,0.00,0.00,5.80,2.70,88.60,0,1,0,81,100,-7756,2752,16015,3087.50,7,P-GPS,1,1,0,0,0,0,0,1657446350762,4016,3990,3999,4004,0,0,27,,,,,,,0,0,0,-58.00,27.00,886.00,-739.00,0.00,811.00,6,150.00,0.00,30.10,0.00,0.00,0.00,0,,,100,100,0,2,0,0,0,2,0,,,,,0.0,0.0,0.0,0.0,0.0,0.0,0
55.937921,-4.406429,15.00,0.00,0.00,3.01,15.10,15.10,0.10,3.08,6760,2022-07-10 09:45:50.867,2022-07-10 10:45:50.864,20,0,0,16.015,55.937901,-4.406462,0.00,0.00,0.00,5.70,2.00,88.80,0,1,0,81,100,-7756,2752,16015,3087.50,7,P-GPS,1,1,0,0,0,0,0,1657446350864,4016,3990,3999,4004,0,0,27,,,,,,,0,0,0,-57.00,20.00,888.00,-739.00,0.00,811.00,6,150.00,0.00,30.14,0.00,0.00,0.00,0,,,100,100,0,2,0,0,0,2,0,,,,,0.0,0.0,0.0,0.0,0.0,0.0,0
55.937921,-4.406429,15.00,0.00,0.00,3.01,15.10,15.10,0.10,3.08,6861,2022-07-10 09:45:50.965,2022-07-10 10:45:50.965,20,0,0,16.015,55.937901,-4.406462,0.00,0.00,0.00,5.90,2.30,88.70,0,1,0,81,100,-7756,2752,16015,3087.50,7,P-GPS,1,1,0,0,0,0,0,1657446350965,4016,3990,3999,4004,0,0,27,,,,,,,0,0,0,-59.00,23.00,887.00,-739.00,0.00,811.00,6,150.00,0.00,30.09,0.00,0.00,0.00,0,,,100,100,0,2,0,0,0,2,0,,,,,0.0,0.0,0.0,0.0,0.0,0.0,0
55.937921,-4.406429,15.00,0.00,0.00,2.99,15.10,15.10,0.10,3.08,6959,2022-07-10 09:45:51.064,2022-07-10 10:45:51.063,20,0,0,16.015,55.937901,-4.406462,0.00,0.00,0.00,5.30,2.90,88.50,0,1,0,81,100,-7756,2752,16015,3087.50,7,P-GPS,1,1,0,0,0,0,0,1657446351063,4016,3990,3999,4004,0,0,27,,,,,,,0,0,0,-53.00,29.00,885.00,-739.00,0.00,811.00,6,150.00,0.00,29.93,0.00,0.00,0.00,0,,,100,100,0,2,0,0,0,2,0,,,,,0.0,0.0,0.0,0.0,0.0,0.0,0
55.937921,-4.406430,15.00,0.00,0.00,2.99,15.10,15.10,0.10,3.08,7059,2022-07-10 09:45:51.163,2022-07-10 10:45:51.163,20,0,0,16.015,55.937901,-4.406462,0.00,0.00,0.00,5.20,2.60,88.60,0,1,0,81,100,-7756,2752,16015,3087.50,7,P-GPS,1,1,0,0,0,0,0,1657446351163,4016,3990,3999,4004,0,0,27,,,,,,,0,0,0,-52.00,26.00,886.00,-739.00,0.00,811.00,6,150.00,0.00,29.86,0.00,0.00,0.00,0,,,100,100,0,2,0,0,0,2,0,,,,,0.0,0.0,0.0,0.0,0.0,0.0,0
55.937921,-4.406430,15.00,0.00,0.00,2.98,15.10,15.10,0.10,3.08,7163,2022-07-10 09:45:51.267,2022-07-10 10:45:51.267,20,0,0,16.015,55.937901,-4.406462,0.00,0.00,0.00,5.50,2.10,88.60,0,1,0,81,100,-7756,2752,16015,3087.50,7,P-GPS,1,1,0,0,0,0,0,1657446351267,4016,3990,3999,4004,0,0,27,,,,,,,0,0,0,-55.00,21.00,886.00,-739.00,0.00,811.00,6,150.00,0.00,29.80,0.00,0.00,0.00,0,,,100,100,0,2,0,0,0,2,0,,,,,0.0,0.0,0.0,0.0,0.0,0.0,0
55.937921,-4.406430,15.00,0.00,0.00,2.97,15.10,15.10,0.10,3.08,7257,2022-07-10 09:45:51.361,2022-07-10 10:45:51.361,20,0,0,16.015,55.937901,-4.406462,0.00,0.00,0.00,6.00,1.70,88.60,0,1,0,81,100,-7756,2752,16015,3087.50,7,P-GPS,1,1,0,0,0,0,0,1657446351361,4016,3990,3999,4004,0,0,27,,,,,,,0,0,0,-60.00,17.00,886.00,-739.00,0.00,811.00,6,150.00,0.00,29.73,0.00,0.00,0.00,0,,,100,100,0,2,0,0,0,2,0,,,,,0.0,0.0,0.0,0.0,0.0,0.0,0
55.937921,-4.406430,15.00,0.00,0.00,2.98,15.10,15.10,0.10,3.08,7361,2022-07-10 09:45:51.466,2022-07-10 10:45:51.465,20,0,0,16.015,55.937901,-4.406462,0.00,0.00,0.00,6.20,1.40,88.60,0,1,0,81,100,-7756,2752,16015,3087.50,7,P-GPS,1,1,0,0,0,0,0,1657446351465,4016,3990,3999,4004,0,0,27,,,,,,,0,0,0,-62.00,14.00,886.00,-739.00,0.00,811.00,6,150.00,0.00,29.79,0.00,0.00,0.00,0,,,100,100,0,2,0,0,0,2,0,,,,,0.0,0.0,0.0,0.0,0.0,0.0,0
55.937921,-4.406430,15.00,0.00,0.00,2.97,15.10,15.10,0.10,3.08,7458,2022-07-10 09:45:51.562,2022-07-10 10:45:51.562,20,0,0,16.015,55.937901,-4.406462,0.00,0.00,0.00,6.30,1.10,88.70,0,1,0,81,100,-7756,2752,16015,3087.50,7,P-GPS,1,1,0,0,0,0,0,1657446351562,4016,3990,3999,4004,0,0,27,,,,,,,0,0,0,-63.00,11.00,887.00,-739.00,0.00,811.00,6,150.00,0.00,29.74,0.00,0.00,0.00,0,,,100,100,0,2,0,0,0,2,0,,,,,0.0,0.0,0.0,0.0,0.0,0.0,0
55.937921,-4.406430,15.00,0.00,0.00,2.96,15.10,15.10,0.10,3.08,7560,2022-07-10 09:45:51.664,2022-07-10 10:45:51.664,20,0,0,16.015,55.937901,-4.406462,0.00,0.00,0.00,6.30,1.10,88.70,0,1,0,81,100,-7756,2752,16015,3087.50,7,P-GPS,1,1,0,0,0,0,0,1657446351664,4016,3990,3999,4004,0,0,27,,,,,,,0,0,0,-63.00,11.00,887.00,-739.00,0.00,811.00,6,150.00,0.00,29.57,0.00,0.00,0.00,0,,,100,100,0,2,0,0,0,2,0,,,,,0.0,0.0,0.0,0.0,0.0,0.0,0
55.937921,-4.406430,15.00,0.00,0.00,2.95,15.10,15.10,0.10,3.08,7678,2022-07-10 09:45:51.782,2022-07-10 10:45:51.782,20,0,0,16.004,55.937901,-4.406462,0.00,0.00,0.00,6.20,1.70,88.70,0,1,0,81,100,-7762,2750,16004,3087.50,7,P-GPS,1,1,0,0,0,0,0,1657446351782,4016,3990,3999,4004,0,0,27,,,,,,,0,0,0,-62.00,17.00,887.00,-739.00,0.00,811.00,6,150.00,0.00,29.53,0.00,0.00,0.00,0,,,100,100,0,2,0,0,0,2,0,,,,,0.0,0.0,0.0,0.0,0.0,0.0,0
55.937921,-4.406430,15.00,0.00,0.00,2.96,15.10,15.10,0.10,3.08,7776,2022-07-10 09:45:51.880,2022-07-10 10:45:51.880,20,0,0,16.004,55.937901,-4.406462,0.00,0.00,0.00,6.20,2.20,88.60,0,1,0,81,100,-7762,2750,16004,3087.50,7,P-GPS,1,1,0,0,0,0,0,1657446351880,4016,3990,3999,4004,0,0,27,,,,,,,0,0,0,-62.00,22.00,886.00,-739.00,0.00,811.00,6,150.00,0.00,29.58,0.00,0.00,0.00,0,,,100,100,0,2,0,0,0,2,0,,,,,0.0,0.0,0.0,0.0,0.0,0.0,0
55.937921,-4.406431,15.00,0.00,0.00,2.95,15.10,15.10,0.10,3.08,7963,2022-07-10 09:45:52.067,2022-07-10 10:45:52.067,20,0,0,16.004,55.937901,-4.406462,0.00,0.00,0.00,6.10,2.70,88.70,0,1,0,81,100,-7762,2750,16004,3087.50,7,P-GPS,1,1,0,0,0,0,0,1657446352067,4016,3990,3999,4004,0,0,27,,,,,,,0,0,0,-61.00,27.00,887.00,-739.00,0.00,811.00,6,150.00,0.00,29.49,0.00,0.00,0.00,0,,,100,100,0,2,0,0,0,2,0,,,,,0.0,0.0,0.0,0.0,0.0,0.0,0
55.937921,-4.406431,15.00,0.00,0.00,2.95,15.10,15.10,0.10,3.08,8065,2022-07-10 09:45:52.169,2022-07-10 10:45:52.169,20,0,0,16.004,55.937901,-4.406462,0.00,0.00,0.00,5.90,2.80,88.70,0,1,0,81,100,-7762,2750,16004,3087.50,7,P-GPS,1,1,0,0,0,0,0,1657446352169,4016,3990,3999,4004,0,0,27,,,,,,,0,0,0,-59.00,28.00,887.00,-739.00,0.00,811.00,6,150.00,0.00,29.46,0.00,0.00,0.00,0,,,100,100,0,2,0,0,0,2,0,,,,,0.0,0.0,0.0,0.0,0.0,0.0,0
55.937921,-4.406431,15.00,0.00,0.00,2.94,15.10,15.10,0.10,3.08,8166,2022-07-10 09:45:52.271,2022-07-10 10:45:52.270,20,0,0,16.004,55.937901,-4.406462,0.00,0.00,0.00,5.80,2.80,88.70,0,1,0,81,100,-7762,2750,16004,3087.50,7,P-GPS,1,1,0,0,0,0,0,1657446352270,4016,3990,3999,4004,0,0,27,,,,,,,0,0,0,-58.00,28.00,887.00,-739.00,0.00,811.00,6,150.00,0.00,29.38,0.00,0.00,0.00,0,,,100,100,0,2,0,0,0,2,0,,,,,0.0,0.0,0.0,0.0,0.0,0.0,0
55.937921,-4.406431,15.00,0.00,0.00,2.93,15.10,15.10,0.10,3.08,8256,2022-07-10 09:45:52.361,2022-07-10 10:45:52.360,20,0,0,16.004,55.937901,-4.406462,0.00,0.00,0.00,5.70,2.70,88.60,0,1,0,81,100,-7762,2750,16004,3087.50,7,P-GPS,1,1,0,0,0,0,0,1657446352360,4016,3990,3999,4004,0,0,27,,,,,,,0,0,0,-57.00,27.00,886.00,-739.00,0.00,811.00,6,150.00,0.00,29.33,0.00,0.00,0.00,0,,,100,100,0,2,0,0,0,2,0,,,,,0.0,0.0,0.0,0.0,0.0,0.0,0
55.937921,-4.406431,15.00,0.00,0.00,2.93,15.10,15.10,0.10,3.08,8360,2022-07-10 09:45:52.464,2022-07-10 10:45:52.464,20,0,0,16.004,55.937901,-4.406462,0.00,0.00,0.00,5.80,2.40,88.70,0,1,0,81,100,-7762,2750,16004,3087.50,7,P-GPS,1,1,0,0,0,0,0,1657446352464,4016,3990,3999,4004,0,0,27,,,,,,,0,0,0,-58.00,24.00,887.00,-739.00,0.00,811.00,6,150.00,0.00,29.29,0.00,0.00,0.00,0,,,100,100,0,2,0,0,0,2,0,,,,,0.0,0.0,0.0,0.0,0.0,0.0,0
55.937921,-4.406431,15.00,0.00,0.00,2.92,15.10,15.10,0.10,3.08,8478,2022-07-10 09:45:52.583,2022-07-10 10:45:52.582,20,0,0,16.004,55.937901,-4.406462,0.00,0.00,0.00,5.80,2.30,88.70,0,1,0,81,100,-7762,2750,16004,3087.50,7,P-GPS,1,1,0,0,0,0,0,1657446352582,4016,3990,3999,4004,0,0,27,,,,,,,0,0,0,-58.00,23.00,887.00,-739.00,0.00,811.00,6,150.00,0.00,29.24,0.00,0.00,0.00,0,,,100,100,0,2,0,0,0,2,0,,,,,0.0,0.0,0.0,0.0,0.0,0.0,0
55.937921,-4.406431,15.00,0.00,0.00,2.93,15.10,15.10,0.10,3.08,8566,2022-07-10 09:45:52.670,2022-07-10 10:45:52.670,20,0,0,16.004,55.937901,-4.406462,0.00,0.00,0.00,5.80,2.50,88.80,0,1,0,81,100,-7762,2750,16004,3087.50,7,P-GPS,1,1,0,0,0,0,0,1657446352670,4016,3990,3999,4004,0,0,27,,,,,,,0,0,0,-58.00,25.00,888.00,-739.00,0.00,811.00,6,150.00,0.00,29.32,0.00,0.00,0.00,0,,,100,100,0,2,0,0,0,2,0,,,,,0.0,0.0,0.0,0.0,0.0,0.0,0
55.937921,-4.406431,15.00,0.00,0.00,2.93,15.10,15.10,0.10,3.08,8661,2022-07-10 09:45:52.765,2022-07-10 10:45:52.765,20,0,0,16.005,55.937901,-4.406462,0.00,0.00,0.00,5.70,2.60,88.80,0,1,0,81,100,-7707,2748,16005,3088.50,7,P-GPS,1,1,0,0,0,0,0,1657446352765,4016,3990,3999,4004,0,0,27,,,,,,,0,0,0,-57.00,26.00,888.00,-739.00,0.00,811.00,6,150.00,0.00,29.29,0.00,0.00,0.00,0,,,100,100,0,2,0,0,0,2,0,,,,,0.0,0.0,0.0,0.0,0.0,0.0,0
55.937921,-4.406432,15.00,0.00,0.00,2.93,15.10,15.10,0.10,3.08,8769,2022-07-10 09:45:52.873,2022-07-10 10:45:52.873,20,0,0,16.005,55.937901,-4.406462,0.00,0.00,0.00,5.70,2.70,88.70,0,1,0,81,100,-7707,2748,16005,3088.50,7,P-GPS,1,1,0,0,0,0,0,1657446352873,4016,3990,3999,4004,0,0,27,,,,,,,0,0,0,-57.00,27.00,887.00,-739.00,0.00,811.00,6,150.00,0.00,29.34,0.00,0.00,0.00,0,,,100,100,0,2,0,0,0,2,0,,,,,0.0,0.0,0.0,0.0,0.0,0.0,0
55.937921,-4.406432,15.00,0.00,0.00,2.93,15.10,15.10,0.10,3.08,8863,2022-07-10 09:45:52.967,2022-07-10 10:45:52.967,20,0,0,16.005,55.937901,-4.406462,0.00,0.00,0.00,5.70,2.90,88.80,0,1,0,81,100,-7707,2748,16005,3088.50,7,P-GPS,1,1,0,0,0,0,0,1657446352967,4016,3990,3999,4004,0,0,27,,,,,,,0,0,0,-57.00,29.00,888.00,-739.00,0.00,811.00,6,150.00,0.00,29.32,0.00,0.00,0.00,0,,,100,100,0,2,0,0,0,2,0,,,,,0.0,0.0,0.0,0.0,0.0,0.0,0
55.937921,-4.406432,15.00,0.00,0.00,2.92,15.10,15.10,0.10,3.08,8960,2022-07-10 09:45:53.065,2022-07-10 10:45:53.065,20,0,0,16.005,55.937901,-4.406462,0.00,0.00,0.00,5.60,3.00,88.80,0,1,0,81,100,-7707,2748,16005,3088.50,7,P-GPS,1,1,0,0,0,0,0,1657446353064,4016,3990,3999,4004,0,0,27,,,,,,,0,0,0,-56.00,30.00,888.00,-739.00,0.00,811.00,6,150.00,0.00,29.19,0.00,0.00,0.00,0,,,100,100,0,2,0,0,0,2,0,,,,,0.0,0.0,0.0,0.0,0.0,0.0,0
55.937921,-4.406432,15.00,0.00,0.00,2.92,15.10,15.10,0.10,3.08,9062,2022-07-10 09:45:53.166,2022-07-10 10:45:53.166,20,0,0,16.005,55.937901,-4.406462,0.00,0.00,0.00,5.40,2.90,88.70,0,1,0,81,100,-7707,2748,16005,3088.50,7,P-GPS,1,1,0,0,0,0,0,1657446353166,4016,3990,3999,4004,0,0,27,,,,,,,0,0,0,-54.00,29.00,887.00,-739.00,0.00,811.00,6,150.00,0.00,29.15,0.00,0.00,0.00,0,,,100,100,0,2,0,0,0,2,0,,,,,0.0,0.0,0.0,0.0,0.0,0.0,0
55.937921,-4.406432,15.00,0.00,0.00,2.92,15.10,15.10,0.10,3.08,9164,2022-07-10 09:45:53.268,2022-07-10 10:45:53.268,20,0,0,16.005,55.937901,-4.406462,0.00,0.00,0.00,5.40,2.90,88.70,0,1,0,81,100,-7707,2748,16005,3088.50,7,P-GPS,1,1,0,0,0,0,0,1657446353268,4016,3990,3999,4004,0,0,27,,,,,,,0,0,0,-54.00,29.00,887.00,-739.00,0.00,811.00,6,150.00,0.00,29.22,0.00,0.00,0.00,0,,,100,100,0,2,0,0,0,2,0,,,,,0.0,0.0,0.0,0.0,0.0,0.0,0
55.937921,-4.406432,15.00,0.00,0.00,2.92,15.10,15.10,0.10,3.08,9260,2022-07-10 09:45:53.364,2022-07-10 10:45:53.364,20,0,0,16.005,55.937901,-4.406462,0.00,0.00,0.00,5.80,3.00,88.70,0,1,0,81,100,-7707,2748,16005,3088.50,7,P-GPS,1,1,0,0,0,0,0,1657446353364,4016,3990,3999,4004,0,0,27,,,,,,,0,0,0,-58.00,30.00,887.00,-739.00,0.00,811.00,6,150.00,0.00,29.20,0.00,0.00,0.00,0,,,100,100,0,2,0,0,0,2,0,,,,,0.0,0.0,0.0,0.0,0.0,0.0,0
55.937921,-4.406432,15.00,0.00,0.00,2.92,15.10,15.10,0.10,3.08,9349,2022-07-10 09:45:53.453,2022-07-10 10:45:53.453,20,0,0,16.005,55.937901,-4.406462,0.00,0.00,0.00,5.80,3.00,88.70,0,1,0,81,100,-7707,2748,16005,3088.50,7,P-GPS,1,1,0,0,0,0,0,1657446353453,4016,3990,3999,4004,0,0,27,,,,,,,0,0,0,-58.00,30.00,887.00,-739.00,0.00,811.00,6,150.00,0.00,29.20,0.00,0.00,0.00,0,,,100,100,0,2,0,0,0,2,0,,,,,0.0,0.0,0.0,0.0,0.0,0.0,0
55.937921,-4.406432,15.00,0.00,0.00,2.93,15.10,15.10,0.10,3.08,9464,2022-07-10 09:45:53.568,2022-07-10 10:45:53.568,20,0,0,16.005,55.937901,-4.406462,0.00,0.00,0.00,5.80,3.30,88.50,0,1,0,81,100,-7707,2748,16005,3088.50,7,P-GPS,1,1,0,0,0,0,0,1657446353568,4016,3990,3999,4004,0,0,27,,,,,,,0,0,0,-58.00,33.00,885.00,-739.00,0.00,811.00,6,150.00,0.00,29.26,0.00,0.00,0.00,0,,,100,100,0,2,0,0,0,2,0,,,,,0.0,0.0,0.0,0.0,0.0,0.0,0
55.937921,-4.406432,15.00,0.00,0.00,2.91,15.10,15.10,0.10,3.08,9557,2022-07-10 09:45:53.662,2022-07-10 10:45:53.661,20,0,0,16.005,55.937901,-4.406462,0.00,0.00,0.00,5.90,3.10,88.50,0,1,0,81,100,-7707,2748,16005,3088.50,7,P-GPS,1,1,0,0,0,0,0,1657446353661,4016,3990,3999,4004,0,0,27,,,,,,,0,0,0,-59.00,31.00,885.00,-739.00,0.00,811.00,6,150.00,0.00,29.11,0.00,0.00,0.00,0,,,100,100,0,2,0,0,0,2,0,,,,,0.0,0.0,0.0,0.0,0.0,0.0,0
55.937921,-4.406432,15.00,0.00,0.00,2.91,15.10,15.10,0.10,3.08,9665,2022-07-10 09:45:53.769,2022-07-10 10:45:53.769,20,0,0,15.995,55.937901,-4.406462,0.00,0.00,0.00,6.10,2.90,88.60,0,1,0,81,100,-7555,2746,15995,3088.50,7,P-GPS,1,1,0,0,0,0,0,1657446353769,4016,3990,3999,4004,0,0,27,,,,,,,0,0,0,-61.00,29.00,886.00,-739.00,0.00,811.00,6,150.00,0.00,29.08,0.00,0.00,0.00,0,,,100,100,0,2,0,0,0,2,0,,,,,0.0,0.0,0.0,0.0,0.0,0.0,0
55.937921,-4.406433,15.00,0.00,0.00,2.91,15.10,15.10,0.10,3.08,9767,2022-07-10 09:45:53.871,2022-07-10 10:45:53.871,20,0,0,15.995,55.937901,-4.406462,0.00,0.00,0.00,5.90,2.60,88.70,0,1,0,81,100,-7555,2746,15995,3088.50,7,P-GPS,1,1,0,0,0,0,0,1657446353871,4016,3990,3999,4004,0,0,27,,,,,,,0,0,0,-59.00,26.00,887.00,-739.00,0.00,811.00,6,150.00,0.00,29.10,0.00,0.00,0.00,0,,,100,100,0,2,0,0,0,2,0,,,,,0.0,0.0,0.0,0.0,0.0,0.0,0
55.937921,-4.406433,15.00,0.00,0.00,2.91,15.10,15.10,0.10,3.08,9864,2022-07-10 09:45:53.968,2022-07-10 10:45:53.968,20,0,0,15.995,55.937901,-4.406462,0.00,0.00,0.00,5.70,2.70,88.60,0,1,0,81,100,-7555,2746,15995,3088.50,7,P-GPS,1,1,0,0,0,0,0,1657446353968,4016,3990,3999,4004,0,0,27,,,,,,,0,0,0,-57.00,27.00,886.00,-739.00,0.00,811.00,6,150.00,0.00,29.06,0.00,0.00,0.00,0,,,100,100,0,2,0,0,0,2,0,,,,,0.0,0.0,0.0,0.0,0.0,0.0,0
55.937921,-4.406433,15.00,0.00,0.00,2.90,15.10,15.10,0.10,3.08,9956,2022-07-10 09:45:54.061,2022-07-10 10:45:54.060,20,0,0,15.995,55.937901,-4.406462,0.00,0.00,0.00,5.50,2.70,88.50,0,1,0,81,100,-7555,2746,15995,3088.50,7,P-GPS,1,1,0,0,0,0,0,1657446354060,4016,3990,3999,4004,0,0,27,,,,,,,0,0,0,-55.00,27.00,885.00,-739.00,0.00,811.00,6,150.00,0.00,29.01,0.00,0.00,0.00,0,,,100,100,0,2,0,0,0,2,0,,,,,0.0,0.0,0.0,0.0,0.0,0.0,0
55.937921,-4.406433,15.00,0.00,0.00,2.90,15.10,15.10,0.10,3.08,10066,2022-07-10 09:45:54.170,2022-07-10 10:45:54.170,19,0,0,15.995,55.937901,-4.406462,0.00,0.00,0.00,5.40,2.90,88.50,0,1,0,81,100,-7555,2746,15995,3088.50,7,P-GPS,1,1,0,0,0,0,0,1657446354170,4016,3990,3999,4004,0,0,27,,,,,,,0,0,0,-54.00,29.00,885.00,-739.00,0.00,811.00,6,150.00,0.00,28.96,0.00,0.00,0.00,0,,,100,100,0,2,0,0,0,2,0,,,,,0.0,0.0,0.0,0.0,0.0,0.0,0
55.937921,-4.406433,15.00,0.00,0.00,2.90,15.10,15.10,0.10,3.08,10160,2022-07-10 09:45:54.264,2022-07-10 10:45:54.264,19,0,0,15.995,55.937901,-4.406462,0.00,0.00,0.00,5.30,2.80,88.50,0,1,0,81,100,-7555,2746,15995,3088.50,7,P-GPS,1,1,0,0,0,0,0,1657446354264,4016,3990,3999,4004,0,0,27,,,,,,,0,0,0,-53.00,28.00,885.00,-739.00,0.00,811.00,6,150.00,0.00,28.96,0.00,0.00,0.00,0,,,100,100,0,2,0,0,0,2,0,,,,,0.0,0.0,0.0,0.0,0.0,0.0,0
55.937921,-4.406433,15.00,0.00,0.00,2.89,15.10,15.10,0.10,3.08,10261,2022-07-10 09:45:54.365,2022-07-10 10:45:54.365,20,0,0,15.995,55.937901,-4.406462,0.00,0.00,0.00,5.10,2.90,88.40,0,1,0,81,100,-7555,2746,15995,3088.50,7,P-GPS,1,1,0,0,0,0,0,1657446354365,4016,3990,3999,4004,0,0,27,,,,,,,0,0,0,-51.00,29.00,884.00,-739.00,0.00,811.00,6,150.00,0.00,28.91,0.00,0.00,0.00,0,,,100,100,0,2,0,0,0,2,0,,,,,0.0,0.0,0.0,0.0,0.0,0.0,0
55.937921,-4.406433,15.00,0.00,0.00,2.89,15.10,15.10,0.10,3.08,10376,2022-07-10 09:45:54.481,2022-07-10 10:45:54.480,20,0,0,15.995,55.937901,-4.406462,0.00,0.00,0.00,5.10,2.60,88.50,0,1,0,81,100,-7555,2746,15995,3088.50,7,P-GPS,1,1,0,0,0,0,0,1657446354480,4016,3990,3999,4004,0,0,27,,,,,,,0,0,0,-51.00,26.00,885.00,-739.00,0.00,811.00,6,150.00,0.00,28.87,0.00,0.00,0.00,0,,,100,100,0,2,0,0,0,2,0,,,,,0.0,0.0,0.0,0.0,0.0,0.0,0
55.937921,-4.406433,15.00,0.00,0.00,2.88,15.10,15.10,0.10,3.08,10465,2022-07-10 09:45:54.570,2022-07-10 10:45:54.569,20,0,0,15.995,55.937901,-4.406462,0.00,0.00,0.00,5.40,2.60,88.60,0,1,0,81,100,-7555,2746,15995,3088.50,7,P-GPS,1,1,0,0,0,0,0,1657446354569,4016,3990,3999,4004,0,0,27,,,,,,,0,0,0,-54.00,26.00,886.00,-739.00,0.00,811.00,6,150.00,0.00,28.82,0.00,0.00,0.00,0,,,100,100,0,2,0,0,0,2,0,,,,,0.0,0.0,0.0,0.0,0.0,0.0,0
55.937921,-4.406433,15.00,0.00,0.00,2.88,15.10,15.10,0.10,3.08,10568,2022-07-10 09:45:54.673,2022-07-10 10:45:54.672,20,0,0,15.995,55.937901,-4.406462,0.00,0.00,0.00,5.60,2.50,88.50,0,1,0,81,100,-7555,2746,15995,3088.50,7,P-GPS,1,1,0,0,0,0,0,1657446354672,4016,3990,3999,4004,0,0,27,,,,,,,0,0,0,-56.00,25.00,885.00,-739.00,0.00,811.00,6,150.00,0.00,28.81,0.00,0.00,0.00,0,,,100,100,0,2,0,0,0,2,0,,,,,0.0,0.0,0.0,0.0,0.0,0.0,0
55.937921,-4.406433,15.00,0.00,0.00,2.88,15.10,15.10,0.10,3.08,10662,2022-07-10 09:45:54.767,2022-07-10 10:45:54.766,19,0,0,16.026,55.937901,-4.406462,0.00,0.00,0.00,5.70,2.90,88.40,0,1,0,81,100,-7548,2743,16026,3088.50,7,P-GPS,1,1,0,0,0,0,0,1657446354766,4016,3990,3999,4004,0,0,27,,,,,,,0,0,0,-57.00,29.00,884.00,-739.00,0.00,811.00,6,150.00,0.00,28.77,0.00,0.00,0.00,0,,,100,100,0,2,0,0,0,2,0,,,,,0.0,0.0,0.0,0.0,0.0,0.0,0
55.937921,-4.406433,15.00,0.00,0.00,2.88,15.10,15.10,0.10,3.08,10781,2022-07-10 09:45:54.886,2022-07-10 10:45:54.885,19,0,0,16.026,55.937901,-4.406462,0.00,0.00,0.00,5.60,3.30,88.50,0,1,0,81,100,-7548,2743,16026,3088.50,7,P-GPS,1,1,0,0,0,0,0,1657446354885,4016,3990,3999,4004,0,0,27,,,,,,,0,0,0,-56.00,33.00,885.00,-739.00,0.00,811.00,6,150.00,0.00,28.75,0.00,0.00,0.00,0,,,100,100,0,2,0,0,0,2,0,,,,,0.0,0.0,0.0,0.0,0.0,0.0,0
55.937921,-4.406434,15.00,0.00,0.10,2.86,15.10,15.10,0.10,3.08,10963,2022-07-10 09:45:55.067,2022-07-10 10:45:55.067,19,0,0,16.026,55.937901,-4.406462,-0.10,0.00,0.00,5.30,1.40,88.70,0,1,0,81,100,-7548,2743,16026,3088.50,7,P-GPS,1,1,0,0,0,0,0,1657446355067,4016,3990,3999,4004,0,0,27,,,,,,,0,0,0,-53.00,14.00,887.00,-739.00,0.00,811.00,6,150.00,1.00,28.61,-1.00,0.00,0.00,0,,,100,100,0,2,0,0,0,2,0,,,,,0.0,0.0,0.0,0.0,0.0,0.0,0
55.937921,-4.406434,15.00,0.00,0.10,2.85,15.10,15.10,0.10,3.08,11062,2022-07-10 09:45:55.167,2022-07-10 10:45:55.166,19,0,0,16.026,55.937901,-4.406462,-0.10,0.00,0.00,4.80,0.80,88.60,0,1,0,81,100,-7548,2743,16026,3088.50,7,P-GPS,1,1,0,0,0,0,0,1657446355166,4016,3990,3999,4004,0,0,27,,,,,,,0,0,0,-48.00,8.00,886.00,-739.00,0.00,811.00,6,150.00,1.00,28.48,-1.00,0.00,0.00,0,,,100,100,0,2,0,0,0,2,0,,,,,0.0,0.0,0.0,0.0,0.0,0.0,0
55.937921,-4.406434,15.00,0.00,0.10,2.83,15.10,15.10,0.10,3.08,11164,2022-07-10 09:45:55.268,2022-07-10 10:45:55.268,19,0,0,16.026,55.937901,-4.406462,-0.10,0.00,0.00,4.60,0.20,88.50,0,1,0,81,100,-7548,2743,16026,3088.50,7,P-GPS,1,1,0,0,0,0,0,1657446355268,4016,3990,3999,4004,0,0,27,,,,,,,0,0,0,-46.00,2.00,885.00,-739.00,0.00,811.00,6,150.00,1.00,28.35,-1.00,0.00,0.00,0,,,100,100,0,2,0,0,0,2,0,,,,,0.0,0.0,0.0,0.0,0.0,0.0,0
55.937921,-4.406434,15.00,0.00,0.10,2.83,15.10,15.10,0.10,3.08,11263,2022-07-10 09:45:55.368,2022-07-10 10:45:55.367,19,0,0,16.026,55.937901,-4.406462,-0.10,0.00,0.00,4.90,0.90,88.40,0,1,0,81,100,-7548,2743,16026,3088.50,7,P-GPS,1,1,0,0,0,0,0,1657446355367,4016,3990,3999,4004,0,0,27,,,,,,,0,0,0,-49.00,9.00,884.00,-739.00,0.00,811.00,6,150.00,1.00,28.25,-1.00,0.00,0.00,0,,,100,100,0,2,0,0,0,2,0,,,,,0.0,0.0,0.0,0.0,0.0,0.0,0
55.937921,-4.406434,15.00,0.00,0.10,2.81,15.10,15.10,0.10,3.08,11363,2022-07-10 09:45:55.467,2022-07-10 10:45:55.467,19,0,0,16.026,55.937901,-4.406462,-0.10,0.00,0.00,5.20,1.20,88.30,0,1,0,81,100,-7548,2743,16026,3088.50,7,P-GPS,1,1,0,0,0,0,0,1657446355467,4016,3990,3999,4004,0,0,27,,,,,,,0,0,0,-52.00,12.00,883.00,-739.00,0.00,811.00,6,150.00,1.00,28.08,-1.00,0.00,0.00,0,,,100,100,0,2,0,0,0,2,0,,,,,0.0,0.0,0.0,0.0,0.0,0.0,0
55.937921,-4.406434,15.00,0.00,0.10,2.80,15.10,15.10,0.10,3.08,11462,2022-07-10 09:45:55.567,2022-07-10 10:45:55.566,19,0,0,16.026,55.937901,-4.406462,-0.10,0.00,0.00,5.50,0.80,88.50,0,1,0,81,100,-7548,2743,16026,3088.50,7,P-GPS,1,1,0,0,0,0,0,1657446355566,4016,3990,3999,4004,0,0,27,,,,,,,0,0,0,-55.00,8.00,885.00,-739.00,0.00,811.00,6,150.00,1.00,28.00,-1.00,0.00,0.00,0,,,100,100,0,2,0,0,0,2,0,,,,,0.0,0.0,0.0,0.0,0.0,0.0,0
55.937921,-4.406434,15.00,0.00,0.10,2.79,15.10,15.10,0.10,3.08,11562,2022-07-10 09:45:55.667,2022-07-10 10:45:55.666,19,0,0,16.026,55.937901,-4.406462,-0.10,0.00,0.00,5.80,0.60,88.60,0,1,0,81,100,-7548,2743,16026,3088.50,7,P-GPS,1,1,0,0,0,0,0,1657446355666,4016,3990,3999,4004,0,0,27,,,,,,,0,0,0,-58.00,6.00,886.00,-739.00,0.00,811.00,6,150.00,1.00,27.94,-1.00,0.00,0.00,0,,,100,100,0,2,0,0,0,2,0,,,,,0.0,0.0,0.0,0.0,0.0,0.0,0
55.937921,-4.406434,15.00,0.00,0.00,2.79,15.10,15.10,0.10,3.08,11656,2022-07-10 09:45:55.760,2022-07-10 10:45:55.760,19,0,0,16.026,55.937901,-4.406462,0.00,0.00,0.00,6.00,0.40,88.60,0,1,0,81,100,-7140,2741,16026,3088.50,7,P-GPS,1,1,0,0,0,0,0,1657446355760,4016,3990,3999,4004,0,0,27,,,,,,,0,0,0,-60.00,4.00,886.00,-739.00,0.00,811.00,6,150.00,0.00,27.87,0.00,0.00,0.00,0,,,100,100,0,2,0,0,0,2,0,,,,,0.0,0.0,0.0,0.0,0.0,0.0,0
55.937921,-4.406434,15.00,0.00,0.00,2.78,15.10,15.10,0.10,3.08,11766,2022-07-10 09:45:55.870,2022-07-10 10:45:55.870,19,0,0,16.026,55.937901,-4.406462,0.00,0.00,0.00,5.70,0.00,88.70,0,1,0,81,100,-7140,2741,16026,3088.50,7,P-GPS,1,1,0,0,0,0,0,1657446355870,4016,3990,3999,4004,0,0,27,,,,,,,0,0,0,-57.00,0.00,887.00,-739.00,0.00,811.00,6,150.00,0.00,27.77,0.00,0.00,0.00,0,,,100,100,0,2,0,0,0,2,0,,,,,0.0,0.0,0.0,0.0,0.0,0.0,0
55.937920,-4.406434,15.00,0.00,0.00,2.77,15.10,15.10,0.10,3.08,11866,2022-07-10 09:45:55.971,2022-07-10 10:45:55.970,19,0,0,16.026,55.937901,-4.406462,0.00,0.00,0.00,5.40,0.80,88.70,0,1,0,81,100,-7140,2741,16026,3088.50,7,P-GPS,1,1,0,0,0,0,0,1657446355970,4016,3990,3999,4004,0,0,27,,,,,,,0,0,0,-54.00,8.00,887.00,-739.00,0.00,811.00,6,150.00,0.00,27.72,0.00,0.00,0.00,0,,,100,100,0,2,0,0,0,2,0,,,,,0.0,0.0,0.0,0.0,0.0,0.0,0
55.937921,-4.406434,15.00,0.00,0.00,2.78,15.10,15.10,0.10,3.08,11964,2022-07-10 09:45:56.069,2022-07-10 10:45:56.068,19,0,0,16.026,55.937901,-4.406462,0.00,0.00,0.00,4.90,1.10,88.80,0,1,0,81,100,-7140,2741,16026,3088.50,7,P-GPS,1,1,0,0,0,0,0,1657446356068,4016,3990,3999,4004,0,0,27,,,,,,,0,0,0,-49.00,11.00,888.00,-739.00,0.00,811.00,6,150.00,0.00,27.80,0.00,0.00,0.00,0,,,100,100,0,2,0,0,0,2,0,,,,,0.0,0.0,0.0,0.0,0.0,0.0,0
55.937921,-4.406434,15.00,0.00,0.00,2.78,15.10,15.10,0.10,3.08,12056,2022-07-10 09:45:56.160,2022-07-10 10:45:56.160,19,0,0,16.026,55.937901,-4.406462,0.00,0.00,0.00,5.10,1.50,88.70,0,1,0,81,100,-7140,2741,16026,3088.50,7,P-GPS,1,1,0,0,0,0,0,1657446356160,4016,3990,3999,4004,0,0,27,,,,,,,0,0,0,-51.00,15.00,887.00,-739.00,0.00,811.00,6,150.00,0.00,27.78,0.00,0.00,0.00,0,,,100,100,0,2,0,0,0,2,0,,,,,0.0,0.0,0.0,0.0,0.0,0.0,0
55.937920,-4.406434,15.00,0.00,0.00,2.77,15.10,15.10,0.10,3.08,12160,2022-07-10 09:45:56.264,2022-07-10 10:45:56.264,19,0,0,16.026,55.937901,-4.406462,0.00,0.00,0.00,5.20,2.10,88.80,0,1,0,81,100,-7140,2741,16026,3088.50,7,P-GPS,1,1,0,0,0,0,0,1657446356264,4016,3990,3999,4004,0,0,27,,,,,,,0,0,0,-52.00,21.00,888.00,-739.00,0.00,811.00,6,150.00,0.00,27.65,0.00,0.00,0.00,0,,,100,100,0,2,0,0,0,2,0,,,,,0.0,0.0,0.0,0.0,0.0,0.0,0
55.937921,-4.406434,15.00,0.00,0.00,2.77,15.10,15.10,0.10,3.08,12265,2022-07-10 09:45:56.369,2022-07-10 10:45:56.369,19,0,0,16.026,55.937901,-4.406462,0.00,0.00,0.00,5.00,2.80,88.70,0,1,0,81,100,-7140,2741,16026,3088.50,7,P-GPS,1,1,0,0,0,0,0,1657446356369,4016,3990,3999,4004,0,0,27,,,,,,,0,0,0,-50.00,28.00,887.00,-739.00,0.00,811.00,6,150.00,0.00,27.65,0.00,0.00,0.00,0,,,100,100,0,2,0,0,0,2,0,,,,,0.0,0.0,0.0,0.0,0.0,0.0,0
55.937921,-4.406434,15.00,0.00,0.00,2.77,15.10,15.10,0.10,3.08,12363,2022-07-10 09:45:56.468,2022-07-10 10:45:56.467,19,0,0,16.026,55.937901,-4.406462,0.00,0.00,0.00,4.60,2.40,88.70,0,1,0,81,100,-7140,2741,16026,3088.50,7,P-GPS,1,1,0,0,0,0,0,1657446356467,4016,3990,3999,4004,0,0,27,,,,,,,0,0,0,-46.00,24.00,887.00,-739.00,0.00,811.00,6,150.00,0.00,27.73,0.00,0.00,0.00,0,,,100,100,0,2,0,0,0,2,0,,,,,0.0,0.0,0.0,0.0,0.0,0.0,0
55.937921,-4.406434,15.00,0.00,0.00,2.77,15.10,15.10,0.10,3.08,12457,2022-07-10 09:45:56.562,2022-07-10 10:45:56.561,19,0,0,16.026,55.937901,-4.406462,0.00,0.00,0.00,4.90,2.80,88.80,0,1,0,81,100,-7140,2741,16026,3088.50,7,P-GPS,1,1,0,0,0,0,0,1657446356561,4016,3990,3999,4004,0,0,27,,,,,,,0,0,0,-49.00,28.00,888.00,-739.00,0.00,811.00,6,150.00,0.00,27.75,0.00,0.00,0.00,0,,,100,100,0,2,0,0,0,2,0,,,,,0.0,0.0,0.0,0.0,0.0,0.0,0
55.937921,-4.406435,15.00,0.00,0.00,2.77,15.10,15.10,0.10,3.08,12565,2022-07-10 09:45:56.669,2022-07-10 10:45:56.669,19,0,0,16.026,55.937901,-4.406462,0.00,0.00,0.00,5.20,2.90,88.80,0,1,0,81,100,-7140,2741,16026,3088.50,7,P-GPS,1,1,0,0,0,0,0,1657446356669,4016,3990,3999,4004,0,0,27,,,,,,,0,0,0,-52.00,29.00,888.00,-739.00,0.00,811.00,6,150.00,0.00,27.69,0.00,0.00,0.00,0,,,100,100,0,2,0,0,0,2,0,,,,,0.0,0.0,0.0,0.0,0.0,0.0,0
55.937921,-4.406435,15.00,0.00,0.00,2.77,15.10,15.10,0.10,3.08,12673,2022-07-10 09:45:56.777,2022-07-10 10:45:56.777,19,0,0,16.019,55.937901,-4.406462,0.00,0.00,0.00,4.90,2.90,88.80,0,1,0,81,100,-7309,2739,16019,3088.50,7,P-GPS,1,1,0,0,0,0,0,1657446356777,4016,3990,3999,4004,0,0,27,,,,,,,0,0,0,-49.00,29.00,888.00,-739.00,0.00,811.00,6,150.00,0.00,27.71,0.00,0.00,0.00,0,,,100,100,0,2,0,0,0,2,0,,,,,0.0,0.0,0.0,0.0,0.0,0.0,0
55.937921,-4.406435,15.00,0.00,0.00,2.77,15.10,15.10,0.10,3.08,12769,2022-07-10 09:45:56.873,2022-07-10 10:45:56.873,19,0,0,16.019,55.937901,-4.406462,0.00,0.00,0.00,4.90,3.20,88.80,0,1,0,81,100,-7309,2739,16019,3088.50,7,P-GPS,1,1,0,0,0,0,0,1657446356873,4016,3990,3999,4004,0,0,27,,,,,,,0,0,0,-49.00,32.00,888.00,-739.00,0.00,811.00,6,150.00,0.00,27.75,0.00,0.00,0.00,0,,,100,100,0,2,0,0,0,2,0,,,,,0.0,0.0,0.0,0.0,0.0,0.0,0
55.937921,-4.406435,15.00,0.00,0.00,2.78,15.10,15.10,0.10,3.08,12863,2022-07-10 09:45:56.967,2022-07-10 10:45:56.967,19,0,0,16.019,55.937901,-4.406462,0.00,0.00,0.00,5.00,3.30,88.90,0,1,0,81,100,-7309,2739,16019,3088.50,7,P-GPS,1,1,0,0,0,0,0,1657446356967,4016,3990,3999,4004,0,0,27,,,,,,,0,0,0,-50.00,33.00,889.00,-739.00,0.00,811.00,6,150.00,0.00,27.78,0.00,0.00,0.00,0,,,100,100,0,2,0,0,0,2,0,,,,,0.0,0.0,0.0,0.0,0.0,0.0,0
55.937921,-4.406435,15.00,0.00,0.00,2.78,15.10,15.10,0.10,3.08,12970,2022-07-10 09:45:57.074,2022-07-10 10:45:57.074,19,0,0,16.019,55.937901,-4.406462,0.00,0.00,0.00,5.10,3.20,88.80,0,1,0,81,100,-7309,2739,16019,3088.50,7,P-GPS,1,1,0,0,0,0,0,1657446357074,4016,3990,3999,4004,0,0,27,,,,,,,0,0,0,-51.00,32.00,888.00,-739.00,0.00,811.00,6,150.00,0.00,27.82,0.00,0.00,0.00,0,,,100,100,0,2,0,0,0,2,0,,,,,0.0,0.0,0.0,0.0,0.0,0.0,0
55.937921,-4.406435,15.00,0.00,0.00,2.78,15.10,15.10,0.10,3.08,13062,2022-07-10 09:45:57.166,2022-07-10 10:45:57.166,19,0,0,16.019,55.937901,-4.406462,0.00,0.00,0.00,5.00,3.20,88.80,0,1,0,81,100,-7309,2739,16019,3088.50,7,P-GPS,1,1,0,0,0,0,0,1657446357166,4016,3990,3999,4004,0,0,27,,,,,,,0,0,0,-50.00,32.00,888.00,-739.00,0.00,811.00,6,150.00,0.00,27.84,0.00,0.00,0.00,0,,,100,100,0,2,0,0,0,2,0,,,,,0.0,0.0,0.0,0.0,0.0,0.0,0
55.937921,-4.406435,15.00,0.00,0.00,2.79,15.10,15.10,0.10,3.08,13174,2022-07-10 09:45:57.278,2022-07-10 10:45:57.278,19,0,0,16.019,55.937901,-4.406462,0.00,0.00,0.00,5.00,3.20,88.80,0,1,0,81,100,-7309,2739,16019,3088.50,7,P-GPS,1,1,0,0,0,0,0,1657446357278,4016,3990,3999,4004,0,0,27,,,,,,,0,0,0,-50.00,32.00,888.00,-739.00,0.00,811.00,6,150.00,0.00,27.86,0.00,0.00,0.00,0,,,100,100,0,2,0,0,0,2,0,,,,,0.0,0.0,0.0,0.0,0.0,0.0,0
55.937921,-4.406435,15.00,0.00,0.00,2.79,15.10,15.10,0.10,3.08,13262,2022-07-10 09:45:57.366,2022-07-10 10:45:57.366,19,0,0,16.019,55.937901,-4.406462,0.00,0.00,0.00,4.90,3.10,88.80,0,1,0,81,100,-7309,2739,16019,3088.50,7,P-GPS,1,1,0,0,0,0,0,1657446357366,4016,3990,3999,4004,0,0,27,,,,,,,0,0,0,-49.00,31.00,888.00,-739.00,0.00,811.00,6,150.00,0.00,27.88,0.00,0.00,0.00,0,,,100,100,0,2,0,0,0,2,0,,,,,0.0,0.0,0.0,0.0,0.0,0.0,0
55.937921,-4.406435,15.00,0.00,0.00,2.79,15.10,15.10,0.10,3.08,13374,2022-07-10 09:45:57.479,2022-07-10 10:45:57.478,19,0,0,16.019,55.937901,-4.406462,0.00,0.00,0.00,4.90,3.20,88.80,0,1,0,81,100,-7309,2739,16019,3088.50,7,P-GPS,1,1,0,0,0,0,0,1657446357478,4016,3990,3999,4004,0,0,27,,,,,,,0,0,0,-49.00,32.00,888.00,-739.00,0.00,811.00,6,150.00,0.00,27.91,0.00,0.00,0.00,0,,,100,100,0,2,0,0,0,2,0,,,,,0.0,0.0,0.0,0.0,0.0,0.0,0
55.937921,-4.406435,15.00,0.00,0.00,2.78,15.10,15.10,0.10,3.08,13563,2022-07-10 09:45:57.667,2022-07-10 10:45:57.667,19,0,0,16.019,55.937901,-4.406462,0.00,0.00,0.00,4.80,3.80,88.90,0,1,0,81,100,-7309,2739,16019,3088.50,7,P-GPS,1,1,0,0,0,0,0,1657446357667,4016,3990,3999,4004,0,0,27,,,,,,,0,0,0,-48.00,38.00,889.00,-739.00,0.00,811.00,6,150.00,0.00,27.85,0.00,0.00,0.00,0,,,100,100,0,2,0,0,0,2,0,,,,,0.0,0.0,0.0,0.0,0.0,0.0,0
55.937921,-4.406435,15.00,0.00,0.00,2.79,15.10,15.10,0.10,3.08,13665,2022-07-10 09:45:57.769,2022-07-10 10:45:57.769,19,0,0,16.010,55.937901,-4.406462,0.00,0.00,0.00,4.80,3.80,88.80,0,1,0,81,100,-7705,2737,16010,3088.50,7,P-GPS,1,1,0,0,0,0,0,1657446357769,4016,3990,3999,4004,0,0,27,,,,,,,0,0,0,-48.00,38.00,888.00,-739.00,0.00,811.00,6,150.00,0.00,27.88,0.00,0.00,0.00,0,,,100,100,0,2,0,0,0,2,0,,,,,0.0,0.0,0.0,0.0,0.0,0.0,0
55.937921,-4.406435,15.00,0.00,0.00,2.80,15.10,15.10,0.10,3.08,13764,2022-07-10 09:45:57.869,2022-07-10 10:45:57.868,19,0,0,16.010,55.937901,-4.406462,0.00,0.00,0.00,5.20,3.90,88.80,0,1,0,81,100,-7705,2737,16010,3088.50,7,P-GPS,1,1,0,0,0,0,0,1657446357868,4016,3990,3999,4004,0,0,27,,,,,,,0,0,0,-52.00,39.00,888.00,-739.00,0.00,811.00,6,150.00,0.00,28.01,0.00,0.00,0.00,0,,,100,100,0,2,0,0,0,2,0,,,,,0.0,0.0,0.0,0.0,0.0,0.0,0
55.937921,-4.406435,15.00,0.00,0.00,2.81,15.10,15.10,0.10,3.08,13860,2022-07-10 09:45:57.965,2022-07-10 10:45:57.964,19,0,0,16.010,55.937901,-4.406462,0.00,0.00,0.00,5.30,3.90,88.80,0,1,0,81,100,-7705,2737,16010,3088.50,7,P-GPS,1,1,0,0,0,0,0,1657446357964,4016,3990,3999,4004,0,0,27,,,,,,,0,0,0,-53.00,39.00,888.00,-739.00,0.00,811.00,6,150.00,0.00,28.05,0.00,0.00,0.00,0,,,100,100,0,2,0,0,0,2,0,,,,,0.0,0.0,0.0,0.0,0.0,0.0,0
55.937921,-4.406435,15.00,0.00,0.00,2.81,15.10,15.10,0.10,3.08,13973,2022-07-10 09:45:58.078,2022-07-10 10:45:58.077,19,0,0,16.010,55.937901,-4.406462,0.00,0.00,0.00,5.40,3.60,88.90,0,1,0,81,100,-7705,2737,16010,3088.50,7,P-GPS,1,1,0,0,0,0,0,1657446358077,4016,3990,3999,4004,0,0,27,,,,,,,0,0,0,-54.00,36.00,889.00,-739.00,0.00,811.00,6,150.00,0.00,28.07,0.00,0.00,0.00,0,,,100,100,0,2,0,0,0,2,0,,,,,0.0,0.0,0.0,0.0,0.0,0.0,0
55.937921,-4.406435,15.00,0.00,0.00,2.81,15.10,15.10,0.10,3.08,14065,2022-07-10 09:45:58.170,2022-07-10 10:45:58.169,19,0,0,16.010,55.937901,-4.406462,0.00,0.00,0.00,5.10,3.10,88.90,0,1,0,81,100,-7705,2737,16010,3088.50,7,P-GPS,1,1,0,0,0,0,0,1657446358169,4016,3990,3999,4004,0,0,27,,,,,,,0,0,0,-51.00,31.00,889.00,-739.00,0.00,811.00,6,150.00,0.00,28.09,0.00,0.00,0.00,0,,,100,100,0,2,0,0,0,2,0,,,,,0.0,0.0,0.0,0.0,0.0,0.0,0
55.937921,-4.406435,15.00,0.00,0.00,2.81,15.10,15.10,0.10,3.08,14174,2022-07-10 09:45:58.278,2022-07-10 10:45:58.278,19,0,0,16.010,55.937901,-4.406462,0.00,0.00,0.00,5.10,3.30,88.80,0,1,0,81,100,-7705,2737,16010,3088.50,7,P-GPS,1,1,0,0,0,0,0,1657446358278,4016,3990,3999,4004,0,0,27,,,,,,,0,0,0,-51.00,33.00,888.00,-739.00,0.00,811.00,6,150.00,0.00,28.13,0.00,0.00,0.00,0,,,100,100,0,2,0,0,0,2,0,,,,,0.0,0.0,0.0,0.0,0.0,0.0,0
