latitude,longitude,altitude(m),ultrasonicHeight(m),speed(mps),distance(m),max_altitude(m),max_ascent(m),max_speed(mps),max_distance(m),time(millisecond),datetime(utc),datetime(local),satellites,pressure(Pa),temperature(F),voltage(v),home_latitude,home_longitude,velocityX(mps),velocityY(mps),velocityZ(mps),pitch(deg),roll(deg),yaw(deg),powerlevel,isflying,istakingphoto,remainPowerPercent,remainLifePercent,currentCurrent,currentElectricity,currentVoltage,batteryTemperature,dischargeCount,flightmode,isMotorsOn,isTakingVideo,Rc_elevator,Rc_aileron,Rc_throttle,Rc_rudder,Rc_gyro,timestamp,Battery_Cell1,Battery_Cell2,Battery_Cell3,Battery_Cell4,Battery_Cell5,Battery_Cell6,Dronetype,AppVersion,Planename,FlyControllerSerialNumber,RemoteSerialNumber,BatterySerialNumber,CENTER_BATTERY.productDate,CENTER_BATTERY.serialNo,CENTER_BATTERY.fullCapacity,CENTER_BATTERY.productDateRaw,pitchRaw,rollRaw,yawRaw,gimbalPitchRaw,gimbalRollRaw,gimbalYawRaw,flyState,altitudeRaw,speedRaw,distanceRaw,velocityXRaw,velocityYRaw,velocityZRaw,data_reuse,App_Tip,App_Warning,downlinkSignalQuality,uplinkSignalQuality,transmissionChannel,rcModeSwitch,rcHome,rcPause,rcTransform,rcJoystickMode,appMode,FlyControllerSerialNumber_legacy,RemoteSerialNumber_legacy,BatterySerialNumber_legacy,Battery2SerialNumber,frontAvoidDist,backAvoidDist,rightAvoidDist,leftAvoidDist,upAvoidDist,downAvoidDist,isBrakingToAvoid
55.956201,-4.402346,80.30,0.00,0.10,49.24,80.30,80.30,0.10,49.24,0,2022-06-25 11:08:09.903,2022-06-25 12:08:09.903,20,0,0,14.835,55.956102,-4.403115,0.00,0.00,0.10,-3.50,14.10,103.10,0,1,0,37,100,-6898,1263,14835,2731.50,6,P-GPS,1,1,0,0,0,0,0,1656155289903,0,0,0,0,0,0,27,Litchi_4.24.1-g,,,,null,,0,0,0,35.00,141.00,1031.00,-857.00,0.00,1030.00,6,803.00,1.00,492.40,0.00,0.00,1.00,0,,,100,100,0,2,0,0,0,2,0,,,,null,0.0,0.0,0.0,0.0,0.0,0.0,0
55.956201,-4.402346,80.30,0.00,0.10,49.23,80.30,80.30,0.10,49.24,101,2022-06-25 11:08:10.032,2022-06-25 12:08:10.004,20,0,0,14.835,55.956102,-4.403115,0.00,0.00,0.10,-4.10,13.90,103.00,0,1,0,37,100,-6898,1263,14835,2731.50,6,P-GPS,1,1,0,0,0,0,0,1656155290004,0,0,0,0,0,0,27,Litchi_4.24.1-g,,,,null,,0,0,0,41.00,139.00,1030.00,-857.00,0.00,1030.00,6,803.00,1.00,492.32,0.00,0.00,1.00,0,,,100,100,0,2,0,0,0,2,0,,,,null,0.0,0.0,0.0,0.0,0.0,0.0,0
55.956201,-4.402346,80.30,0.00,0.10,49.23,80.30,80.30,0.10,49.24,187,2022-06-25 11:08:10.090,2022-06-25 12:08:10.090,20,0,0,14.835,55.956102,-4.403115,0.00,0.00,0.10,-4.10,13.90,103.00,0,1,0,37,100,-6898,1263,14835,2731.50,6,P-GPS,1,1,0,0,0,0,0,1656155290090,0,0,0,0,0,0,27,Litchi_4.24.1-g,,,,null,,0,0,0,41.00,139.00,1030.00,-857.00,0.00,1030.00,6,803.00,1.00,492.32,0.00,0.00,1.00,0,,,100,100,0,2,0,0,0,2,0,,,,null,0.0,0.0,0.0,0.0,0.0,0.0,0
55.956201,-4.402347,80.30,0.00,0.10,49.22,80.30,80.30,0.10,49.24,298,2022-06-25 11:08:10.202,2022-06-25 12:08:10.201,20,0,0,14.835,55.956102,-4.403115,0.00,0.00,0.10,-4.60,13.90,102.90,0,1,0,37,100,-6898,1263,14835,2731.50,6,P-GPS,1,1,0,0,0,0,0,1656155290201,0,0,0,0,0,0,27,Litchi_4.24.1-g,CJTMAVIC,163DFAS001K45C,0VECFAK0072T52,0P2AFB25340AEP,,0,0,0,46.00,139.00,1029.00,-857.00,0.00,1030.00,6,803.00,1.00,492.18,0.00,0.00,1.00,0,,,100,100,0,2,0,0,0,2,0,,,,null,0.0,0.0,0.0,0.0,0.0,0.0,0
55.956201,-4.402347,80.30,0.00,0.00,49.21,80.30,80.30,0.10,49.24,398,2022-06-25 11:08:10.302,2022-06-25 12:08:10.301,20,0,0,14.835,55.956102,-4.403115,0.00,0.00,0.00,-4.40,14.00,102.90,0,1,0,37,100,-6898,1263,14835,2731.50,6,P-GPS,1,1,0,0,0,0,0,1656155290301,0,0,0,0,0,0,27,,,,,,,0,0,0,44.00,140.00,1029.00,-857.00,0.00,1030.00,6,803.00,0.00,492.12,0.00,0.00,0.00,0,,,100,100,0,2,0,0,0,2,0,,,,,0.0,0.0,0.0,0.0,0.0,0.0,0
55.956201,-4.402347,80.30,0.00,0.00,49.21,80.30,80.30,0.10,49.24,490,2022-06-25 11:08:10.394,2022-06-25 12:08:10.393,20,0,0,14.835,55.956102,-4.403115,0.00,0.00,0.00,-4.40,14.30,102.90,0,1,0,37,100,-6898,1263,14835,2731.50,6,P-GPS,1,1,0,0,0,0,0,1656155290393,0,0,0,0,0,0,27,,,,,,,0,0,0,44.00,143.00,1029.00,-857.00,0.00,1030.00,6,803.00,0.00,492.07,0.00,0.00,0.00,0,,,100,100,0,2,0,0,0,2,0,,,,,0.0,0.0,0.0,0.0,0.0,0.0,0
55.956201,-4.402347,80.30,0.00,0.00,49.20,80.30,80.30,0.10,49.24,594,2022-06-25 11:08:10.498,2022-06-25 12:08:10.497,20,0,0,14.835,55.956102,-4.403115,0.00,0.00,0.00,-4.30,14.60,102.90,0,1,0,37,100,-6898,1263,14835,2731.50,6,P-GPS,1,1,0,0,0,0,0,1656155290497,0,0,0,0,0,0,27,,,,,,,0,0,0,43.00,146.00,1029.00,-857.00,0.00,1030.00,6,803.00,0.00,491.99,0.00,0.00,0.00,0,,,100,100,0,2,0,0,0,2,0,,,,,0.0,0.0,0.0,0.0,0.0,0.0,0
55.956201,-4.402347,80.30,0.00,0.10,49.19,80.30,80.30,0.10,49.24,699,2022-06-25 11:08:10.602,2022-06-25 12:08:10.602,20,0,0,14.835,55.956102,-4.403115,0.00,0.00,0.10,-4.00,14.60,103.10,0,1,0,37,100,-6898,1263,14835,2731.50,6,P-GPS,1,1,0,0,0,0,0,1656155290602,0,0,0,0,0,0,27,,,,,,,0,0,0,40.00,146.00,1031.00,-857.00,0.00,1030.00,6,803.00,1.00,491.94,0.00,0.00,1.00,0,,,100,100,0,2,0,0,0,2,0,,,,,0.0,0.0,0.0,0.0,0.0,0.0,0
55.956201,-4.402347,80.30,0.00,0.10,49.18,80.30,80.30,0.10,49.24,804,2022-06-25 11:08:10.707,2022-06-25 12:08:10.707,20,0,0,14.835,55.956102,-4.403115,0.00,0.00,0.10,-4.00,14.60,103.20,0,1,0,37,100,-6898,1263,14835,2731.50,6,P-GPS,1,1,0,0,0,0,0,1656155290707,0,0,0,0,0,0,27,,,,,,,0,0,0,40.00,146.00,1032.00,-857.00,0.00,1030.00,6,803.00,1.00,491.81,0.00,0.00,1.00,0,,,100,100,0,2,0,0,0,2,0,,,,,0.0,0.0,0.0,0.0,0.0,0.0,0
55.956201,-4.402347,80.30,0.00,0.00,49.17,80.30,80.30,0.10,49.24,898,2022-06-25 11:08:10.801,2022-06-25 12:08:10.801,20,0,0,14.835,55.956102,-4.403115,0.00,0.00,0.00,-4.70,14.50,103.10,0,1,0,37,100,-6898,1263,14835,2731.50,6,P-GPS,1,1,0,0,0,0,0,1656155290801,0,0,0,0,0,0,27,,,,,,,0,0,0,47.00,145.00,1031.00,-857.00,0.00,1030.00,6,803.00,0.00,491.73,0.00,0.00,0.00,0,,,100,100,0,2,0,0,0,2,0,,,,,0.0,0.0,0.0,0.0,0.0,0.0,0
55.956201,-4.402348,80.30,0.00,0.00,49.16,80.30,80.30,0.10,49.24,1002,2022-06-25 11:08:10.905,2022-06-25 12:08:10.905,20,0,0,14.804,55.956102,-4.403115,0.00,0.00,0.00,-5.20,14.10,103.00,0,1,0,37,100,-7647,1261,14804,3095.50,6,P-GPS,1,1,0,0,0,0,0,1656155290905,0,0,0,0,0,0,27,,,,,,,0,0,0,52.00,141.00,1030.00,-857.00,0.00,1030.00,6,803.00,0.00,491.62,0.00,0.00,0.00,0,,,100,100,0,2,0,0,0,2,0,,,,,0.0,0.0,0.0,0.0,0.0,0.0,0
55.956201,-4.402348,80.30,0.00,0.00,49.15,80.30,80.30,0.10,49.24,1096,2022-06-25 11:08:10.999,2022-06-25 12:08:10.999,20,0,0,14.804,55.956102,-4.403115,0.00,0.00,0.00,-5.30,13.90,102.90,0,1,0,37,100,-7647,1261,14804,3095.50,6,P-GPS,1,1,0,0,0,0,0,1656155290999,0,0,0,0,0,0,27,,,,,,,0,0,0,53.00,139.00,1029.00,-857.00,0.00,1030.00,6,803.00,0.00,491.53,0.00,0.00,0.00,0,,,100,100,0,2,0,0,0,2,0,,,,,0.0,0.0,0.0,0.0,0.0,0.0,0
55.956201,-4.402348,80.30,0.00,0.00,49.15,80.30,80.30,0.10,49.24,1187,2022-06-25 11:08:11.091,2022-06-25 12:08:11.090,20,0,0,14.804,55.956102,-4.403115,0.00,0.00,0.00,-5.50,13.90,102.90,0,1,0,37,100,-7647,1261,14804,3095.50,6,P-GPS,1,1,0,0,0,0,0,1656155291090,0,0,0,0,0,0,27,,,,,,,0,0,0,55.00,139.00,1029.00,-857.00,0.00,1030.00,6,803.00,0.00,491.48,0.00,0.00,0.00,0,,,100,100,0,2,0,0,0,2,0,,,,,0.0,0.0,0.0,0.0,0.0,0.0,0
55.956200,-4.402348,80.30,0.00,0.00,49.14,80.30,80.30,0.10,49.24,1293,2022-06-25 11:08:11.197,2022-06-25 12:08:11.196,20,0,0,14.804,55.956102,-4.403115,0.00,0.00,0.00,-5.40,13.70,102.90,0,1,0,37,100,-7647,1261,14804,3095.50,6,P-GPS,1,1,0,0,0,0,0,1656155291196,0,0,0,0,0,0,27,,,,,,,0,0,0,54.00,137.00,1029.00,-857.00,0.00,1030.00,6,803.00,0.00,491.41,0.00,0.00,0.00,0,,,100,100,0,2,0,0,0,2,0,,,,,0.0,0.0,0.0,0.0,0.0,0.0,0
55.956200,-4.402348,80.30,0.00,0.00,49.14,80.30,80.30,0.10,49.24,1391,2022-06-25 11:08:11.294,2022-06-25 12:08:11.294,20,0,0,14.804,55.956102,-4.403115,0.00,0.00,0.00,-5.30,13.80,102.90,0,1,0,37,100,-7647,1261,14804,3095.50,6,P-GPS,1,1,0,0,0,0,0,1656155291294,0,0,0,0,0,0,27,,,,,,,0,0,0,53.00,138.00,1029.00,-857.00,0.00,1030.00,6,803.00,0.00,491.42,0.00,0.00,0.00,0,,,100,100,0,2,0,0,0,2,0,,,,,0.0,0.0,0.0,0.0,0.0,0.0,0
55.956200,-4.402348,80.30,0.00,0.00,49.14,80.30,80.30,0.10,49.24,1503,2022-06-25 11:08:11.407,2022-06-25 12:08:11.407,20,0,0,14.804,55.956102,-4.403115,0.00,0.00,0.00,-5.20,13.90,103.00,0,1,0,37,100,-7647,1261,14804,3095.50,6,P-GPS,1,1,0,0,0,0,0,1656155291406,0,0,0,0,0,0,27,,,,,,,0,0,0,52.00,139.00,1030.00,-857.00,0.00,1030.00,6,803.00,0.00,491.38,0.00,0.00,0.00,0,,,100,100,0,2,0,0,0,2,0,,,,,0.0,0.0,0.0,0.0,0.0,0.0,0
55.956200,-4.402348,80.30,0.00,0.10,49.12,80.30,80.30,0.10,49.24,1689,2022-06-25 11:08:11.592,2022-06-25 12:08:11.592,20,0,0,14.804,55.956102,-4.403115,0.00,0.00,0.10,-5.10,14.10,102.90,0,1,0,37,100,-7647,1261,14804,3095.50,6,P-GPS,1,1,0,0,0,0,0,1656155291592,0,0,0,0,0,0,27,,,,,,,0,0,0,51.00,141.00,1029.00,-857.00,0.00,1030.00,6,803.00,1.00,491.20,0.00,0.00,1.00,0,,,100,100,0,2,0,0,0,2,0,,,,,0.0,0.0,0.0,0.0,0.0,0.0,0
55.956200,-4.402348,80.30,0.00,0.00,49.12,80.30,80.30,0.10,49.24,1796,2022-06-25 11:08:11.699,2022-06-25 12:08:11.699,20,0,0,14.804,55.956102,-4.403115,0.00,0.00,0.00,-5.40,14.40,102.80,0,1,0,37,100,-7647,1261,14804,3095.50,6,P-GPS,1,1,0,0,0,0,0,1656155291699,0,0,0,0,0,0,27,,,,,,,0,0,0,54.00,144.00,1028.00,-857.00,0.00,1030.00,6,803.00,0.00,491.23,0.00,0.00,0.00,0,,,100,100,0,2,0,0,0,2,0,,,,,0.0,0.0,0.0,0.0,0.0,0.0,0
55.956200,-4.402348,80.30,0.00,0.10,49.12,80.30,80.30,0.10,49.24,1897,2022-06-25 11:08:11.800,2022-06-25 12:08:11.800,20,0,0,14.804,55.956102,-4.403115,0.00,0.00,0.10,-5.80,14.40,102.70,0,1,0,37,100,-7647,1261,14804,3095.50,6,P-GPS,1,1,0,0,0,0,0,1656155291800,0,0,0,0,0,0,27,,,,,,,0,0,0,58.00,144.00,1027.00,-857.00,0.00,1030.00,6,803.00,1.00,491.19,0.00,0.00,1.00,0,,,100,100,0,2,0,0,0,2,0,,,,,0.0,0.0,0.0,0.0,0.0,0.0,0
55.956200,-4.402348,80.30,0.00,0.10,49.11,80.30,80.30,0.10,49.24,1993,2022-06-25 11:08:11.896,2022-06-25 12:08:11.896,20,0,0,14.804,55.956102,-4.403115,0.00,0.00,0.10,-5.80,14.20,102.70,0,1,0,37,100,-7647,1261,14804,3095.50,6,P-GPS,1,1,0,0,0,0,0,1656155291896,0,0,0,0,0,0,27,,,,,,,0,0,0,58.00,142.00,1027.00,-857.00,0.00,1030.00,6,803.00,1.00,491.06,0.00,0.00,1.00,0,,,100,100,0,2,0,0,0,2,0,,,,,0.0,0.0,0.0,0.0,0.0,0.0,0
55.956200,-4.402348,80.30,0.00,0.00,49.10,80.30,80.30,0.10,49.24,2096,2022-06-25 11:08:11.999,2022-06-25 12:08:11.999,20,0,0,14.804,55.956102,-4.403115,0.00,0.00,0.00,-5.70,14.30,102.80,0,1,0,37,100,-7647,1261,14804,3095.50,6,P-GPS,1,1,0,0,0,0,0,1656155291999,0,0,0,0,0,0,27,,,,,,,0,0,0,57.00,143.00,1028.00,-857.00,0.00,1030.00,6,803.00,0.00,491.02,0.00,0.00,0.00,0,,,100,100,0,2,0,0,0,2,0,,,,,0.0,0.0,0.0,0.0,0.0,0.0,0
55.956200,-4.402348,80.30,0.00,0.00,49.10,80.30,80.30,0.10,49.24,2187,2022-06-25 11:08:12.090,2022-06-25 12:08:12.090,20,0,0,14.804,55.956102,-4.403115,0.00,0.00,0.00,-5.70,14.30,102.80,0,1,0,37,100,-7647,1261,14804,3095.50,6,P-GPS,1,1,0,0,0,0,0,1656155292090,0,0,0,0,0,0,27,,,,,,,0,0,0,57.00,143.00,1028.00,-857.00,0.00,1030.00,6,803.00,0.00,491.02,0.00,0.00,0.00,0,,,100,100,0,2,0,0,0,2,0,,,,,0.0,0.0,0.0,0.0,0.0,0.0,0
55.956200,-4.402349,80.30,0.00,0.00,49.10,80.30,80.30,0.10,49.24,2296,2022-06-25 11:08:12.199,2022-06-25 12:08:12.199,20,0,0,14.804,55.956102,-4.403115,0.00,0.00,0.00,-6.00,14.60,102.70,0,1,0,37,100,-7647,1261,14804,3095.50,6,P-GPS,1,1,0,0,0,0,0,1656155292199,0,0,0,0,0,0,27,,,,,,,0,0,0,60.00,146.00,1027.00,-857.00,0.00,1030.00,6,803.00,0.00,491.00,0.00,0.00,0.00,0,,,100,100,0,2,0,0,0,2,0,,,,,0.0,0.0,0.0,0.0,0.0,0.0,0
55.956200,-4.402349,80.30,0.00,0.00,49.10,80.30,80.30,0.10,49.24,2392,2022-06-25 11:08:12.296,2022-06-25 12:08:12.295,20,0,0,14.804,55.956102,-4.403115,0.00,0.00,0.00,-6.20,14.60,102.60,0,1,0,37,100,-7647,1261,14804,3095.50,6,P-GPS,1,1,0,0,0,0,0,1656155292295,0,0,0,0,0,0,27,,,,,,,0,0,0,62.00,146.00,1026.00,-857.00,0.00,1030.00,6,803.00,0.00,490.99,0.00,0.00,0.00,0,,,100,100,0,2,0,0,0,2,0,,,,,0.0,0.0,0.0,0.0,0.0,0.0,0
55.956200,-4.402349,80.30,0.00,0.10,49.10,80.30,80.30,0.10,49.24,2492,2022-06-25 11:08:12.396,2022-06-25 12:08:12.395,20,0,0,14.804,55.956102,-4.403115,0.00,0.00,0.10,-6.20,14.50,102.60,0,1,0,37,100,-7647,1261,14804,3095.50,6,P-GPS,1,1,0,0,0,0,0,1656155292395,0,0,0,0,0,0,27,,,,,,,0,0,0,62.00,145.00,1026.00,-857.00,0.00,1030.00,6,803.00,1.00,490.97,0.00,0.00,1.00,0,,,100,100,0,2,0,0,0,2,0,,,,,0.0,0.0,0.0,0.0,0.0,0.0,0
55.956200,-4.402349,80.30,0.00,0.00,49.09,80.30,80.30,0.10,49.24,2594,2022-06-25 11:08:12.498,2022-06-25 12:08:12.497,20,0,0,14.804,55.956102,-4.403115,0.00,0.00,0.00,-6.10,14.20,102.70,0,1,0,37,100,-7647,1261,14804,3095.50,6,P-GPS,1,1,0,0,0,0,0,1656155292497,0,0,0,0,0,0,27,,,,,,,0,0,0,61.00,142.00,1027.00,-857.00,0.00,1030.00,6,803.00,0.00,490.87,0.00,0.00,0.00,0,,,100,100,0,2,0,0,0,2,0,,,,,0.0,0.0,0.0,0.0,0.0,0.0,0
55.956200,-4.402349,80.30,0.00,0.00,49.09,80.30,80.30,0.10,49.24,2697,2022-06-25 11:08:12.600,2022-06-25 12:08:12.600,20,0,0,14.828,55.956102,-4.403115,0.00,0.00,0.00,-6.20,14.60,102.70,0,1,0,37,100,-7266,1259,14828,3095.50,6,P-GPS,1,1,0,0,0,0,0,1656155292600,0,0,0,0,0,0,27,,,,,,,0,0,0,62.00,146.00,1027.00,-857.00,0.00,1030.00,6,803.00,0.00,490.86,0.00,0.00,0.00,0,,,100,100,0,2,0,0,0,2,0,,,,,0.0,0.0,0.0,0.0,0.0,0.0,0
55.956200,-4.402349,80.30,0.00,0.00,49.08,80.30,80.30,0.10,49.24,2793,2022-06-25 11:08:12.697,2022-06-25 12:08:12.696,20,0,0,14.828,55.956102,-4.403115,0.00,0.00,0.00,-6.10,14.60,102.80,0,1,0,37,100,-7266,1259,14828,3095.50,6,P-GPS,1,1,0,0,0,0,0,1656155292696,0,0,0,0,0,0,27,,,,,,,0,0,0,61.00,146.00,1028.00,-857.00,0.00,1030.00,6,803.00,0.00,490.77,0.00,0.00,0.00,0,,,100,100,0,2,0,0,0,2,0,,,,,0.0,0.0,0.0,0.0,0.0,0.0,0
55.956200,-4.402349,80.30,0.00,0.00,49.08,80.30,80.30,0.10,49.24,2896,2022-06-25 11:08:12.800,2022-06-25 12:08:12.799,20,0,0,14.828,55.956102,-4.403115,0.00,0.00,0.00,-5.90,14.60,102.80,0,1,0,37,100,-7266,1259,14828,3095.50,6,P-GPS,1,1,0,0,0,0,0,1656155292799,0,0,0,0,0,0,27,,,,,,,0,0,0,59.00,146.00,1028.00,-857.00,0.00,1030.00,6,803.00,0.00,490.76,0.00,0.00,0.00,0,,,100,100,0,2,0,0,0,2,0,,,,,0.0,0.0,0.0,0.0,0.0,0.0,0
55.956200,-4.402349,80.30,0.00,0.10,49.08,80.30,80.30,0.10,49.24,2993,2022-06-25 11:08:12.897,2022-06-25 12:08:12.896,20,0,0,14.828,55.956102,-4.403115,0.00,0.00,0.10,-6.00,14.70,102.60,0,1,0,37,100,-7266,1259,14828,3095.50,6,P-GPS,1,1,0,0,0,0,0,1656155292896,0,0,0,0,0,0,27,,,,,,,0,0,0,60.00,147.00,1026.00,-857.00,0.00,1030.00,6,803.00,1.00,490.81,0.00,0.00,1.00,0,,,100,100,0,2,0,0,0,2,0,,,,,0.0,0.0,0.0,0.0,0.0,0.0,0
55.956200,-4.402349,80.30,0.00,0.10,49.08,80.30,80.30,0.10,49.24,3097,2022-06-25 11:08:13.002,2022-06-25 12:08:13.000,20,0,0,14.828,55.956102,-4.403115,0.00,0.00,0.00,-6.10,14.10,102.50,0,1,0,37,100,-7266,1259,14828,3095.50,6,P-GPS,1,1,0,0,0,0,0,1656155293000,0,0,0,0,0,0,27,,,,,,,0,0,0,61.00,141.00,1025.00,-857.00,0.00,1030.00,6,803.00,1.00,490.79,0.00,0.00,0.00,0,,,100,100,0,2,0,0,0,2,0,,,,,0.0,0.0,0.0,0.0,0.0,0.0,0
55.956200,-4.402349,80.30,0.00,0.00,49.08,80.30,80.30,0.10,49.24,3218,2022-06-25 11:08:13.122,2022-06-25 12:08:13.121,20,0,0,14.828,55.956102,-4.403115,0.00,0.00,0.00,-6.10,13.90,102.60,0,1,0,37,100,-7266,1259,14828,3095.50,6,P-GPS,1,1,0,0,0,0,0,1656155293121,0,0,0,0,0,0,27,,,,,,,0,0,0,61.00,139.00,1026.00,-857.00,0.00,1030.00,6,803.00,0.00,490.83,0.00,0.00,0.00,0,,,100,100,0,2,0,0,0,2,0,,,,,0.0,0.0,0.0,0.0,0.0,0.0,0
55.956200,-4.402349,80.30,0.00,0.00,49.08,80.30,80.30,0.10,49.24,3293,2022-06-25 11:08:13.197,2022-06-25 12:08:13.196,20,0,0,14.828,55.956102,-4.403115,0.00,0.00,0.00,-6.20,13.80,102.60,0,1,0,37,100,-7266,1259,14828,3095.50,6,P-GPS,1,1,0,0,0,0,0,1656155293196,0,0,0,0,0,0,27,,,,,,,0,0,0,62.00,138.00,1026.00,-857.00,0.00,1030.00,6,803.00,0.00,490.83,0.00,0.00,0.00,0,,,100,100,0,2,0,0,0,2,0,,,,,0.0,0.0,0.0,0.0,0.0,0.0,0
55.956200,-4.402349,80.30,0.00,0.00,49.07,80.30,80.30,0.10,49.24,3394,2022-06-25 11:08:13.298,2022-06-25 12:08:13.297,20,0,0,14.828,55.956102,-4.403115,0.00,0.00,0.00,-5.50,13.90,102.80,0,1,0,37,100,-7266,1259,14828,3095.50,6,P-GPS,1,1,0,0,0,0,0,1656155293297,0,0,0,0,0,0,27,,,,,,,0,0,0,55.00,139.00,1028.00,-857.00,0.00,1030.00,6,803.00,0.00,490.74,0.00,0.00,0.00,0,,,100,100,0,2,0,0,0,2,0,,,,,0.0,0.0,0.0,0.0,0.0,0.0,0
55.956200,-4.402349,80.30,0.00,0.00,49.07,80.30,80.30,0.10,49.24,3493,2022-06-25 11:08:13.396,2022-06-25 12:08:13.396,20,0,0,14.828,55.956102,-4.403115,0.00,0.00,0.00,-5.60,14.00,102.70,0,1,0,37,100,-7266,1259,14828,3095.50,6,P-GPS,1,1,0,0,0,0,0,1656155293396,0,0,0,0,0,0,27,,,,,,,0,0,0,56.00,140.00,1027.00,-857.00,0.00,1030.00,6,803.00,0.00,490.74,0.00,0.00,0.00,0,,,100,100,0,2,0,0,0,2,0,,,,,0.0,0.0,0.0,0.0,0.0,0.0,0
55.956200,-4.402349,80.30,0.00,0.00,49.08,80.30,80.30,0.10,49.24,3596,2022-06-25 11:08:13.499,2022-06-25 12:08:13.499,20,0,0,14.828,55.956102,-4.403115,0.00,0.00,0.00,-5.50,14.20,102.60,0,1,0,37,100,-7266,1259,14828,3095.50,6,P-GPS,1,1,0,0,0,0,0,1656155293499,0,0,0,0,0,0,27,,,,,,,0,0,0,55.00,142.00,1026.00,-857.00,0.00,1030.00,6,803.00,0.00,490.76,0.00,0.00,0.00,0,,,100,100,0,2,0,0,0,2,0,,,,,0.0,0.0,0.0,0.0,0.0,0.0,0
55.956200,-4.402349,80.30,0.00,0.00,49.07,80.30,80.30,0.10,49.24,3695,2022-06-25 11:08:13.598,2022-06-25 12:08:13.598,20,0,0,14.810,55.956102,-4.403115,0.00,0.00,0.00,-5.80,13.50,102.40,0,1,0,37,100,-7301,1257,14810,3095.50,6,P-GPS,1,1,0,0,0,0,0,1656155293598,0,0,0,0,0,0,27,,,,,,,0,0,0,58.00,135.00,1024.00,-857.00,0.00,1030.00,6,803.00,0.00,490.72,0.00,0.00,0.00,0,,,100,100,0,2,0,0,0,2,0,,,,,0.0,0.0,0.0,0.0,0.0,0.0,0
55.956200,-4.402349,80.30,0.00,0.00,49.07,80.30,80.30,0.10,49.24,3797,2022-06-25 11:08:13.701,2022-06-25 12:08:13.700,20,0,0,14.810,55.956102,-4.403115,0.00,0.00,0.00,-6.30,12.50,102.20,0,1,0,37,100,-7301,1257,14810,3095.50,6,P-GPS,1,1,0,0,0,0,0,1656155293700,0,0,0,0,0,0,27,,,,,,,0,0,0,63.00,125.00,1022.00,-857.00,0.00,1030.00,6,803.00,0.00,490.73,0.00,0.00,0.00,0,,,100,80,0,2,0,0,0,2,0,,,,,0.0,0.0,0.0,0.0,0.0,0.0,0
55.956200,-4.402349,80.20,0.00,0.00,49.07,80.30,80.30,0.10,49.24,3893,2022-06-25 11:08:13.796,2022-06-25 12:08:13.796,20,0,0,14.810,55.956102,-4.403115,0.00,0.00,0.00,-6.60,12.10,102.40,0,1,0,37,100,-7301,1257,14810,3095.50,6,P-GPS,1,1,0,0,0,0,0,1656155293796,0,0,0,0,0,0,27,,,,,,,0,0,0,66.00,121.00,1024.00,-857.00,0.00,1030.00,6,802.00,0.00,490.68,0.00,0.00,0.00,0,,,100,80,0,2,0,0,0,2,0,,,,,0.0,0.0,0.0,0.0,0.0,0.0,0
55.956200,-4.402349,80.20,0.00,0.10,49.06,80.30,80.30,0.10,49.24,3994,2022-06-25 11:08:13.898,2022-06-25 12:08:13.897,20,0,0,14.810,55.956102,-4.403115,0.00,0.00,0.10,-6.90,11.90,102.40,0,1,0,37,100,-7301,1257,14810,3095.50,6,P-GPS,1,1,0,0,0,0,0,1656155293897,0,0,0,0,0,0,27,,,,,,,0,0,0,69.00,119.00,1024.00,-857.00,0.00,1030.00,6,802.00,1.00,490.59,0.00,0.00,1.00,0,,,100,80,0,2,0,0,0,2,0,,,,,0.0,0.0,0.0,0.0,0.0,0.0,0
55.956200,-4.402349,80.20,0.00,0.00,49.06,80.30,80.30,0.10,49.24,4097,2022-06-25 11:08:14.000,2022-06-25 12:08:14.000,20,0,0,14.810,55.956102,-4.403115,0.00,0.00,0.00,-6.50,11.90,102.50,0,1,0,37,100,-7301,1257,14810,3095.50,6,P-GPS,1,1,0,0,0,0,0,1656155294000,0,0,0,0,0,0,27,,,,,,,0,0,0,65.00,119.00,1025.00,-857.00,0.00,1030.00,6,802.00,0.00,490.59,0.00,0.00,0.00,0,,,100,80,0,2,0,0,0,2,0,,,,,0.0,0.0,0.0,0.0,0.0,0.0,0
55.956200,-4.402349,80.20,0.00,0.00,49.07,80.30,80.30,0.10,49.24,4193,2022-06-25 11:08:14.097,2022-06-25 12:08:14.096,20,0,0,14.810,55.956102,-4.403115,0.00,0.00,0.00,-5.70,12.00,102.80,0,1,0,37,100,-7301,1257,14810,3095.50,6,P-GPS,1,1,0,0,0,0,0,1656155294096,0,0,0,0,0,0,27,,,,,,,0,0,0,57.00,120.00,1028.00,-857.00,0.00,1030.00,6,802.00,0.00,490.67,0.00,0.00,0.00,0,,,100,80,0,2,0,0,0,2,0,,,,,0.0,0.0,0.0,0.0,0.0,0.0,0
55.956200,-4.402349,80.20,0.00,0.00,49.07,80.30,80.30,0.10,49.24,4301,2022-06-25 11:08:14.205,2022-06-25 12:08:14.204,20,0,0,14.810,55.956102,-4.403115,0.00,0.00,0.00,-5.00,12.80,103.00,0,1,0,37,100,-7301,1257,14810,3095.50,6,P-GPS,1,1,0,0,0,0,0,1656155294204,0,0,0,0,0,0,27,,,,,,,0,0,0,50.00,128.00,1030.00,-857.00,0.00,1030.00,6,802.00,0.00,490.73,0.00,0.00,0.00,0,,,100,80,0,2,0,0,0,2,0,,,,,0.0,0.0,0.0,0.0,0.0,0.0,0
55.956200,-4.402349,80.20,0.00,0.00,49.08,80.30,80.30,0.10,49.24,4399,2022-06-25 11:08:14.302,2022-06-25 12:08:14.302,20,0,0,14.810,55.956102,-4.403115,0.00,0.00,0.00,-4.90,13.40,102.90,0,1,0,37,100,-7301,1257,14810,3095.50,6,P-GPS,1,1,0,0,0,0,0,1656155294302,0,0,0,0,0,0,27,,,,,,,0,0,0,49.00,134.00,1029.00,-857.00,0.00,1030.00,6,802.00,0.00,490.79,0.00,0.00,0.00,0,,,100,80,0,2,0,0,0,2,0,,,,,0.0,0.0,0.0,0.0,0.0,0.0,0
55.956200,-4.402349,80.20,0.00,0.00,49.09,80.30,80.30,0.10,49.24,4495,2022-06-25 11:08:14.399,2022-06-25 12:08:14.398,20,0,0,14.810,55.956102,-4.403115,0.00,0.00,0.00,-4.70,13.80,103.00,0,1,0,37,100,-7301,1257,14810,3095.50,6,P-GPS,1,1,0,0,0,0,0,1656155294398,0,0,0,0,0,0,27,,,,,,,0,0,0,47.00,138.00,1030.00,-857.00,0.00,1030.00,6,802.00,0.00,490.87,0.00,0.00,0.00,0,,,100,80,0,2,0,0,0,2,0,,,,,0.0,0.0,0.0,0.0,0.0,0.0,0
55.956200,-4.402349,80.20,0.00,0.10,49.08,80.30,80.30,0.10,49.24,4595,2022-06-25 11:08:14.499,2022-06-25 12:08:14.498,20,0,0,14.810,55.956102,-4.403115,0.00,0.00,0.10,-4.40,13.90,103.10,0,1,0,37,100,-7301,1257,14810,3095.50,6,P-GPS,1,1,0,0,0,0,0,1656155294498,0,0,0,0,0,0,27,,,,,,,0,0,0,44.00,139.00,1031.00,-857.00,0.00,1030.00,6,802.00,1.00,490.84,0.00,0.00,1.00,0,,,100,80,0,2,0,0,0,2,0,,,,,0.0,0.0,0.0,0.0,0.0,0.0,0
55.956200,-4.402348,80.20,0.00,0.10,49.09,80.30,80.30,0.10,49.24,4695,2022-06-25 11:08:14.598,2022-06-25 12:08:14.598,20,0,0,14.807,55.956102,-4.403115,0.00,0.00,0.10,-4.60,13.60,103.00,0,1,0,37,100,-7265,1255,14807,3095.50,6,P-GPS,1,1,0,0,0,0,0,1656155294598,0,0,0,0,0,0,27,,,,,,,0,0,0,46.00,136.00,1030.00,-857.00,0.00,1030.00,6,802.00,1.00,490.90,0.00,0.00,1.00,0,,,100,80,0,2,0,0,0,2,0,,,,,0.0,0.0,0.0,0.0,0.0,0.0,0
55.956200,-4.402348,80.20,0.00,0.10,49.10,80.30,80.30,0.10,49.24,4801,2022-06-25 11:08:14.704,2022-06-25 12:08:14.704,20,0,0,14.807,55.956102,-4.403115,0.00,0.00,0.10,-4.50,13.20,103.10,0,1,0,37,100,-7265,1255,14807,3095.50,6,P-GPS,1,1,0,0,0,0,0,1656155294704,0,0,0,0,0,0,27,,,,,,,0,0,0,45.00,132.00,1031.00,-857.00,0.00,1030.00,6,802.00,1.00,490.98,0.00,0.00,1.00,0,,,100,100,0,2,0,0,0,2,0,,,,,0.0,0.0,0.0,0.0,0.0,0.0,0
55.956200,-4.402348,80.20,0.00,0.10,49.10,80.30,80.30,0.10,49.24,4898,2022-06-25 11:08:14.802,2022-06-25 12:08:14.802,20,0,0,14.807,55.956102,-4.403115,0.00,0.00,0.10,-4.50,12.70,103.10,0,1,0,37,100,-7265,1255,14807,3095.50,6,P-GPS,1,1,0,0,0,0,0,1656155294801,0,0,0,0,0,0,27,,,,,,,0,0,0,45.00,127.00,1031.00,-857.00,0.00,1030.00,6,802.00,1.00,491.03,0.00,0.00,1.00,0,,,100,100,0,2,0,0,0,2,0,,,,,0.0,0.0,0.0,0.0,0.0,0.0,0
55.956200,-4.402348,80.20,0.00,0.00,49.10,80.30,80.30,0.10,49.24,4995,2022-06-25 11:08:14.899,2022-06-25 12:08:14.898,20,0,0,14.807,55.956102,-4.403115,0.00,0.00,0.00,-4.30,12.70,103.10,0,1,0,37,100,-7265,1255,14807,3095.50,6,P-GPS,1,1,0,0,0,0,0,1656155294898,0,0,0,0,0,0,27,,,,,,,0,0,0,43.00,127.00,1031.00,-857.00,0.00,1030.00,6,802.00,0.00,491.05,0.00,0.00,0.00,0,,,100,100,0,2,0,0,0,2,0,,,,,0.0,0.0,0.0,0.0,0.0,0.0,0
55.956200,-4.402348,80.20,0.00,0.00,49.11,80.30,80.30,0.10,49.24,5095,2022-06-25 11:08:14.998,2022-06-25 12:08:14.998,20,0,0,14.807,55.956102,-4.403115,0.00,0.00,0.00,-4.50,13.10,103.10,0,1,0,37,100,-7265,1255,14807,3095.50,6,P-GPS,1,1,0,0,0,0,0,1656155294998,0,0,0,0,0,0,27,,,,,,,0,0,0,45.00,131.00,1031.00,-857.00,0.00,1030.00,6,802.00,0.00,491.07,0.00,0.00,0.00,0,,,100,100,0,2,0,0,0,2,0,,,,,0.0,0.0,0.0,0.0,0.0,0.0,0
55.956199,-4.402348,80.20,0.00,0.00,49.12,80.30,80.30,0.10,49.24,5194,2022-06-25 11:08:15.097,2022-06-25 12:08:15.097,20,0,0,14.807,55.956102,-4.403115,0.00,0.00,0.00,-4.80,13.50,103.00,0,1,0,37,100,-7265,1255,14807,3095.50,6,P-GPS,1,1,0,0,0,0,0,1656155295097,3704,3701,3700,3675,0,0,27,,,,,,,0,0,0,48.00,135.00,1030.00,-857.00,0.00,1030.00,6,802.00,0.00,491.18,0.00,0.00,0.00,0,,,100,100,0,2,0,0,0,2,0,,,,,0.0,0.0,0.0,0.0,0.0,0.0,0
55.956199,-4.402348,80.20,0.00,0.00,49.12,80.30,80.30,0.10,49.24,5297,2022-06-25 11:08:15.200,2022-06-25 12:08:15.200,20,0,0,14.807,55.956102,-4.403115,0.00,0.00,0.00,-4.90,13.40,103.00,0,1,0,37,100,-7265,1255,14807,3095.50,6,P-GPS,1,1,0,0,0,0,0,1656155295200,3704,3701,3700,3675,0,0,27,,,,,,,0,0,0,49.00,134.00,1030.00,-857.00,0.00,1030.00,6,802.00,0.00,491.20,0.00,0.00,0.00,0,,,100,100,0,2,0,0,0,2,0,,,,,0.0,0.0,0.0,0.0,0.0,0.0,0
55.956199,-4.402348,80.20,0.00,0.00,49.12,80.30,80.30,0.10,49.24,5398,2022-06-25 11:08:15.301,2022-06-25 12:08:15.301,20,0,0,14.807,55.956102,-4.403115,0.00,0.00,0.00,-4.90,13.50,103.00,0,1,0,37,100,-7265,1255,14807,3095.50,6,P-GPS,1,1,0,0,0,0,0,1656155295301,3704,3701,3700,3675,0,0,27,,,,,,,0,0,0,49.00,135.00,1030.00,-857.00,0.00,1030.00,6,802.00,0.00,491.24,0.00,0.00,0.00,0,,,100,100,0,2,0,0,0,2,0,,,,,0.0,0.0,0.0,0.0,0.0,0.0,0
55.956199,-4.402348,80.20,0.00,0.00,49.13,80.30,80.30,0.10,49.24,5495,2022-06-25 11:08:15.398,2022-06-25 12:08:15.398,20,0,0,14.807,55.956102,-4.403115,0.00,0.00,0.00,-5.20,13.80,103.00,0,1,0,37,100,-7265,1255,14807,3095.50,6,P-GPS,1,1,0,0,0,0,0,1656155295398,3704,3701,3700,3675,0,0,27,,,,,,,0,0,0,52.00,138.00,1030.00,-857.00,0.00,1030.00,6,802.00,0.00,491.27,0.00,0.00,0.00,0,,,100,100,0,2,0,0,0,2,0,,,,,0.0,0.0,0.0,0.0,0.0,0.0,0
55.956199,-4.402348,80.20,0.00,0.00,49.13,80.30,80.30,0.10,49.24,5595,2022-06-25 11:08:15.499,2022-06-25 12:08:15.498,20,0,0,14.807,55.956102,-4.403115,0.00,0.00,0.00,-5.10,13.90,103.00,0,1,0,37,100,-7265,1255,14807,3095.50,6,P-GPS,1,1,0,0,0,0,0,1656155295498,3704,3701,3700,3675,0,0,27,,,,,,,0,0,0,51.00,139.00,1030.00,-857.00,0.00,1030.00,6,802.00,0.00,491.30,0.00,0.00,0.00,0,,,100,100,0,2,0,0,0,2,0,,,,,0.0,0.0,0.0,0.0,0.0,0.0,0
55.956199,-4.402348,80.20,0.00,0.00,49.13,80.30,80.30,0.10,49.24,5698,2022-06-25 11:08:15.601,2022-06-25 12:08:15.601,20,0,0,14.828,55.956102,-4.403115,0.00,0.00,0.00,-4.80,14.10,103.10,0,1,0,37,100,-7145,1253,14828,3095.50,6,P-GPS,1,1,0,0,0,0,0,1656155295601,3704,3701,3700,3675,0,0,27,,,,,,,0,0,0,48.00,141.00,1031.00,-857.00,0.00,1030.00,6,802.00,0.00,491.33,0.00,0.00,0.00,0,,,100,100,0,2,0,0,0,2,0,,,,,0.0,0.0,0.0,0.0,0.0,0.0,0
55.956200,-4.402348,80.30,0.00,0.00,49.14,80.30,80.30,0.10,49.24,5800,2022-06-25 11:08:15.703,2022-06-25 12:08:15.703,20,0,0,14.828,55.956102,-4.403115,0.00,0.00,0.00,-4.90,14.40,103.10,0,1,0,37,100,-7145,1253,14828,3095.50,6,P-GPS,1,1,0,0,0,0,0,1656155295703,3704,3701,3700,3675,0,0,27,,,,,,,0,0,0,49.00,144.00,1031.00,-857.00,0.00,1030.00,6,803.00,0.00,491.37,0.00,0.00,0.00,0,,,100,100,0,2,0,0,0,2,0,,,,,0.0,0.0,0.0,0.0,0.0,0.0,0
55.956200,-4.402348,80.30,0.00,0.00,49.14,80.30,80.30,0.10,49.24,5894,2022-06-25 11:08:15.797,2022-06-25 12:08:15.797,20,0,0,14.828,55.956102,-4.403115,0.00,0.00,0.00,-5.40,14.10,102.90,0,1,0,37,100,-7145,1253,14828,3095.50,6,P-GPS,1,1,0,0,0,0,0,1656155295797,3704,3701,3700,3675,0,0,27,,,,,,,0,0,0,54.00,141.00,1029.00,-857.00,0.00,1030.00,6,803.00,0.00,491.38,0.00,0.00,0.00,0,,,100,100,0,2,0,0,0,2,0,,,,,0.0,0.0,0.0,0.0,0.0,0.0,0
55.956200,-4.402348,80.30,0.00,0.00,49.13,80.30,80.30,0.10,49.24,5996,2022-06-25 11:08:15.899,2022-06-25 12:08:15.899,20,0,0,14.828,55.956102,-4.403115,0.00,0.00,0.00,-5.60,13.50,102.90,0,1,0,37,100,-7145,1253,14828,3095.50,6,P-GPS,1,1,0,0,0,0,0,1656155295899,3704,3701,3700,3675,0,0,27,,,,,,,0,0,0,56.00,135.00,1029.00,-857.00,0.00,1030.00,6,803.00,0.00,491.29,0.00,0.00,0.00,0,,,100,100,0,2,0,0,0,2,0,,,,,0.0,0.0,0.0,0.0,0.0,0.0,0
55.956200,-4.402348,80.20,0.00,0.00,49.13,80.30,80.30,0.10,49.24,6095,2022-06-25 11:08:15.998,2022-06-25 12:08:15.998,20,0,0,14.828,55.956102,-4.403115,0.00,0.00,0.00,-5.40,13.10,102.90,0,1,0,37,100,-7145,1253,14828,3095.50,6,P-GPS,1,1,0,0,0,0,0,1656155295998,3704,3701,3700,3675,0,0,27,,,,,,,0,0,0,54.00,131.00,1029.00,-857.00,0.00,1030.00,6,802.00,0.00,491.29,0.00,0.00,0.00,0,,,100,100,0,2,0,0,0,2,0,,,,,0.0,0.0,0.0,0.0,0.0,0.0,0
55.956200,-4.402348,80.30,0.00,0.00,49.14,80.30,80.30,0.10,49.24,6197,2022-06-25 11:08:16.100,2022-06-25 12:08:16.100,20,0,0,14.828,55.956102,-4.403115,0.00,0.00,0.00,-5.50,13.00,102.80,0,1,0,37,100,-7145,1253,14828,3095.50,6,P-GPS,1,1,0,0,0,0,0,1656155296100,3704,3701,3700,3675,0,0,27,,,,,,,0,0,0,55.00,130.00,1028.00,-857.00,0.00,1030.00,6,803.00,0.00,491.38,0.00,0.00,0.00,0,,,100,100,0,2,0,0,0,2,0,,,,,0.0,0.0,0.0,0.0,0.0,0.0,0
55.956200,-4.402348,80.30,0.00,0.00,49.14,80.30,80.30,0.10,49.24,6302,2022-06-25 11:08:16.206,2022-06-25 12:08:16.205,20,0,0,14.828,55.956102,-4.403115,0.00,0.00,0.00,-5.50,13.40,102.70,0,1,0,37,100,-7145,1253,14828,3095.50,6,P-GPS,1,1,0,0,0,0,0,1656155296205,3704,3701,3700,3675,0,0,27,,,,,,,0,0,0,55.00,134.00,1027.00,-857.00,0.00,1030.00,6,803.00,0.00,491.40,0.00,0.00,0.00,0,,,100,100,0,2,0,0,0,2,0,,,,,0.0,0.0,0.0,0.0,0.0,0.0,0
55.956200,-4.402348,80.30,0.00,0.00,49.14,80.30,80.30,0.10,49.24,6402,2022-06-25 11:08:16.305,2022-06-25 12:08:16.305,20,0,0,14.828,55.956102,-4.403115,0.00,0.00,0.00,-5.10,13.70,102.80,0,1,0,37,100,-7145,1253,14828,3095.50,6,P-GPS,1,1,0,0,0,0,0,1656155296305,3704,3701,3700,3675,0,0,27,,,,,,,0,0,0,51.00,137.00,1028.00,-857.00,0.00,1030.00,6,803.00,0.00,491.43,0.00,0.00,0.00,0,,,100,100,0,2,0,0,0,2,0,,,,,0.0,0.0,0.0,0.0,0.0,0.0,0
55.956200,-4.402347,80.30,0.00,0.00,49.15,80.30,80.30,0.10,49.24,6498,2022-06-25 11:08:16.402,2022-06-25 12:08:16.401,20,0,0,14.828,55.956102,-4.403115,0.00,0.00,0.00,-4.90,13.70,102.90,0,1,0,37,100,-7145,1253,14828,3095.50,6,P-GPS,1,1,0,0,0,0,0,1656155296401,3704,3701,3700,3675,0,0,27,,,,,,,0,0,0,49.00,137.00,1029.00,-857.00,0.00,1030.00,6,803.00,0.00,491.46,0.00,0.00,0.00,0,,,100,100,0,2,0,0,0,2,0,,,,,0.0,0.0,0.0,0.0,0.0,0.0,0
55.956200,-4.402347,80.30,0.00,0.00,49.15,80.30,80.30,0.10,49.24,6594,2022-06-25 11:08:16.498,2022-06-25 12:08:16.497,20,0,0,14.828,55.956102,-4.403115,0.00,0.00,0.00,-5.00,13.50,102.80,0,1,0,37,100,-7145,1253,14828,3095.50,6,P-GPS,1,1,0,0,0,0,0,1656155296497,3704,3701,3700,3675,0,0,27,,,,,,,0,0,0,50.00,135.00,1028.00,-857.00,0.00,1030.00,6,803.00,0.00,491.45,0.00,0.00,0.00,0,,,100,100,0,2,0,0,0,2,0,,,,,0.0,0.0,0.0,0.0,0.0,0.0,0
55.956200,-4.402347,80.30,0.00,0.00,49.15,80.30,80.30,0.10,49.24,6703,2022-06-25 11:08:16.606,2022-06-25 12:08:16.606,20,0,0,14.811,55.956102,-4.403115,0.00,0.00,0.00,-5.10,13.40,102.80,0,1,0,37,100,-7225,1251,14811,3095.50,6,P-GPS,1,1,0,0,0,0,0,1656155296606,3704,3701,3700,3675,0,0,27,,,,,,,0,0,0,51.00,134.00,1028.00,-857.00,0.00,1030.00,6,803.00,0.00,491.48,0.00,0.00,0.00,0,,,100,100,0,2,0,0,0,2,0,,,,,0.0,0.0,0.0,0.0,0.0,0.0,0
55.956199,-4.402347,80.20,0.00,0.00,49.15,80.30,80.30,0.10,49.24,6797,2022-06-25 11:08:16.701,2022-06-25 12:08:16.700,20,0,0,14.811,55.956102,-4.403115,0.00,0.00,0.00,-4.90,13.90,102.90,0,1,0,37,100,-7225,1251,14811,3095.50,6,P-GPS,1,1,0,0,0,0,0,1656155296700,3704,3701,3700,3675,0,0,27,,,,,,,0,0,0,49.00,139.00,1029.00,-857.00,0.00,1030.00,6,802.00,0.00,491.49,0.00,0.00,0.00,0,,,100,100,0,2,0,0,0,2,0,,,,,0.0,0.0,0.0,0.0,0.0,0.0,0
55.956199,-4.402347,80.30,0.00,0.10,49.15,80.30,80.30,0.10,49.24,6894,2022-06-25 11:08:16.798,2022-06-25 12:08:16.797,20,0,0,14.811,55.956102,-4.403115,0.00,0.00,0.10,-4.70,14.00,102.90,0,1,0,37,100,-7225,1251,14811,3095.50,6,P-GPS,1,1,0,0,0,0,0,1656155296797,3704,3701,3700,3675,0,0,27,,,,,,,0,0,0,47.00,140.00,1029.00,-857.00,0.00,1030.00,6,803.00,1.00,491.52,0.00,0.00,1.00,0,,,100,100,0,2,0,0,0,2,0,,,,,0.0,0.0,0.0,0.0,0.0,0.0,0
55.956199,-4.402347,80.30,0.00,0.00,49.15,80.30,80.30,0.10,49.24,6998,2022-06-25 11:08:16.902,2022-06-25 12:08:16.901,20,0,0,14.811,55.956102,-4.403115,0.00,0.00,0.00,-4.90,14.20,103.00,0,1,0,37,100,-7225,1251,14811,3095.50,6,P-GPS,1,1,0,0,0,0,0,1656155296901,3704,3701,3700,3675,0,0,27,,,,,,,0,0,0,49.00,142.00,1030.00,-857.00,0.00,1030.00,6,803.00,0.00,491.49,0.00,0.00,0.00,0,,,100,100,0,2,0,0,0,2,0,,,,,0.0,0.0,0.0,0.0,0.0,0.0,0
55.956199,-4.402347,80.30,0.00,0.00,49.15,80.30,80.30,0.10,49.24,7097,2022-06-25 11:08:17.001,2022-06-25 12:08:17.000,20,0,0,14.811,55.956102,-4.403115,0.00,0.00,0.00,-5.00,14.30,103.00,0,1,0,37,100,-7225,1251,14811,3095.50,6,P-GPS,1,1,0,0,0,0,0,1656155297000,3704,3701,3700,3675,0,0,27,,,,,,,0,0,0,50.00,143.00,1030.00,-857.00,0.00,1030.00,6,803.00,0.00,491.52,0.00,0.00,0.00,0,,,100,100,0,2,0,0,0,2,0,,,,,0.0,0.0,0.0,0.0,0.0,0.0,0
55.956200,-4.402347,80.30,0.00,0.00,49.15,80.30,80.30,0.10,49.24,7193,2022-06-25 11:08:17.096,2022-06-25 12:08:17.096,20,0,0,14.811,55.956102,-4.403115,0.00,0.00,0.00,-5.00,14.40,103.00,0,1,0,37,100,-7225,1251,14811,3095.50,6,P-GPS,1,1,0,0,0,0,0,1656155297096,3704,3701,3700,3675,0,0,27,,,,,,,0,0,0,50.00,144.00,1030.00,-857.00,0.00,1030.00,6,803.00,0.00,491.55,0.00,0.00,0.00,0,,,100,100,0,2,0,0,0,2,0,,,,,0.0,0.0,0.0,0.0,0.0,0.0,0
55.956200,-4.402347,80.30,0.00,0.00,49.16,80.30,80.30,0.10,49.24,7298,2022-06-25 11:08:17.201,2022-06-25 12:08:17.201,20,0,0,14.811,55.956102,-4.403115,0.00,0.00,0.00,-5.00,14.30,102.90,0,1,0,37,100,-7225,1251,14811,3095.50,6,P-GPS,1,1,0,0,0,0,0,1656155297201,3704,3701,3700,3675,0,0,27,,,,,,,0,0,0,50.00,143.00,1029.00,-857.00,0.00,1030.00,6,803.00,0.00,491.56,0.00,0.00,0.00,0,,,100,100,0,2,0,0,0,2,0,,,,,0.0,0.0,0.0,0.0,0.0,0.0,0
55.956199,-4.402347,80.30,0.00,0.00,49.16,80.30,80.30,0.10,49.24,7417,2022-06-25 11:08:17.320,2022-06-25 12:08:17.320,20,0,0,14.811,55.956102,-4.403115,0.00,0.00,0.00,-5.30,14.10,102.90,0,1,0,37,100,-7225,1251,14811,3095.50,6,P-GPS,1,1,0,0,0,0,0,1656155297320,3704,3701,3700,3675,0,0,27,,,,,,,0,0,0,53.00,141.00,1029.00,-857.00,0.00,1030.00,6,803.00,0.00,491.58,0.00,0.00,0.00,0,,,100,100,0,2,0,0,0,2,0,,,,,0.0,0.0,0.0,0.0,0.0,0.0,0
55.956199,-4.402347,80.30,0.00,0.00,49.16,80.30,80.30,0.10,49.24,7594,2022-06-25 11:08:17.498,2022-06-25 12:08:17.497,20,0,0,14.811,55.956102,-4.403115,0.00,0.00,0.00,-5.50,13.80,102.80,0,1,0,37,100,-7225,1251,14811,3095.50,6,P-GPS,1,1,0,0,0,0,0,1656155297497,3704,3701,3700,3675,0,0,27,,,,,,,0,0,0,55.00,138.00,1028.00,-857.00,0.00,1030.00,6,803.00,0.00,491.63,0.00,0.00,0.00,0,,,100,100,0,2,0,0,0,2,0,,,,,0.0,0.0,0.0,0.0,0.0,0.0,0
55.956199,-4.402347,80.20,0.00,0.00,49.17,80.30,80.30,0.10,49.24,7697,2022-06-25 11:08:17.600,2022-06-25 12:08:17.600,20,0,0,14.814,55.956102,-4.403115,0.00,0.00,0.00,-4.90,13.70,103.10,0,1,0,37,100,-7003,1249,14814,3095.50,6,P-GPS,1,1,0,0,0,0,0,1656155297600,3704,3701,3700,3675,0,0,27,,,,,,,0,0,0,49.00,137.00,1031.00,-857.00,0.00,1030.00,6,802.00,0.00,491.66,0.00,0.00,0.00,0,,,100,100,0,2,0,0,0,2,0,,,,,0.0,0.0,0.0,0.0,0.0,0.0,0
55.956199,-4.402347,80.20,0.00,0.00,49.17,80.30,80.30,0.10,49.24,7803,2022-06-25 11:08:17.706,2022-06-25 12:08:17.706,20,0,0,14.814,55.956102,-4.403115,0.00,0.00,0.00,-4.40,13.60,103.10,0,1,0,37,100,-7003,1249,14814,3095.50,6,P-GPS,1,1,0,0,0,0,0,1656155297706,3704,3701,3700,3675,0,0,27,,,,,,,0,0,0,44.00,136.00,1031.00,-857.00,0.00,1030.00,6,802.00,0.00,491.67,0.00,0.00,0.00,0,,,100,100,0,2,0,0,0,2,0,,,,,0.0,0.0,0.0,0.0,0.0,0.0,0
55.956199,-4.402347,80.20,0.00,0.00,49.17,80.30,80.30,0.10,49.24,7899,2022-06-25 11:08:17.802,2022-06-25 12:08:17.802,20,0,0,14.814,55.956102,-4.403115,0.00,0.00,0.00,-4.40,13.50,103.10,0,1,0,37,100,-7003,1249,14814,3095.50,6,P-GPS,1,1,0,0,0,0,0,1656155297802,3704,3701,3700,3675,0,0,27,,,,,,,0,0,0,44.00,135.00,1031.00,-857.00,0.00,1030.00,6,802.00,0.00,491.69,0.00,0.00,0.00,0,,,100,100,0,2,0,0,0,2,0,,,,,0.0,0.0,0.0,0.0,0.0,0.0,0
55.956199,-4.402347,80.20,0.00,0.00,49.17,80.30,80.30,0.10,49.24,7997,2022-06-25 11:08:17.900,2022-06-25 12:08:17.900,20,0,0,14.814,55.956102,-4.403115,0.00,0.00,0.00,-4.70,13.30,103.10,0,1,0,37,100,-7003,1249,14814,3095.50,6,P-GPS,1,1,0,0,0,0,0,1656155297900,3704,3701,3700,3675,0,0,27,,,,,,,0,0,0,47.00,133.00,1031.00,-857.00,0.00,1030.00,6,802.00,0.00,491.67,0.00,0.00,0.00,0,,,100,100,0,2,0,0,0,2,0,,,,,0.0,0.0,0.0,0.0,0.0,0.0,0
55.956199,-4.402347,80.20,0.00,0.00,49.17,80.30,80.30,0.10,49.24,8098,2022-06-25 11:08:18.002,2022-06-25 12:08:18.001,20,0,0,14.814,55.956102,-4.403115,0.00,0.00,0.00,-4.90,13.00,102.90,0,1,0,37,100,-7003,1249,14814,3095.50,6,P-GPS,1,1,0,0,0,0,0,1656155298001,3704,3701,3700,3675,0,0,27,,,,,,,0,0,0,49.00,130.00,1029.00,-857.00,0.00,1030.00,6,802.00,0.00,491.66,0.00,0.00,0.00,0,,,100,100,0,2,0,0,0,2,0,,,,,0.0,0.0,0.0,0.0,0.0,0.0,0
55.956199,-4.402347,80.20,0.00,0.00,49.15,80.30,80.30,0.10,49.24,8196,2022-06-25 11:08:18.099,2022-06-25 12:08:18.099,20,0,0,14.814,55.956102,-4.403115,0.00,0.00,0.00,-5.00,12.90,103.00,0,1,0,37,100,-7003,1249,14814,3095.50,6,P-GPS,1,1,0,0,0,0,0,1656155298099,3704,3701,3700,3675,0,0,27,,,,,,,0,0,0,50.00,129.00,1030.00,-857.00,0.00,1030.00,6,802.00,0.00,491.54,0.00,0.00,0.00,0,,,100,100,0,2,0,0,0,2,0,,,,,0.0,0.0,0.0,0.0,0.0,0.0,0
55.956199,-4.402347,80.20,0.00,0.00,49.15,80.30,80.30,0.10,49.24,8293,2022-06-25 11:08:18.196,2022-06-25 12:08:18.196,20,0,0,14.814,55.956102,-4.403115,0.00,0.00,0.00,-5.00,12.70,103.00,0,1,0,37,100,-7003,1249,14814,3095.50,6,P-GPS,1,1,0,0,0,0,0,1656155298196,3704,3701,3700,3675,0,0,27,,,,,,,0,0,0,50.00,127.00,1030.00,-857.00,0.00,1030.00,6,802.00,0.00,491.52,0.00,0.00,0.00,0,,,100,100,0,2,0,0,0,2,0,,,,,0.0,0.0,0.0,0.0,0.0,0.0,0
55.956199,-4.402347,80.20,0.00,0.00,49.16,80.30,80.30,0.10,49.24,8403,2022-06-25 11:08:18.307,2022-06-25 12:08:18.306,20,0,0,14.814,55.956102,-4.403115,0.00,0.00,0.00,-5.10,12.20,102.90,0,1,0,37,100,-7003,1249,14814,3095.50,6,P-GPS,1,1,0,0,0,0,0,1656155298306,3704,3701,3700,3675,0,0,27,,,,,,,0,0,0,51.00,122.00,1029.00,-857.00,0.00,1030.00,6,802.00,0.00,491.58,0.00,0.00,0.00,0,,,100,100,0,2,0,0,0,2,0,,,,,0.0,0.0,0.0,0.0,0.0,0.0,0
55.956199,-4.402347,80.20,0.00,0.00,49.16,80.30,80.30,0.10,49.24,8500,2022-06-25 11:08:18.403,2022-06-25 12:08:18.403,20,0,0,14.814,55.956102,-4.403115,0.00,0.00,0.00,-4.90,12.30,103.00,0,1,0,37,100,-7003,1249,14814,3095.50,6,P-GPS,1,1,0,0,0,0,0,1656155298403,3704,3701,3700,3675,0,0,27,,,,,,,0,0,0,49.00,123.00,1030.00,-857.00,0.00,1030.00,6,802.00,0.00,491.57,0.00,0.00,0.00,0,,,100,100,0,2,0,0,0,2,0,,,,,0.0,0.0,0.0,0.0,0.0,0.0,0
55.956199,-4.402347,80.20,0.00,0.00,49.15,80.30,80.30,0.10,49.24,8599,2022-06-25 11:08:18.502,2022-06-25 12:08:18.502,20,0,0,14.814,55.956102,-4.403115,0.00,0.00,0.00,-5.20,12.30,102.90,0,1,0,37,100,-7003,1249,14814,3095.50,6,P-GPS,1,1,0,0,0,0,0,1656155298502,3704,3701,3700,3675,0,0,27,,,,,,,0,0,0,52.00,123.00,1029.00,-857.00,0.00,1030.00,6,802.00,0.00,491.48,0.00,0.00,0.00,0,,,100,100,0,2,0,0,0,2,0,,,,,0.0,0.0,0.0,0.0,0.0,0.0,0
55.956199,-4.402347,80.20,0.00,0.00,49.15,80.30,80.30,0.10,49.24,8699,2022-06-25 11:08:18.602,2022-06-25 12:08:18.602,20,0,0,14.796,55.956102,-4.403115,0.00,0.00,0.00,-5.10,12.30,102.90,0,1,0,37,100,-7413,1247,14796,3095.50,6,P-GPS,1,1,0,0,0,0,0,1656155298602,3704,3701,3700,3675,0,0,27,,,,,,,0,0,0,51.00,123.00,1029.00,-857.00,0.00,1030.00,6,802.00,0.00,491.46,0.00,0.00,0.00,0,,,100,100,0,2,0,0,0,2,0,,,,,0.0,0.0,0.0,0.0,0.0,0.0,0
55.956199,-4.402347,80.20,0.00,0.00,49.14,80.30,80.30,0.10,49.24,8801,2022-06-25 11:08:18.705,2022-06-25 12:08:18.704,20,0,0,14.796,55.956102,-4.403115,0.00,0.00,0.00,-5.10,12.30,102.90,0,1,0,37,100,-7413,1247,14796,3095.50,6,P-GPS,1,1,0,0,0,0,0,1656155298704,3704,3701,3700,3675,0,0,27,,,,,,,0,0,0,51.00,123.00,1029.00,-857.00,0.00,1030.00,6,802.00,0.00,491.44,0.00,0.00,0.00,0,,,100,100,0,2,0,0,0,2,0,,,,,0.0,0.0,0.0,0.0,0.0,0.0,0
55.956199,-4.402347,80.20,0.00,0.00,49.14,80.30,80.30,0.10,49.24,8897,2022-06-25 11:08:18.800,2022-06-25 12:08:18.800,20,0,0,14.796,55.956102,-4.403115,0.00,0.00,0.00,-4.90,12.00,102.90,0,1,0,37,100,-7413,1247,14796,3095.50,6,P-GPS,1,1,0,0,0,0,0,1656155298800,3704,3701,3700,3675,0,0,27,,,,,,,0,0,0,49.00,120.00,1029.00,-857.00,0.00,1030.00,6,802.00,0.00,491.44,0.00,0.00,0.00,0,,,100,100,0,2,0,0,0,2,0,,,,,0.0,0.0,0.0,0.0,0.0,0.0,0
55.956198,-4.402347,80.20,0.00,0.00,49.14,80.30,80.30,0.10,49.24,9002,2022-06-25 11:08:18.905,2022-06-25 12:08:18.905,20,0,0,14.796,55.956102,-4.403115,0.00,0.00,0.00,-4.70,12.00,103.00,0,1,0,37,100,-7413,1247,14796,3095.50,6,P-GPS,1,1,0,0,0,0,0,1656155298905,3704,3701,3700,3675,0,0,27,,,,,,,0,0,0,47.00,120.00,1030.00,-857.00,0.00,1030.00,6,802.00,0.00,491.42,0.00,0.00,0.00,0,,,100,100,0,2,0,0,0,2,0,,,,,0.0,0.0,0.0,0.0,0.0,0.0,0
55.956198,-4.402347,80.20,0.00,0.00,49.14,80.30,80.30,0.10,49.24,9098,2022-06-25 11:08:19.001,2022-06-25 12:08:19.001,20,0,0,14.796,55.956102,-4.403115,0.00,0.00,0.00,-4.60,12.10,103.00,0,1,0,37,100,-7413,1247,14796,3095.50,6,P-GPS,1,1,0,0,0,0,0,1656155299001,3704,3701,3700,3675,0,0,27,,,,,,,0,0,0,46.00,121.00,1030.00,-857.00,0.00,1030.00,6,802.00,0.00,491.41,0.00,0.00,0.00,0,,,100,100,0,2,0,0,0,2,0,,,,,0.0,0.0,0.0,0.0,0.0,0.0,0
55.956198,-4.402347,80.20,0.00,0.00,49.14,80.30,80.30,0.10,49.24,9205,2022-06-25 11:08:19.109,2022-06-25 12:08:19.108,20,0,0,14.796,55.956102,-4.403115,0.00,0.00,0.00,-4.90,11.90,102.90,0,1,0,37,100,-7413,1247,14796,3095.50,6,P-GPS,1,1,0,0,0,0,0,1656155299108,3704,3701,3700,3675,0,0,27,,,,,,,0,0,0,49.00,119.00,1029.00,-857.00,0.00,1030.00,6,802.00,0.00,491.40,0.00,0.00,0.00,0,,,100,100,0,2,0,0,0,2,0,,,,,0.0,0.0,0.0,0.0,0.0,0.0,0
55.956198,-4.402347,80.20,0.00,0.00,49.14,80.30,80.30,0.10,49.24,9295,2022-06-25 11:08:19.199,2022-06-25 12:08:19.198,20,0,0,14.796,55.956102,-4.403115,0.00,0.00,0.00,-5.00,12.20,102.90,0,1,0,37,100,-7413,1247,14796,3095.50,6,P-GPS,1,1,0,0,0,0,0,1656155299198,3704,3701,3700,3675,0,0,27,,,,,,,0,0,0,50.00,122.00,1029.00,-857.00,0.00,1030.00,6,802.00,0.00,491.38,0.00,0.00,0.00,0,,,100,100,0,2,0,0,0,2,0,,,,,0.0,0.0,0.0,0.0,0.0,0.0,0
55.956198,-4.402347,80.20,0.00,0.00,49.14,80.30,80.30,0.10,49.24,9393,2022-06-25 11:08:19.296,2022-06-25 12:08:19.296,20,0,0,14.796,55.956102,-4.403115,0.00,0.00,0.00,-5.20,12.30,102.80,0,1,0,37,100,-7413,1247,14796,3095.50,6,P-GPS,1,1,0,0,0,0,0,1656155299296,3704,3701,3700,3675,0,0,27,,,,,,,0,0,0,52.00,123.00,1028.00,-857.00,0.00,1030.00,6,802.00,0.00,491.40,0.00,0.00,0.00,0,,,100,100,0,2,0,0,0,2,0,,,,,0.0,0.0,0.0,0.0,0.0,0.0,0
55.956198,-4.402347,80.20,0.00,0.00,49.14,80.30,80.30,0.10,49.24,9499,2022-06-25 11:08:19.403,2022-06-25 12:08:19.402,20,0,0,14.796,55.956102,-4.403115,0.00,0.00,0.00,-5.10,12.70,102.80,0,1,0,37,100,-7413,1247,14796,3095.50,6,P-GPS,1,1,0,0,0,0,0,1656155299402,3704,3701,3700,3675,0,0,27,,,,,,,0,0,0,51.00,127.00,1028.00,-857.00,0.00,1030.00,6,802.00,0.00,491.38,0.00,0.00,0.00,0,,,100,100,0,2,0,0,0,2,0,,,,,0.0,0.0,0.0,0.0,0.0,0.0,0
55.956198,-4.402347,80.20,0.00,0.00,49.14,80.30,80.30,0.10,49.24,9603,2022-06-25 11:08:19.507,2022-06-25 12:08:19.507,20,0,0,14.796,55.956102,-4.403115,0.00,0.00,0.00,-5.50,12.70,102.80,0,1,0,37,100,-7413,1247,14796,3095.50,6,P-GPS,1,1,0,0,0,0,0,1656155299506,3704,3701,3700,3675,0,0,27,,,,,,,0,0,0,55.00,127.00,1028.00,-857.00,0.00,1030.00,6,802.00,0.00,491.36,0.00,0.00,0.00,0,,,100,100,0,2,0,0,0,2,0,,,,,0.0,0.0,0.0,0.0,0.0,0.0,0
55.956198,-4.402347,80.20,0.00,0.00,49.13,80.30,80.30,0.10,49.24,9693,2022-06-25 11:08:19.596,2022-06-25 12:08:19.596,20,0,0,14.790,55.956102,-4.403115,0.00,0.00,0.00,-5.60,12.60,102.70,0,1,0,37,100,-7531,1244,14790,3095.50,6,P-GPS,1,1,0,0,0,0,0,1656155299596,3704,3701,3700,3675,0,0,27,,,,,,,0,0,0,56.00,126.00,1027.00,-857.00,0.00,1030.00,6,802.00,0.00,491.34,0.00,0.00,0.00,0,,,100,100,0,2,0,0,0,2,0,,,,,0.0,0.0,0.0,0.0,0.0,0.0,0
55.956198,-4.402347,80.20,0.00,0.00,12.43,80.30,80.30,0.10,49.24,9807,2022-06-25 11:08:19.711,2022-06-25 12:08:19.710,20,0,0,14.790,55.956102,-4.403115,0.00,0.00,0.00,-5.50,12.30,102.80,0,1,0,37,100,-7531,1244,14790,3095.50,6,P-GPS,1,1,0,0,0,0,0,1656155299710,3704,3701,3700,3675,0,0,27,,,,,,,0,0,0,55.00,123.00,1028.00,-857.00,0.00,1030.00,6,802.00,0.00,124.35,0.00,0.00,0.00,0,,,100,100,0,2,0,0,0,2,2,,,,,0.0,0.0,0.0,0.0,0.0,0.0,0
55.956198,-4.402347,80.30,0.00,0.00,12.44,80.30,80.30,0.10,49.24,9894,2022-06-25 11:08:19.797,2022-06-25 12:08:19.797,20,0,0,14.790,55.956102,-4.403115,0.00,0.00,0.00,-5.50,12.50,102.70,0,1,0,37,100,-7531,1244,14790,3095.50,6,P-GPS,1,1,0,0,0,0,0,1656155299797,3704,3701,3700,3675,0,0,27,,,,,,,0,0,0,55.00,125.00,1027.00,-857.00,0.00,1030.00,6,803.00,0.00,124.36,0.00,0.00,0.00,0,,,100,100,0,2,0,0,0,2,2,,,,,0.0,0.0,0.0,0.0,0.0,0.0,0
55.956198,-4.402347,80.30,0.00,0.00,12.44,80.30,80.30,0.10,49.24,10002,2022-06-25 11:08:19.905,2022-06-25 12:08:19.905,20,0,0,14.790,55.956102,-4.403115,0.00,0.00,0.00,-5.70,12.90,102.70,0,1,0,37,100,-7531,1244,14790,3095.50,6,P-GPS,1,1,0,0,0,0,0,1656155299905,3704,3701,3700,3675,0,0,27,,,,,,,0,0,0,57.00,129.00,1027.00,-857.00,0.00,1030.00,6,803.00,0.00,124.41,0.00,0.00,0.00,0,,,100,100,0,2,0,0,0,2,2,,,,,0.0,0.0,0.0,0.0,0.0,0.0,0
55.956198,-4.402347,80.30,0.00,0.00,12.44,80.30,80.30,0.10,49.24,10097,2022-06-25 11:08:20.000,2022-06-25 12:08:20.000,20,0,0,14.790,55.956102,-4.403115,0.00,0.00,0.00,-5.70,13.30,102.70,0,1,0,37,100,-7531,1244,14790,3095.50,6,P-GPS,1,1,0,0,0,0,0,1656155300000,3704,3701,3700,3675,0,0,27,,,,,,,0,0,0,57.00,133.00,1027.00,-857.00,0.00,1030.00,6,803.00,0.00,124.43,0.00,0.00,0.00,0,,,100,100,0,2,0,0,0,2,2,,,,,0.0,0.0,0.0,0.0,0.0,0.0,0
55.956198,-4.402347,80.30,0.00,0.00,12.44,80.30,80.30,0.10,49.24,10214,2022-06-25 11:08:20.118,2022-06-25 12:08:20.117,20,0,0,14.790,55.956102,-4.403115,0.00,0.00,0.00,-6.10,13.80,102.60,0,1,0,37,100,-7531,1244,14790,3095.50,6,P-GPS,1,1,0,0,0,0,0,1656155300117,3704,3701,3700,3675,0,0,27,,,,,,,0,0,0,61.00,138.00,1026.00,-857.00,0.00,1030.00,6,803.00,0.00,124.45,0.00,0.00,0.00,0,,,100,100,0,2,0,0,0,2,2,,,,,0.0,0.0,0.0,0.0,0.0,0.0,0
55.956198,-4.402347,80.30,0.00,0.10,12.45,80.30,80.30,0.10,49.24,10301,2022-06-25 11:08:20.205,2022-06-25 12:08:20.204,20,0,0,14.790,55.956102,-4.403115,0.10,0.00,0.00,-6.30,14.20,102.60,0,1,0,37,100,-7531,1244,14790,3095.50,6,P-GPS,1,1,0,0,0,0,0,1656155300204,3704,3701,3700,3675,0,0,27,,,,,,,0,0,0,63.00,142.00,1026.00,-857.00,0.00,1030.00,6,803.00,1.00,124.49,1.00,0.00,0.00,0,,,100,100,0,2,0,0,0,2,2,,,,,0.0,0.0,0.0,0.0,0.0,0.0,0
55.956198,-4.402347,80.30,0.00,0.00,12.46,80.30,80.30,0.10,49.24,10393,2022-06-25 11:08:20.296,2022-06-25 12:08:20.296,20,0,0,14.790,55.956102,-4.403115,0.00,0.00,0.00,-6.60,14.00,102.40,0,1,0,37,100,-7531,1244,14790,3095.50,6,P-GPS,1,1,0,0,0,0,0,1656155300296,3704,3701,3700,3675,0,0,27,,,,,,,0,0,0,66.00,140.00,1024.00,-857.00,0.00,1030.00,6,803.00,0.00,124.57,0.00,0.00,0.00,0,,,100,100,0,2,0,0,0,2,2,,,,,0.0,0.0,0.0,0.0,0.0,0.0,0
55.956199,-4.402347,80.30,0.00,0.00,12.46,80.30,80.30,0.10,49.24,10495,2022-06-25 11:08:20.399,2022-06-25 12:08:20.398,20,0,0,14.790,55.956102,-4.403115,0.00,0.00,0.00,-6.60,13.90,102.50,0,1,0,37,100,-7531,1244,14790,3095.50,6,P-GPS,1,1,0,0,0,0,0,1656155300398,3704,3701,3700,3675,0,0,27,,,,,,,0,0,0,66.00,139.00,1025.00,-857.00,0.00,1030.00,6,803.00,0.00,124.62,0.00,0.00,0.00,0,,,100,100,0,2,0,0,0,2,2,,,,,0.0,0.0,0.0,0.0,0.0,0.0,0
55.956199,-4.402347,80.30,0.00,0.00,12.46,80.30,80.30,0.10,49.24,10595,2022-06-25 11:08:20.499,2022-06-25 12:08:20.498,20,0,0,14.789,55.956102,-4.403115,0.00,0.00,0.00,-6.80,14.10,102.50,0,1,0,37,100,-7403,1242,14789,3095.50,6,P-GPS,1,1,0,0,0,0,0,1656155300498,3704,3701,3700,3675,0,0,27,,,,,,,0,0,0,68.00,141.00,1025.00,-857.00,0.00,1030.00,6,803.00,0.00,124.64,0.00,0.00,0.00,0,,,100,100,0,2,0,0,0,2,2,,,,,0.0,0.0,0.0,0.0,0.0,0.0,0
55.956199,-4.402347,80.40,0.00,0.10,12.46,80.40,80.40,0.10,49.24,10694,2022-06-25 11:08:20.597,2022-06-25 12:08:20.597,20,0,0,14.789,55.956102,-4.403115,0.10,0.00,0.00,-6.10,14.80,102.80,0,1,0,37,100,-7403,1242,14789,3095.50,6,P-GPS,1,1,0,0,0,0,0,1656155300597,3704,3701,3700,3675,0,0,27,,,,,,,0,0,0,61.00,148.00,1028.00,-857.00,0.00,1030.00,6,804.00,1.00,124.64,1.00,0.00,0.00,0,,,100,100,0,2,0,0,0,2,2,,,,,0.0,0.0,0.0,0.0,0.0,0.0,0
55.956199,-4.402347,80.40,0.00,0.10,12.46,80.40,80.40,0.10,49.24,10795,2022-06-25 11:08:20.698,2022-06-25 12:08:20.698,20,0,0,14.789,55.956102,-4.403115,0.10,0.00,0.00,-5.80,15.10,102.90,0,1,0,37,100,-7403,1242,14789,3095.50,6,P-GPS,1,1,0,0,0,0,0,1656155300698,3704,3701,3700,3675,0,0,27,,,,,,,0,0,0,58.00,151.00,1029.00,-857.00,0.00,1030.00,6,804.00,1.00,124.62,1.00,0.00,0.00,0,,,100,100,0,2,0,0,0,2,2,,,,,0.0,0.0,0.0,0.0,0.0,0.0,0
55.956199,-4.402347,80.40,0.00,0.10,12.46,80.40,80.40,0.10,49.24,10898,2022-06-25 11:08:20.801,2022-06-25 12:08:20.801,20,0,0,14.789,55.956102,-4.403115,0.10,0.00,0.00,-5.40,15.80,102.90,0,1,0,37,100,-7403,1242,14789,3095.50,6,P-GPS,1,1,0,0,0,0,0,1656155300801,3704,3701,3700,3675,0,0,27,,,,,,,0,0,0,54.00,158.00,1029.00,-857.00,0.00,1030.00,6,804.00,1.00,124.61,1.00,0.00,0.00,0,,,100,100,0,2,0,0,0,2,2,,,,,0.0,0.0,0.0,0.0,0.0,0.0,0
55.956199,-4.402347,80.40,0.00,0.10,12.45,80.40,80.40,0.10,49.24,11014,2022-06-25 11:08:20.917,2022-06-25 12:08:20.917,20,0,0,14.789,55.956102,-4.403115,0.10,0.00,0.00,-5.70,15.90,102.90,0,1,0,37,100,-7403,1242,14789,3095.50,6,P-GPS,1,1,0,0,0,0,0,1656155300917,3704,3701,3700,3675,0,0,27,,,,,,,0,0,0,57.00,159.00,1029.00,-857.00,0.00,1030.00,6,804.00,1.00,124.53,1.00,0.00,0.00,0,,,100,100,0,2,0,0,0,2,2,,,,,0.0,0.0,0.0,0.0,0.0,0.0,0
55.956199,-4.402347,80.50,0.00,0.00,12.45,80.50,80.50,0.10,49.24,11130,2022-06-25 11:08:21.034,2022-06-25 12:08:21.034,20,0,0,14.789,55.956102,-4.403115,0.00,0.00,0.00,-5.50,15.50,102.90,0,1,0,37,100,-7403,1242,14789,3095.50,6,P-GPS,1,1,0,0,0,0,0,1656155301033,3704,3701,3700,3675,0,0,27,,,,,,,0,0,0,55.00,155.00,1029.00,-857.00,0.00,1030.00,6,805.00,0.00,124.50,0.00,0.00,0.00,0,,,100,100,0,2,0,0,0,2,2,,,,,0.0,0.0,0.0,0.0,0.0,0.0,0
55.956199,-4.402347,80.50,0.00,0.00,12.45,80.50,80.50,0.10,49.24,11296,2022-06-25 11:08:21.200,2022-06-25 12:08:21.199,20,0,0,14.789,55.956102,-4.403115,0.00,0.00,0.00,-5.00,14.70,102.90,0,1,0,37,100,-7403,1242,14789,3095.50,6,P-GPS,1,1,0,0,0,0,0,1656155301199,3704,3701,3700,3675,0,0,27,,,,,,,0,0,0,50.00,147.00,1029.00,-857.00,0.00,1030.00,6,805.00,0.00,124.47,0.00,0.00,0.00,0,,,100,100,0,2,0,0,0,2,2,,,,,0.0,0.0,0.0,0.0,0.0,0.0,0
55.956199,-4.402347,80.50,0.00,0.10,12.45,80.50,80.50,0.10,49.24,11393,2022-06-25 11:08:21.296,2022-06-25 12:08:21.296,20,0,0,14.789,55.956102,-4.403115,0.00,0.00,0.10,-5.50,13.70,102.80,0,1,0,37,100,-7403,1242,14789,3095.50,6,P-GPS,1,1,0,0,0,0,0,1656155301296,3704,3701,3700,3675,0,0,27,,,,,,,0,0,0,55.00,137.00,1028.00,-857.00,0.00,1030.00,6,805.00,1.00,124.47,0.00,0.00,1.00,0,,,100,100,0,2,0,0,0,2,2,,,,,0.0,0.0,0.0,0.0,0.0,0.0,0
55.956199,-4.402347,80.40,0.00,0.10,12.44,80.50,80.50,0.10,49.24,11493,2022-06-25 11:08:21.396,2022-06-25 12:08:21.396,20,0,0,14.789,55.956102,-4.403115,0.00,0.00,0.10,-5.60,12.80,102.90,0,1,0,37,100,-7403,1242,14789,3095.50,6,P-GPS,1,1,0,0,0,0,0,1656155301396,3704,3701,3700,3675,0,0,27,,,,,,,0,0,0,56.00,128.00,1029.00,-857.00,0.00,1030.00,6,804.00,1.00,124.44,0.00,0.00,1.00,0,,,100,100,0,2,0,0,0,2,2,,,,,0.0,0.0,0.0,0.0,0.0,0.0,0
55.956199,-4.402347,80.40,0.00,0.10,12.44,80.50,80.50,0.10,49.24,11594,2022-06-25 11:08:21.498,2022-06-25 12:08:21.497,20,0,0,14.789,55.956102,-4.403115,0.00,0.00,0.10,-5.10,12.50,103.10,0,1,0,37,100,-7403,1242,14789,3095.50,6,P-GPS,1,1,0,0,0,0,0,1656155301497,3704,3701,3700,3675,0,0,27,,,,,,,0,0,0,51.00,125.00,1031.00,-857.00,0.00,1030.00,6,804.00,1.00,124.38,0.00,0.00,1.00,0,,,100,100,0,2,0,0,0,2,2,,,,,0.0,0.0,0.0,0.0,0.0,0.0,0
55.956199,-4.402347,80.40,0.00,0.14,12.43,80.50,80.50,0.14,49.24,11696,2022-06-25 11:08:21.599,2022-06-25 12:08:21.599,20,0,0,14.823,55.956102,-4.403115,-0.10,0.00,0.10,-4.70,12.10,103.30,0,1,0,37,100,-6901,1240,14823,3095.50,6,P-GPS,1,1,0,0,0,0,0,1656155301599,3704,3701,3700,3675,0,0,27,,,,,,,0,0,0,47.00,121.00,1033.00,-857.00,0.00,1030.00,6,804.00,1.41,124.32,-1.00,0.00,1.00,0,,,100,100,0,2,0,0,0,2,2,,,,,0.0,0.0,0.0,0.0,0.0,0.0,0
55.956199,-4.402347,80.30,0.00,0.14,12.42,80.50,80.50,0.14,49.24,11794,2022-06-25 11:08:21.697,2022-06-25 12:08:21.697,20,0,0,14.823,55.956102,-4.403115,-0.10,0.00,0.10,-4.80,11.40,103.30,0,1,0,37,100,-6901,1240,14823,3095.50,6,P-GPS,1,1,0,0,0,0,0,1656155301697,3704,3701,3700,3675,0,0,27,,,,,,,0,0,0,48.00,114.00,1033.00,-857.00,0.00,1030.00,6,803.00,1.41,124.22,-1.00,0.00,1.00,0,,,100,100,0,2,0,0,0,2,2,,,,,0.0,0.0,0.0,0.0,0.0,0.0,0
55.956199,-4.402347,80.30,0.00,0.14,12.42,80.50,80.50,0.14,49.24,11903,2022-06-25 11:08:21.806,2022-06-25 12:08:21.806,20,0,0,14.823,55.956102,-4.403115,-0.10,0.00,0.10,-4.70,10.50,103.30,0,1,0,37,100,-6901,1240,14823,3095.50,6,P-GPS,1,1,0,0,0,0,0,1656155301806,3704,3701,3700,3675,0,0,27,,,,,,,0,0,0,47.00,105.00,1033.00,-857.00,0.00,1030.00,6,803.00,1.41,124.15,-1.00,0.00,1.00,0,,,100,100,0,2,0,0,0,2,2,,,,,0.0,0.0,0.0,0.0,0.0,0.0,0
55.956198,-4.402347,80.30,0.00,0.14,12.41,80.50,80.50,0.14,49.24,11995,2022-06-25 11:08:21.898,2022-06-25 12:08:21.898,20,0,0,14.823,55.956102,-4.403115,-0.10,0.00,0.10,-4.30,10.70,103.20,0,1,0,37,100,-6901,1240,14823,3095.50,6,P-GPS,1,1,0,0,0,0,0,1656155301898,3704,3701,3700,3675,0,0,27,,,,,,,0,0,0,43.00,107.00,1032.00,-857.00,0.00,1030.00,6,803.00,1.41,124.09,-1.00,0.00,1.00,0,,,100,100,0,2,0,0,0,2,2,,,,,0.0,0.0,0.0,0.0,0.0,0.0,0
55.956198,-4.402347,80.30,0.00,0.10,12.40,80.50,80.50,0.14,49.24,12103,2022-06-25 11:08:22.006,2022-06-25 12:08:22.006,20,0,0,14.823,55.956102,-4.403115,0.00,0.00,0.10,-4.10,11.20,103.20,0,1,0,37,100,-6901,1240,14823,3095.50,6,P-GPS,1,1,0,0,0,0,0,1656155302006,3704,3701,3700,3675,0,0,27,,,,,,,0,0,0,41.00,112.00,1032.00,-857.00,0.00,1030.00,6,803.00,1.00,124.01,0.00,0.00,1.00,0,,,100,100,0,2,0,0,0,2,2,,,,,0.0,0.0,0.0,0.0,0.0,0.0,0
55.956198,-4.402346,80.20,0.00,0.10,12.40,80.50,80.50,0.14,49.24,12195,2022-06-25 11:08:22.098,2022-06-25 12:08:22.098,20,0,0,14.823,55.956102,-4.403115,0.00,0.00,0.10,-4.50,11.60,103.10,0,1,0,37,100,-6901,1240,14823,3095.50,6,P-GPS,1,1,0,0,0,0,0,1656155302098,3704,3701,3700,3675,0,0,27,,,,,,,0,0,0,45.00,116.00,1031.00,-857.00,0.00,1030.00,6,802.00,1.00,123.97,0.00,0.00,1.00,0,,,100,100,0,2,0,0,0,2,2,,,,,0.0,0.0,0.0,0.0,0.0,0.0,0
55.956198,-4.402346,80.20,0.00,0.10,12.39,80.50,80.50,0.14,49.24,12302,2022-06-25 11:08:22.206,2022-06-25 12:08:22.205,20,0,0,14.823,55.956102,-4.403115,0.00,0.00,0.10,-4.60,11.90,103.10,0,1,0,37,100,-6901,1240,14823,3095.50,6,P-GPS,1,1,0,0,0,0,0,1656155302205,3704,3701,3700,3675,0,0,27,,,,,,,0,0,0,46.00,119.00,1031.00,-857.00,0.00,1030.00,6,802.00,1.00,123.92,0.00,0.00,1.00,0,,,100,100,0,2,0,0,0,2,2,,,,,0.0,0.0,0.0,0.0,0.0,0.0,0
55.956198,-4.402346,80.20,0.00,0.00,12.38,80.50,80.50,0.14,49.24,12393,2022-06-25 11:08:22.296,2022-06-25 12:08:22.296,20,0,0,14.823,55.956102,-4.403115,0.00,0.00,0.00,-4.50,12.40,103.10,0,1,0,37,100,-6901,1240,14823,3095.50,6,P-GPS,1,1,0,0,0,0,0,1656155302296,3704,3701,3700,3675,0,0,27,,,,,,,0,0,0,45.00,124.00,1031.00,-857.00,0.00,1030.00,6,802.00,0.00,123.83,0.00,0.00,0.00,0,,,100,100,0,2,0,0,0,2,2,,,,,0.0,0.0,0.0,0.0,0.0,0.0,0
55.956198,-4.402346,80.20,0.00,0.00,12.38,80.50,80.50,0.14,49.24,12495,2022-06-25 11:08:22.398,2022-06-25 12:08:22.398,20,0,0,14.823,55.956102,-4.403115,0.00,0.00,0.00,-4.50,12.40,103.10,0,1,0,37,100,-6901,1240,14823,3095.50,6,P-GPS,1,1,0,0,0,0,0,1656155302398,3704,3701,3700,3675,0,0,27,,,,,,,0,0,0,45.00,124.00,1031.00,-857.00,0.00,1030.00,6,802.00,0.00,123.78,0.00,0.00,0.00,0,,,100,100,0,2,0,0,0,2,2,,,,,0.0,0.0,0.0,0.0,0.0,0.0,0
55.956198,-4.402346,80.20,0.00,0.10,12.38,80.50,80.50,0.14,49.24,12597,2022-06-25 11:08:22.500,2022-06-25 12:08:22.500,20,0,0,14.823,55.956102,-4.403115,0.00,0.00,0.10,-4.80,12.40,103.00,0,1,0,37,100,-6901,1240,14823,3095.50,6,P-GPS,1,1,0,0,0,0,0,1656155302500,3704,3701,3700,3675,0,0,27,,,,,,,0,0,0,48.00,124.00,1030.00,-857.00,0.00,1030.00,6,802.00,1.00,123.79,0.00,0.00,1.00,0,,,100,100,0,2,0,0,0,2,2,,,,,0.0,0.0,0.0,0.0,0.0,0.0,0
55.956198,-4.402346,80.20,0.00,0.10,12.38,80.50,80.50,0.14,49.24,12701,2022-06-25 11:08:22.604,2022-06-25 12:08:22.604,20,0,0,14.829,55.956102,-4.403115,0.00,0.00,0.10,-4.90,12.70,102.90,0,1,0,37,100,-6222,1238,14829,3095.50,6,P-GPS,1,1,0,0,0,0,0,1656155302604,3704,3701,3700,3675,0,0,27,,,,,,,0,0,0,49.00,127.00,1029.00,-857.00,0.00,1030.00,6,802.00,1.00,123.77,0.00,0.00,1.00,0,,,100,100,0,2,0,0,0,2,2,,,,,0.0,0.0,0.0,0.0,0.0,0.0,0
55.956198,-4.402346,80.20,0.00,0.10,12.37,80.50,80.50,0.14,49.24,12795,2022-06-25 11:08:22.698,2022-06-25 12:08:22.698,20,0,0,14.829,55.956102,-4.403115,0.00,0.00,0.10,-5.20,13.20,102.70,0,1,0,37,100,-6222,1238,14829,3095.50,6,P-GPS,1,1,0,0,0,0,0,1656155302698,3704,3701,3700,3675,0,0,27,,,,,,,0,0,0,52.00,132.00,1027.00,-857.00,0.00,1030.00,6,802.00,1.00,123.70,0.00,0.00,1.00,0,,,100,100,0,2,0,0,0,2,2,,,,,0.0,0.0,0.0,0.0,0.0,0.0,0
55.956198,-4.402346,80.20,0.00,0.14,12.37,80.50,80.50,0.14,49.24,12899,2022-06-25 11:08:22.802,2022-06-25 12:08:22.802,20,0,0,14.829,55.956102,-4.403115,0.10,0.00,0.10,-5.50,13.80,102.70,0,1,0,37,100,-6222,1238,14829,3095.50,6,P-GPS,1,1,0,0,0,0,0,1656155302802,3704,3701,3700,3675,0,0,27,,,,,,,0,0,0,55.00,138.00,1027.00,-857.00,0.00,1030.00,6,802.00,1.41,123.70,1.00,0.00,1.00,0,,,100,100,0,2,0,0,0,2,2,,,,,0.0,0.0,0.0,0.0,0.0,0.0,0
55.956198,-4.402346,80.20,0.00,0.14,12.38,80.50,80.50,0.14,49.24,13001,2022-06-25 11:08:22.905,2022-06-25 12:08:22.904,20,0,0,14.829,55.956102,-4.403115,0.10,0.00,0.10,-5.90,14.30,102.60,0,1,0,37,100,-6222,1238,14829,3095.50,6,P-GPS,1,1,0,0,0,0,0,1656155302904,3704,3701,3700,3675,0,0,27,,,,,,,0,0,0,59.00,143.00,1026.00,-857.00,0.00,1030.00,6,802.00,1.41,123.84,1.00,0.00,1.00,0,,,100,100,0,2,0,0,0,2,2,,,,,0.0,0.0,0.0,0.0,0.0,0.0,0
55.956199,-4.402346,80.20,0.00,0.14,12.39,80.50,80.50,0.14,49.24,13097,2022-06-25 11:08:23.001,2022-06-25 12:08:23.000,20,0,0,14.829,55.956102,-4.403115,0.10,0.00,0.10,-6.40,14.70,102.40,0,1,0,37,100,-6222,1238,14829,3095.50,6,P-GPS,1,1,0,0,0,0,0,1656155303000,3704,3701,3700,3675,0,0,27,,,,,,,0,0,0,64.00,147.00,1024.00,-857.00,0.00,1030.00,6,802.00,1.41,123.88,1.00,0.00,1.00,0,,,100,100,0,2,0,0,0,2,2,,,,,0.0,0.0,0.0,0.0,0.0,0.0,0
55.956198,-4.402346,80.20,0.00,0.14,12.38,80.50,80.50,0.14,49.24,13204,2022-06-25 11:08:23.108,2022-06-25 12:08:23.107,20,0,0,14.829,55.956102,-4.403115,0.10,0.00,0.10,-6.50,15.00,102.40,0,1,0,37,100,-6222,1238,14829,3095.50,6,P-GPS,1,1,0,0,0,0,0,1656155303107,3704,3701,3700,3675,0,0,27,,,,,,,0,0,0,65.00,150.00,1024.00,-857.00,0.00,1030.00,6,802.00,1.41,123.83,1.00,0.00,1.00,0,,,100,100,0,2,0,0,0,2,2,,,,,0.0,0.0,0.0,0.0,0.0,0.0,0
55.956199,-4.402346,80.20,0.00,0.10,12.39,80.50,80.50,0.14,49.24,13295,2022-06-25 11:08:23.198,2022-06-25 12:08:23.198,20,0,0,14.829,55.956102,-4.403115,0.10,0.00,0.00,-6.60,15.30,102.40,0,1,0,37,100,-6222,1238,14829,3095.50,6,P-GPS,1,1,0,0,0,0,0,1656155303198,3704,3701,3700,3675,0,0,27,,,,,,,0,0,0,66.00,153.00,1024.00,-857.00,0.00,1030.00,6,802.00,1.00,123.86,1.00,0.00,0.00,0,,,100,100,0,2,0,0,0,2,2,,,,,0.0,0.0,0.0,0.0,0.0,0.0,0
55.956199,-4.402346,80.20,0.00,0.10,12.40,80.50,80.50,0.14,49.24,13393,2022-06-25 11:08:23.296,2022-06-25 12:08:23.296,20,0,0,14.829,55.956102,-4.403115,0.10,0.00,0.00,-6.60,15.50,102.40,0,1,0,37,100,-6222,1238,14829,3095.50,6,P-GPS,1,1,0,0,0,0,0,1656155303296,3704,3701,3700,3675,0,0,27,,,,,,,0,0,0,66.00,155.00,1024.00,-857.00,0.00,1030.00,6,802.00,1.00,123.99,1.00,0.00,0.00,0,,,100,100,0,2,0,0,0,2,2,,,,,0.0,0.0,0.0,0.0,0.0,0.0,0
55.956199,-4.402346,80.20,0.00,0.10,12.40,80.50,80.50,0.14,49.24,13496,2022-06-25 11:08:23.400,2022-06-25 12:08:23.399,20,0,0,14.829,55.956102,-4.403115,0.10,0.00,0.00,-6.60,15.60,102.40,0,1,0,37,100,-6222,1238,14829,3095.50,6,P-GPS,1,1,0,0,0,0,0,1656155303399,3704,3701,3700,3675,0,0,27,,,,,,,0,0,0,66.00,156.00,1024.00,-857.00,0.00,1030.00,6,802.00,1.00,124.03,1.00,0.00,0.00,0,,,100,100,0,2,0,0,0,2,2,,,,,0.0,0.0,0.0,0.0,0.0,0.0,0
55.956199,-4.402346,80.20,0.00,0.10,12.41,80.50,80.50,0.14,49.24,13598,2022-06-25 11:08:23.502,2022-06-25 12:08:23.501,20,0,0,14.829,55.956102,-4.403115,0.10,0.00,0.00,-6.60,15.60,102.40,0,1,0,37,100,-6222,1238,14829,3095.50,6,P-GPS,1,1,0,0,0,0,0,1656155303501,3704,3701,3700,3675,0,0,27,,,,,,,0,0,0,66.00,156.00,1024.00,-857.00,0.00,1030.00,6,802.00,1.00,124.09,1.00,0.00,0.00,0,,,100,100,0,2,0,0,0,2,2,,,,,0.0,0.0,0.0,0.0,0.0,0.0,0
55.956199,-4.402347,80.20,0.00,0.00,12.41,80.50,80.50,0.14,49.24,13696,2022-06-25 11:08:23.600,2022-06-25 12:08:23.599,20,0,0,14.820,55.956102,-4.403115,0.00,0.00,0.00,-6.70,15.40,102.50,0,1,0,37,100,-6488,1237,14820,3095.50,6,P-GPS,1,1,0,0,0,0,0,1656155303599,3704,3701,3700,3675,0,0,27,,,,,,,0,0,0,67.00,154.00,1025.00,-857.00,0.00,1030.00,6,802.00,0.00,124.14,0.00,0.00,0.00,0,,,100,100,0,2,0,0,0,2,2,,,,,0.0,0.0,0.0,0.0,0.0,0.0,0
55.956199,-4.402346,80.20,0.00,0.00,12.41,80.50,80.50,0.14,49.24,13792,2022-06-25 11:08:23.696,2022-06-25 12:08:23.696,20,0,0,14.820,55.956102,-4.403115,0.00,0.00,0.00,-6.70,15.30,102.50,0,1,0,37,100,-6488,1237,14820,3095.50,6,P-GPS,1,1,0,0,0,0,0,1656155303695,3704,3701,3700,3675,0,0,27,,,,,,,0,0,0,67.00,153.00,1025.00,-857.00,0.00,1030.00,6,802.00,0.00,124.14,0.00,0.00,0.00,0,,,100,100,0,2,0,0,0,2,2,,,,,0.0,0.0,0.0,0.0,0.0,0.0,0
